[
  {
    "FIELD1": 0,
    "ID": 1,
    "First": 6943.233333333333,
    "Last": 7139.430303030304,
    "Percent Change": 2.8257291708037693,
    "rise": "up",
    "Location": "BREST",
    "Latitude": 48.383,
    "Longitude": -4.495,
    "GLOSS ID": 242,
    "Country": "FRA",
    "Date": "30/08/2016",
    "Coastline": 190,
    "Station": 91,
    "id": 1,
    "Flag": " N"
  },
  {
    "FIELD1": 1,
    "ID": 5,
    "First": 6934.85,
    "Last": 7083.57,
    "Percent Change": 2.1445308838691437,
    "rise": "up",
    "Location": "HOLYHEAD",
    "Latitude": 53.31399999999999,
    "Longitude": -4.62,
    "GLOSS ID": null,
    "Country": "GBR",
    "Date": "31/05/2016",
    "Coastline": 170,
    "Station": 191,
    "id": 5,
    "Flag": " Y"
  },
  {
    "FIELD1": 2,
    "ID": 7,
    "First": 6822.25,
    "Last": 7149.583333333333,
    "Percent Change": 4.798026066669105,
    "rise": "up",
    "Location": "CUXHAVEN 2",
    "Latitude": 53.867,
    "Longitude": 8.717,
    "GLOSS ID": 284,
    "Country": "DEU",
    "Date": "27/01/2016",
    "Coastline": 140,
    "Station": 12,
    "id": 7,
    "Flag": " N"
  },
  {
    "FIELD1": 3,
    "ID": 8,
    "First": 6897.6833333333325,
    "Last": 7093.3,
    "Percent Change": 2.8359763302171657,
    "rise": "up",
    "Location": "WISMAR 2",
    "Latitude": 53.898999999999994,
    "Longitude": 11.458,
    "GLOSS ID": null,
    "Country": "DEU",
    "Date": "18/11/2015",
    "Coastline": 120,
    "Station": 22,
    "id": 8,
    "Flag": " N"
  },
  {
    "FIELD1": 4,
    "ID": 9,
    "First": 6690.75,
    "Last": 6946.533333333335,
    "Percent Change": 3.8229396305845333,
    "rise": "up",
    "Location": "MAASSLUIS",
    "Latitude": 51.918,
    "Longitude": 4.25,
    "GLOSS ID": null,
    "Country": "NLD",
    "Date": "14/06/2016",
    "Coastline": 150,
    "Station": 61,
    "id": 9,
    "Flag": " N"
  },
  {
    "FIELD1": 5,
    "ID": 10,
    "First": 6897.466666666665,
    "Last": 7106.7,
    "Percent Change": 3.0334808915350737,
    "rise": "up",
    "Location": "SAN FRANCISCO",
    "Latitude": 37.806999999999995,
    "Longitude": -122.465,
    "GLOSS ID": 158,
    "Country": "USA",
    "Date": "08/03/2016",
    "Coastline": 823,
    "Station": 31,
    "id": 10,
    "Flag": " N"
  },
  {
    "FIELD1": 6,
    "ID": 11,
    "First": 6916.988888888889,
    "Last": 7108.65,
    "Percent Change": 2.770874931127699,
    "rise": "up",
    "Location": "WARNEMUNDE 2",
    "Latitude": 54.17,
    "Longitude": 12.103,
    "GLOSS ID": null,
    "Country": "DEU",
    "Date": "01/09/2016",
    "Coastline": 120,
    "Station": 12,
    "id": 11,
    "Flag": " N"
  },
  {
    "FIELD1": 7,
    "ID": 12,
    "First": 6715.05,
    "Last": 7143.116666666667,
    "Percent Change": 6.37473535813831,
    "rise": "up",
    "Location": "NEW YORK ( THE BATTERY)",
    "Latitude": 40.7,
    "Longitude": -74.013,
    "GLOSS ID": null,
    "Country": "USA",
    "Date": "08/03/2016",
    "Coastline": 960,
    "Station": 121,
    "id": 12,
    "Flag": " N"
  },
  {
    "FIELD1": 8,
    "ID": 13,
    "First": 6817.416666666667,
    "Last": 7044.2,
    "Percent Change": 3.326528866017179,
    "rise": "up",
    "Location": "TRAVEMUNDE",
    "Latitude": 53.958,
    "Longitude": 10.872,
    "GLOSS ID": null,
    "Country": "DEU",
    "Date": "18/11/2015",
    "Coastline": 125,
    "Station": 1,
    "id": 13,
    "Flag": " N"
  },
  {
    "FIELD1": 9,
    "ID": 14,
    "First": 7262.666666666667,
    "Last": 6925.616666666667,
    "Percent Change": -4.640857352671198,
    "rise": "down",
    "Location": "HELSINKI",
    "Latitude": 60.153999999999996,
    "Longitude": 24.956,
    "GLOSS ID": null,
    "Country": "FIN",
    "Date": "06/10/2015",
    "Coastline": 60,
    "Station": 351,
    "id": 14,
    "Flag": " N"
  },
  {
    "FIELD1": 10,
    "ID": 20,
    "First": 6777.5,
    "Last": 6938.3166666666675,
    "Percent Change": 2.3728021640231285,
    "rise": "up",
    "Location": "VLISSINGEN",
    "Latitude": 51.442,
    "Longitude": 3.596,
    "GLOSS ID": null,
    "Country": "NLD",
    "Date": "14/06/2016",
    "Coastline": 150,
    "Station": 101,
    "id": 20,
    "Flag": " N"
  },
  {
    "FIELD1": 11,
    "ID": 22,
    "First": 6581.333333333333,
    "Last": 6962.783333333335,
    "Percent Change": 5.795938006483007,
    "rise": "up",
    "Location": "HOEK VAN HOLLAND",
    "Latitude": 51.978,
    "Longitude": 4.12,
    "GLOSS ID": null,
    "Country": "NLD",
    "Date": "14/06/2016",
    "Coastline": 150,
    "Station": 51,
    "id": 22,
    "Flag": " N"
  },
  {
    "FIELD1": 12,
    "ID": 23,
    "First": 6741.5,
    "Last": 6952.066666666666,
    "Percent Change": 3.12343939281563,
    "rise": "up",
    "Location": "DEN HELDER",
    "Latitude": 52.964,
    "Longitude": 4.745,
    "GLOSS ID": null,
    "Country": "NLD",
    "Date": "14/06/2016",
    "Coastline": 150,
    "Station": 31,
    "id": 23,
    "Flag": " N"
  },
  {
    "FIELD1": 13,
    "ID": 24,
    "First": 6732,
    "Last": 6944.95,
    "Percent Change": 3.1632501485442637,
    "rise": "up",
    "Location": "DELFZIJL",
    "Latitude": 53.326,
    "Longitude": 6.933,
    "GLOSS ID": null,
    "Country": "NLD",
    "Date": "14/06/2016",
    "Coastline": 150,
    "Station": 1,
    "id": 24,
    "Flag": " N"
  },
  {
    "FIELD1": 14,
    "ID": 25,
    "First": 6765.166666666667,
    "Last": 7003.533333333335,
    "Percent Change": 3.5234411569067183,
    "rise": "up",
    "Location": "HARLINGEN",
    "Latitude": 53.176,
    "Longitude": 5.409,
    "GLOSS ID": null,
    "Country": "NLD",
    "Date": "14/06/2016",
    "Coastline": 150,
    "Station": 21,
    "id": 25,
    "Flag": " N"
  },
  {
    "FIELD1": 15,
    "ID": 32,
    "First": 6829.591666666665,
    "Last": 6984.983333333333,
    "Percent Change": 2.275270239435994,
    "rise": "up",
    "Location": "IJMUIDEN",
    "Latitude": 52.461999999999996,
    "Longitude": 4.555,
    "GLOSS ID": null,
    "Country": "NLD",
    "Date": "14/06/2016",
    "Coastline": 150,
    "Station": 41,
    "id": 32,
    "Flag": " N"
  },
  {
    "FIELD1": 16,
    "ID": 41,
    "First": 6153.5,
    "Last": 7109,
    "Percent Change": 15.527748435849517,
    "rise": "up",
    "Location": "POTI",
    "Latitude": 42.167,
    "Longitude": 41.683,
    "GLOSS ID": null,
    "Country": "GEO",
    "Date": "21/06/2016",
    "Coastline": 305,
    "Station": 21,
    "id": 41,
    "Flag": " N"
  },
  {
    "FIELD1": 17,
    "ID": 43,
    "First": 6981.333333333333,
    "Last": 7111.789999999999,
    "Percent Change": 1.8686497326203115,
    "rise": "up",
    "Location": "MUMBAI / BOMBAY (APOLLO BANDAR)",
    "Latitude": 18.917,
    "Longitude": 72.833,
    "GLOSS ID": null,
    "Country": "IND",
    "Date": "27/01/2016",
    "Coastline": 500,
    "Station": 41,
    "id": 43,
    "Flag": " N"
  },
  {
    "FIELD1": 18,
    "ID": 45,
    "First": 6971.616666666666,
    "Last": 6865.483333333333,
    "Percent Change": -1.5223632968919198,
    "rise": "down",
    "Location": "KABELVAG",
    "Latitude": 68.21300000000001,
    "Longitude": 14.482000000000001,
    "GLOSS ID": null,
    "Country": "NOR",
    "Date": "08/09/2016",
    "Coastline": 40,
    "Station": 91,
    "id": 45,
    "Flag": " N"
  },
  {
    "FIELD1": 19,
    "ID": 47,
    "First": 6912.225656565655,
    "Last": 6976.666666666667,
    "Percent Change": 0.9322758443194292,
    "rise": "even",
    "Location": "STAVANGER",
    "Latitude": 58.974,
    "Longitude": 5.73,
    "GLOSS ID": null,
    "Country": "NOR",
    "Date": "08/09/2016",
    "Coastline": 40,
    "Station": 261,
    "id": 47,
    "Flag": " N"
  },
  {
    "FIELD1": 20,
    "ID": 51,
    "First": 6768.333333333334,
    "Last": 6959.666666666667,
    "Percent Change": 2.826889928589013,
    "rise": "up",
    "Location": "BATUMI",
    "Latitude": 41.633,
    "Longitude": 41.7,
    "GLOSS ID": null,
    "Country": "GEO",
    "Date": "06/07/2016",
    "Coastline": 305,
    "Station": 31,
    "id": 51,
    "Flag": " Y"
  },
  {
    "FIELD1": 21,
    "ID": 57,
    "First": 7627.716666666667,
    "Last": 6670.9,
    "Percent Change": -12.54394609133796,
    "rise": "down",
    "Location": "VAASA / VASA",
    "Latitude": 63.082,
    "Longitude": 21.570999999999998,
    "GLOSS ID": null,
    "Country": "FIN",
    "Date": "06/10/2015",
    "Coastline": 60,
    "Station": 51,
    "id": 57,
    "Flag": " N"
  },
  {
    "FIELD1": 22,
    "ID": 58,
    "First": 6911.388888888889,
    "Last": 6974.283333333335,
    "Percent Change": 0.9100116554801075,
    "rise": "even",
    "Location": "BERGEN",
    "Latitude": 60.398,
    "Longitude": 5.32,
    "GLOSS ID": null,
    "Country": "NOR",
    "Date": "08/09/2016",
    "Coastline": 40,
    "Station": 221,
    "id": 58,
    "Flag": " N"
  },
  {
    "FIELD1": 23,
    "ID": 61,
    "First": 6845.798484848485,
    "Last": 7042.133333333333,
    "Percent Change": 2.8679612600252256,
    "rise": "up",
    "Location": "MARSEILLE",
    "Latitude": 43.278999999999996,
    "Longitude": 5.354,
    "GLOSS ID": 205,
    "Country": "FRA",
    "Date": "30/08/2016",
    "Coastline": 230,
    "Station": 51,
    "id": 61,
    "Flag": " N"
  },
  {
    "FIELD1": 24,
    "ID": 69,
    "First": 7023.833333333334,
    "Last": 6921.05,
    "Percent Change": -1.4633509716916273,
    "rise": "down",
    "Location": "OLANDS NORRA UDDE",
    "Latitude": 57.36600000000001,
    "Longitude": 17.097,
    "GLOSS ID": null,
    "Country": "SWE",
    "Date": "05/04/2016",
    "Coastline": 50,
    "Station": 91,
    "id": 69,
    "Flag": " N"
  },
  {
    "FIELD1": 25,
    "ID": 70,
    "First": 7008,
    "Last": 7051.15,
    "Percent Change": 0.6157248858447437,
    "rise": "even",
    "Location": "KUNGSHOLMSFORT",
    "Latitude": 56.105,
    "Longitude": 15.589,
    "GLOSS ID": null,
    "Country": "SWE",
    "Date": "05/04/2016",
    "Coastline": 50,
    "Station": 81,
    "id": 70,
    "Flag": " N"
  },
  {
    "FIELD1": 26,
    "ID": 71,
    "First": 7199.824545454545,
    "Last": 6860.95,
    "Percent Change": -4.7067056053259835,
    "rise": "down",
    "Location": "HANKO / HANGO",
    "Latitude": 59.823,
    "Longitude": 22.976999999999997,
    "GLOSS ID": null,
    "Country": "FIN",
    "Date": "06/10/2015",
    "Coastline": 60,
    "Station": 331,
    "id": 71,
    "Flag": " N"
  },
  {
    "FIELD1": 27,
    "ID": 76,
    "First": 6983.7,
    "Last": 7082.133333333333,
    "Percent Change": 1.409472533661718,
    "rise": "up",
    "Location": "AARHUS",
    "Latitude": 56.147,
    "Longitude": 10.224,
    "GLOSS ID": null,
    "Country": "DNK",
    "Date": "11/09/2013",
    "Coastline": 130,
    "Station": 81,
    "id": 76,
    "Flag": " N"
  },
  {
    "FIELD1": 28,
    "ID": 78,
    "First": 7253.166666666666,
    "Last": 6825.8166666666675,
    "Percent Change": -5.89190928100368,
    "rise": "down",
    "Location": "STOCKHOLM",
    "Latitude": 59.324,
    "Longitude": 18.082,
    "GLOSS ID": 341,
    "Country": "SWE",
    "Date": "05/04/2016",
    "Coastline": 50,
    "Station": 141,
    "id": 78,
    "Flag": " N"
  },
  {
    "FIELD1": 29,
    "ID": 79,
    "First": 7590.333333333334,
    "Last": 6878.9333333333325,
    "Percent Change": -9.372447411180907,
    "rise": "down",
    "Location": "OULU / ULEABORG",
    "Latitude": 65.04,
    "Longitude": 25.418000000000003,
    "GLOSS ID": null,
    "Country": "FIN",
    "Date": "06/10/2015",
    "Coastline": 60,
    "Station": 11,
    "id": 79,
    "Flag": " N"
  },
  {
    "FIELD1": 30,
    "ID": 80,
    "First": 6948.1,
    "Last": 7119.766666666667,
    "Percent Change": 2.4706994238233038,
    "rise": "up",
    "Location": "ESBJERG",
    "Latitude": 55.461000000000006,
    "Longitude": 8.441,
    "GLOSS ID": null,
    "Country": "DNK",
    "Date": "11/09/2013",
    "Coastline": 130,
    "Station": 121,
    "id": 80,
    "Flag": " N"
  },
  {
    "FIELD1": 31,
    "ID": 81,
    "First": 6959.573333333334,
    "Last": 7103.0666666666675,
    "Percent Change": 2.0618122183735466,
    "rise": "up",
    "Location": "FREDERICIA",
    "Latitude": 55.56100000000001,
    "Longitude": 9.754,
    "GLOSS ID": null,
    "Country": "DNK",
    "Date": "11/09/2013",
    "Coastline": 130,
    "Station": 71,
    "id": 81,
    "Flag": " N"
  },
  {
    "FIELD1": 32,
    "ID": 82,
    "First": 6956.283333333333,
    "Last": 7013.062121212121,
    "Percent Change": 0.8162230484016397,
    "rise": "even",
    "Location": "KOBENHAVN",
    "Latitude": 55.705,
    "Longitude": 12.6,
    "GLOSS ID": null,
    "Country": "DNK",
    "Date": "12/09/2013",
    "Coastline": 130,
    "Station": 21,
    "id": 82,
    "Flag": " N"
  },
  {
    "FIELD1": 33,
    "ID": 88,
    "First": 7496.166666666666,
    "Last": 6611.116666666667,
    "Percent Change": -11.806701202836997,
    "rise": "down",
    "Location": "RATAN",
    "Latitude": 63.986000000000004,
    "Longitude": 20.895,
    "GLOSS ID": null,
    "Country": "SWE",
    "Date": "05/04/2016",
    "Coastline": 50,
    "Station": 191,
    "id": 88,
    "Flag": " N"
  },
  {
    "FIELD1": 34,
    "ID": 89,
    "First": 7086.396666666667,
    "Last": 7067.533333333335,
    "Percent Change": -0.2661907626772154,
    "rise": "even",
    "Location": "HIRTSHALS",
    "Latitude": 57.596000000000004,
    "Longitude": 9.964,
    "GLOSS ID": null,
    "Country": "DNK",
    "Date": "12/09/2013",
    "Coastline": 130,
    "Station": 101,
    "id": 89,
    "Flag": " N"
  },
  {
    "FIELD1": 35,
    "ID": 91,
    "First": 6952.966666666665,
    "Last": 6944.533333333333,
    "Percent Change": -0.12129115149886839,
    "rise": "even",
    "Location": "FREDERIKSHAVN",
    "Latitude": 57.43600000000001,
    "Longitude": 10.549000000000001,
    "GLOSS ID": null,
    "Country": "DNK",
    "Date": "12/09/2013",
    "Coastline": 130,
    "Station": 91,
    "id": 91,
    "Flag": " N"
  },
  {
    "FIELD1": 36,
    "ID": 95,
    "First": 6820.848484848485,
    "Last": 7025.316666666666,
    "Percent Change": 2.9976942351435723,
    "rise": "up",
    "Location": "NORTH SHIELDS",
    "Latitude": 55.007,
    "Longitude": -1.44,
    "GLOSS ID": null,
    "Country": "GBR",
    "Date": "31/05/2016",
    "Coastline": 170,
    "Station": 53,
    "id": 95,
    "Flag": " N"
  },
  {
    "FIELD1": 37,
    "ID": 98,
    "First": 6969.016666666667,
    "Last": 7087.856666666667,
    "Percent Change": 1.7052621005832849,
    "rise": "up",
    "Location": "SLIPSHAVN",
    "Latitude": 55.288000000000004,
    "Longitude": 10.828,
    "GLOSS ID": null,
    "Country": "DNK",
    "Date": "12/09/2013",
    "Coastline": 130,
    "Station": 51,
    "id": 98,
    "Flag": " N"
  },
  {
    "FIELD1": 38,
    "ID": 111,
    "First": 6614.502525252526,
    "Last": 6864.533333333333,
    "Percent Change": 3.7800394984543706,
    "rise": "up",
    "Location": "FREMANTLE",
    "Latitude": -32.066,
    "Longitude": 115.74799999999999,
    "GLOSS ID": 53,
    "Country": "AUS",
    "Date": "30/06/2016",
    "Coastline": 680,
    "Station": 471,
    "id": 111,
    "Flag": " N"
  },
  {
    "FIELD1": 39,
    "ID": 112,
    "First": 7077.535714285715,
    "Last": 7302.116666666666,
    "Percent Change": 3.1731518066047166,
    "rise": "up",
    "Location": "FERNANDINA BEACH",
    "Latitude": 30.671999999999997,
    "Longitude": -81.465,
    "GLOSS ID": null,
    "Country": "USA",
    "Date": "08/03/2016",
    "Coastline": 960,
    "Station": 21,
    "id": 112,
    "Flag": " N"
  },
  {
    "FIELD1": 40,
    "ID": 113,
    "First": 6989.516666666667,
    "Last": 7083.35,
    "Percent Change": 1.3424867241654719,
    "rise": "up",
    "Location": "KORSOR",
    "Latitude": 55.332,
    "Longitude": 11.142000000000001,
    "GLOSS ID": null,
    "Country": "DNK",
    "Date": "12/09/2013",
    "Coastline": 130,
    "Station": 41,
    "id": 113,
    "Flag": " N"
  },
  {
    "FIELD1": 41,
    "ID": 118,
    "First": 6431.499999999999,
    "Last": 6606.736666666667,
    "Percent Change": 2.7246624685791434,
    "rise": "up",
    "Location": "KLAIPEDA",
    "Latitude": 55.7,
    "Longitude": 21.133000000000003,
    "GLOSS ID": null,
    "Country": "LTU",
    "Date": "17/07/2012",
    "Coastline": 84,
    "Station": 161,
    "id": 118,
    "Flag": " N"
  },
  {
    "FIELD1": 42,
    "ID": 119,
    "First": 7004.2,
    "Last": 7081.954545454544,
    "Percent Change": 1.110113152887472,
    "rise": "up",
    "Location": "HORNBAEK",
    "Latitude": 56.091,
    "Longitude": 12.458,
    "GLOSS ID": null,
    "Country": "DNK",
    "Date": "12/09/2013",
    "Coastline": 130,
    "Station": 31,
    "id": 119,
    "Flag": " N"
  },
  {
    "FIELD1": 43,
    "ID": 120,
    "First": 6884.133333333333,
    "Last": 7060.077272727273,
    "Percent Change": 2.555789245713914,
    "rise": "up",
    "Location": "GEDSER",
    "Latitude": 54.573,
    "Longitude": 11.925999999999998,
    "GLOSS ID": null,
    "Country": "DNK",
    "Date": "12/09/2013",
    "Coastline": 130,
    "Station": 1,
    "id": 120,
    "Flag": " N"
  },
  {
    "FIELD1": 44,
    "ID": 126,
    "First": 6932.314285714286,
    "Last": 6732.333333333334,
    "Percent Change": -2.884764656343712,
    "rise": "down",
    "Location": "TROIS-RIVIERES",
    "Latitude": 46.333,
    "Longitude": -72.55,
    "GLOSS ID": null,
    "Country": "CAN",
    "Date": "01/06/2016",
    "Coastline": 970,
    "Station": 78,
    "id": 126,
    "Flag": " N"
  },
  {
    "FIELD1": 45,
    "ID": 127,
    "First": 6954.966666666667,
    "Last": 7166.5,
    "Percent Change": 3.041471562288813,
    "rise": "up",
    "Location": "SEATTLE",
    "Latitude": 47.602,
    "Longitude": -122.338,
    "GLOSS ID": null,
    "Country": "USA",
    "Date": "08/03/2016",
    "Coastline": 823,
    "Station": 11,
    "id": 127,
    "Flag": " N"
  },
  {
    "FIELD1": 46,
    "ID": 130,
    "First": 6835.75,
    "Last": 7163.1,
    "Percent Change": 4.788794206926824,
    "rise": "up",
    "Location": "ABURATSUBO",
    "Latitude": 35.16,
    "Longitude": 139.615,
    "GLOSS ID": null,
    "Country": "JPN",
    "Date": "15/03/2016",
    "Coastline": 642,
    "Station": 91,
    "id": 130,
    "Flag": " N"
  },
  {
    "FIELD1": 47,
    "ID": 131,
    "First": 6980.644747474747,
    "Last": 7815.625,
    "Percent Change": 11.961362921774628,
    "rise": "up",
    "Location": "AYUKAWA",
    "Latitude": 38.297,
    "Longitude": 141.505,
    "GLOSS ID": null,
    "Country": "JPN",
    "Date": "15/03/2016",
    "Coastline": 642,
    "Station": 31,
    "id": 131,
    "Flag": " N"
  },
  {
    "FIELD1": 48,
    "ID": 132,
    "First": 7060.366666666667,
    "Last": 7057.133333333333,
    "Percent Change": -0.04579554414077044,
    "rise": "even",
    "Location": "WAJIMA",
    "Latitude": 37.406,
    "Longitude": 136.9,
    "GLOSS ID": null,
    "Country": "JPN",
    "Date": "15/03/2016",
    "Coastline": 647,
    "Station": 71,
    "id": 132,
    "Flag": " N"
  },
  {
    "FIELD1": 49,
    "ID": 133,
    "First": 6923.783333333333,
    "Last": 6958.333333333334,
    "Percent Change": 0.4990046386007808,
    "rise": "even",
    "Location": "HOSOJIMA",
    "Latitude": 32.429,
    "Longitude": 131.66899999999998,
    "GLOSS ID": null,
    "Country": "JPN",
    "Date": "15/03/2016",
    "Coastline": 645,
    "Station": 11,
    "id": 133,
    "Flag": " N"
  },
  {
    "FIELD1": 50,
    "ID": 134,
    "First": 6977.489393939393,
    "Last": 7150.583333333334,
    "Percent Change": 2.4807481548347328,
    "rise": "up",
    "Location": "KUSHIMOTO",
    "Latitude": 33.476,
    "Longitude": 135.773,
    "GLOSS ID": 85,
    "Country": "JPN",
    "Date": "15/03/2016",
    "Coastline": 642,
    "Station": 141,
    "id": 134,
    "Flag": " N"
  },
  {
    "FIELD1": 51,
    "ID": 135,
    "First": 6753.2666666666655,
    "Last": 7076.2,
    "Percent Change": 4.781883335472231,
    "rise": "up",
    "Location": "PHILADELPHIA (PIER 9N)",
    "Latitude": 39.933,
    "Longitude": -75.142,
    "GLOSS ID": null,
    "Country": "USA",
    "Date": "08/03/2016",
    "Coastline": 960,
    "Station": 87,
    "id": 135,
    "Flag": " N"
  },
  {
    "FIELD1": 52,
    "ID": 137,
    "First": 6451.1878787878795,
    "Last": 6768.333333333334,
    "Percent Change": 4.91607841074136,
    "rise": "up",
    "Location": "PORT-SAINT-FRANCOIS",
    "Latitude": 46.266999999999996,
    "Longitude": -72.617,
    "GLOSS ID": null,
    "Country": "CAN",
    "Date": "01/06/2016",
    "Coastline": 970,
    "Station": 76,
    "id": 137,
    "Flag": " N"
  },
  {
    "FIELD1": 53,
    "ID": 144,
    "First": 6525.714285714285,
    "Last": 6472.3,
    "Percent Change": -0.8185201401050701,
    "rise": "even",
    "Location": "BATISCAN",
    "Latitude": 46.5,
    "Longitude": -72.25,
    "GLOSS ID": null,
    "Country": "CAN",
    "Date": "01/06/2016",
    "Coastline": 970,
    "Station": 82,
    "id": 144,
    "Flag": " N"
  },
  {
    "FIELD1": 54,
    "ID": 145,
    "First": 6681.906666666667,
    "Last": 7549.666666666667,
    "Percent Change": 12.986712375509587,
    "rise": "up",
    "Location": "MANILA, S. HARBOR",
    "Latitude": 14.583,
    "Longitude": 120.96700000000001,
    "GLOSS ID": 73,
    "Country": "PHL",
    "Date": "01/12/2015",
    "Coastline": 660,
    "Station": 11,
    "id": 145,
    "Flag": " Y"
  },
  {
    "FIELD1": 55,
    "ID": 148,
    "First": 6851.383333333333,
    "Last": 7183.974242424241,
    "Percent Change": 4.854361417391254,
    "rise": "up",
    "Location": "BALTIMORE",
    "Latitude": 39.266999999999996,
    "Longitude": -76.578,
    "GLOSS ID": null,
    "Country": "USA",
    "Date": "08/03/2016",
    "Coastline": 960,
    "Station": 81,
    "id": 148,
    "Flag": " N"
  },
  {
    "FIELD1": 56,
    "ID": 154,
    "First": 6919.027777777778,
    "Last": 7098.9833333333345,
    "Percent Change": 2.600879217937661,
    "rise": "up",
    "Location": "TRIESTE",
    "Latitude": 45.647,
    "Longitude": 13.758,
    "GLOSS ID": 340,
    "Country": "ITA",
    "Date": "22/03/2016",
    "Coastline": 270,
    "Station": 61,
    "id": 154,
    "Flag": " N"
  },
  {
    "FIELD1": 57,
    "ID": 155,
    "First": 6926.783333333335,
    "Last": 7085.866666666666,
    "Percent Change": 2.2966408169255743,
    "rise": "up",
    "Location": "HONOLULU",
    "Latitude": 21.307,
    "Longitude": -157.86700000000002,
    "GLOSS ID": 108,
    "Country": "USA",
    "Date": "08/03/2016",
    "Coastline": 760,
    "Station": 31,
    "id": 155,
    "Flag": " N"
  },
  {
    "FIELD1": 58,
    "ID": 158,
    "First": 6911.016666666667,
    "Last": 7167.416666666667,
    "Percent Change": 3.7100185452695036,
    "rise": "up",
    "Location": "SAN DIEGO (QUARANTINE STATION)",
    "Latitude": 32.713,
    "Longitude": -117.17299999999999,
    "GLOSS ID": null,
    "Country": "USA",
    "Date": "08/03/2016",
    "Coastline": 823,
    "Station": 81,
    "id": 158,
    "Flag": " N"
  },
  {
    "FIELD1": 59,
    "ID": 161,
    "First": 6791.591666666667,
    "Last": 7414,
    "Percent Change": 9.16439568044309,
    "rise": "up",
    "Location": "GALVESTON II, PIER 21, TX",
    "Latitude": 29.31,
    "Longitude": -94.79299999999999,
    "GLOSS ID": 217,
    "Country": "USA",
    "Date": "08/03/2016",
    "Coastline": 940,
    "Station": 8,
    "id": 161,
    "Flag": " N"
  },
  {
    "FIELD1": 60,
    "ID": 163,
    "First": 6979.5,
    "Last": 7113.783333333335,
    "Percent Change": 1.9239678104926523,
    "rise": "up",
    "Location": "BALBOA",
    "Latitude": 8.967,
    "Longitude": -79.567,
    "GLOSS ID": 168,
    "Country": "PAN",
    "Date": "24/05/2016",
    "Coastline": 840,
    "Station": 11,
    "id": 163,
    "Flag": " N"
  },
  {
    "FIELD1": 61,
    "ID": 165,
    "First": 7149,
    "Last": 6995.166666666667,
    "Percent Change": -2.15181610481652,
    "rise": "down",
    "Location": "TOFINO",
    "Latitude": 49.15,
    "Longitude": -125.917,
    "GLOSS ID": 156,
    "Country": "CAN",
    "Date": "28/06/2016",
    "Coastline": 822,
    "Station": 116,
    "id": 165,
    "Flag": " N"
  },
  {
    "FIELD1": 62,
    "ID": 166,
    "First": 6946.166666666667,
    "Last": 7027.333333333333,
    "Percent Change": 1.168510209468043,
    "rise": "up",
    "Location": "VICTORIA",
    "Latitude": 48.417,
    "Longitude": -123.367,
    "GLOSS ID": null,
    "Country": "CAN",
    "Date": "31/05/2016",
    "Coastline": 822,
    "Station": 101,
    "id": 166,
    "Flag": " N"
  },
  {
    "FIELD1": 63,
    "ID": 167,
    "First": 6899.512121212121,
    "Last": 6996.833333333333,
    "Percent Change": 1.4105520855888318,
    "rise": "up",
    "Location": "PRINCE RUPERT",
    "Latitude": 54.317,
    "Longitude": -130.333,
    "GLOSS ID": 155,
    "Country": "CAN",
    "Date": "31/05/2016",
    "Coastline": 822,
    "Station": 1,
    "id": 167,
    "Flag": " N"
  },
  {
    "FIELD1": 64,
    "ID": 172,
    "First": 7368.783333333335,
    "Last": 6750.433333333334,
    "Percent Change": -8.39148027602929,
    "rise": "down",
    "Location": "MANTYLUOTO",
    "Latitude": 61.593999999999994,
    "Longitude": 21.463,
    "GLOSS ID": null,
    "Country": "FIN",
    "Date": "06/10/2015",
    "Coastline": 60,
    "Station": 101,
    "id": 172,
    "Flag": " N"
  },
  {
    "FIELD1": 65,
    "ID": 173,
    "First": 6919.36111111111,
    "Last": 6943,
    "Percent Change": 0.3416339819427876,
    "rise": "even",
    "Location": "QUEBEC (LAUZON)",
    "Latitude": 46.833,
    "Longitude": -71.167,
    "GLOSS ID": null,
    "Country": "CAN",
    "Date": "07/05/2013",
    "Coastline": 970,
    "Station": 71,
    "id": 173,
    "Flag": " N"
  },
  {
    "FIELD1": 66,
    "ID": 174,
    "First": 6939.8,
    "Last": 7112.45606060606,
    "Percent Change": 2.487911187729621,
    "rise": "up",
    "Location": "KO LAK",
    "Latitude": 11.8,
    "Longitude": 99.81700000000001,
    "GLOSS ID": 39,
    "Country": "THA",
    "Date": "02/07/2015",
    "Coastline": 600,
    "Station": 21,
    "id": 174,
    "Flag": " N"
  },
  {
    "FIELD1": 67,
    "ID": 175,
    "First": 7078.9,
    "Last": 7132,
    "Percent Change": 0.7501165435307797,
    "rise": "even",
    "Location": "VANCOUVER",
    "Latitude": 49.283,
    "Longitude": -123.117,
    "GLOSS ID": null,
    "Country": "CAN",
    "Date": "31/05/2016",
    "Coastline": 822,
    "Station": 71,
    "id": 175,
    "Flag": " Y"
  },
  {
    "FIELD1": 68,
    "ID": 179,
    "First": 7192.4333333333325,
    "Last": 7015.416666666667,
    "Percent Change": -2.4611513025262504,
    "rise": "down",
    "Location": "SMOGEN",
    "Latitude": 58.354,
    "Longitude": 11.218,
    "GLOSS ID": null,
    "Country": "SWE",
    "Date": "05/04/2016",
    "Coastline": 50,
    "Station": 11,
    "id": 179,
    "Flag": " N"
  },
  {
    "FIELD1": 69,
    "ID": 180,
    "First": 6794.7666666666655,
    "Last": 7194.8,
    "Percent Change": 5.887374106542801,
    "rise": "up",
    "Location": "ATLANTIC CITY",
    "Latitude": 39.355,
    "Longitude": -74.418,
    "GLOSS ID": 220,
    "Country": "USA",
    "Date": "08/03/2016",
    "Coastline": 960,
    "Station": 91,
    "id": 180,
    "Flag": " N"
  },
  {
    "FIELD1": 70,
    "ID": 183,
    "First": 6986.866666666666,
    "Last": 7167.983333333333,
    "Percent Change": 2.592244496817841,
    "rise": "up",
    "Location": "PORTLAND (MAINE)",
    "Latitude": 43.657,
    "Longitude": -70.247,
    "GLOSS ID": null,
    "Country": "USA",
    "Date": "08/03/2016",
    "Coastline": 960,
    "Station": 181,
    "id": 183,
    "Flag": " N"
  },
  {
    "FIELD1": 71,
    "ID": 185,
    "First": 7055.409090909091,
    "Last": 7123.47251082251,
    "Percent Change": 0.9646984184250789,
    "rise": "even",
    "Location": "PUERTO DESEADO",
    "Latitude": -47.75,
    "Longitude": -65.917,
    "GLOSS ID": 190,
    "Country": "ARG",
    "Date": "21/10/2015",
    "Coastline": 860,
    "Station": 11,
    "id": 185,
    "Flag": " N"
  },
  {
    "FIELD1": 72,
    "ID": 188,
    "First": 7023.333333333334,
    "Last": 7265.748484848485,
    "Percent Change": 3.4515683651896154,
    "rise": "up",
    "Location": "KEY WEST",
    "Latitude": 24.555,
    "Longitude": -81.807,
    "GLOSS ID": 216,
    "Country": "USA",
    "Date": "08/03/2016",
    "Coastline": 940,
    "Station": 71,
    "id": 188,
    "Flag": " N"
  },
  {
    "FIELD1": 73,
    "ID": 189,
    "First": 7144.746969696969,
    "Last": 7287.05,
    "Percent Change": 1.9917154646145074,
    "rise": "up",
    "Location": "PORT HEDLAND",
    "Latitude": -20.317999999999998,
    "Longitude": 118.574,
    "GLOSS ID": 51,
    "Country": "AUS",
    "Date": "30/06/2016",
    "Coastline": 680,
    "Station": 494,
    "id": 189,
    "Flag": " N"
  },
  {
    "FIELD1": 74,
    "ID": 192,
    "First": 7039.685714285714,
    "Last": 7050.772727272726,
    "Percent Change": 0.15749301086713008,
    "rise": "even",
    "Location": "NEUVILLE",
    "Latitude": 46.7,
    "Longitude": -71.567,
    "GLOSS ID": null,
    "Country": "CAN",
    "Date": "31/05/2016",
    "Coastline": 970,
    "Station": 89,
    "id": 192,
    "Flag": " N"
  },
  {
    "FIELD1": 75,
    "ID": 193,
    "First": 7014.583333333334,
    "Last": 7093.5,
    "Percent Change": 1.1250371250371163,
    "rise": "up",
    "Location": "POINT ATKINSON",
    "Latitude": 49.333,
    "Longitude": -123.25,
    "GLOSS ID": null,
    "Country": "CAN",
    "Date": "28/06/2016",
    "Coastline": 822,
    "Station": 51,
    "id": 193,
    "Flag": " N"
  },
  {
    "FIELD1": 76,
    "ID": 194,
    "First": 7343.938095238094,
    "Last": 6646.033333333335,
    "Percent Change": -9.50314058825319,
    "rise": "down",
    "Location": "PIETARSAARI / JAKOBSTAD",
    "Latitude": 63.708999999999996,
    "Longitude": 22.69,
    "GLOSS ID": null,
    "Country": "FIN",
    "Date": "06/10/2015",
    "Coastline": 60,
    "Station": 41,
    "id": 194,
    "Flag": " N"
  },
  {
    "FIELD1": 77,
    "ID": 195,
    "First": 6881.43722943723,
    "Last": 7094.227272727274,
    "Percent Change": 3.0922325699604816,
    "rise": "up",
    "Location": "SAINT JOHN, N.B.",
    "Latitude": 45.266999999999996,
    "Longitude": -66.067,
    "GLOSS ID": null,
    "Country": "CAN",
    "Date": "31/05/2016",
    "Coastline": 970,
    "Station": 1,
    "id": 195,
    "Flag": " N"
  },
  {
    "FIELD1": 78,
    "ID": 196,
    "First": 6964.164069264069,
    "Last": 7057.533333333335,
    "Percent Change": 1.3407102868432554,
    "rise": "up",
    "Location": "SYDNEY, FORT DENISON 2",
    "Latitude": -33.855,
    "Longitude": 151.226,
    "GLOSS ID": 57,
    "Country": "AUS",
    "Date": "30/06/2016",
    "Coastline": 680,
    "Station": 140,
    "id": 196,
    "Flag": " N"
  },
  {
    "FIELD1": 79,
    "ID": 201,
    "First": 7089.742857142858,
    "Last": 7028,
    "Percent Change": -0.870875832691911,
    "rise": "even",
    "Location": "DESCHAILLONS",
    "Latitude": 46.567,
    "Longitude": -72.1,
    "GLOSS ID": null,
    "Country": "CAN",
    "Date": "31/05/2016",
    "Coastline": 970,
    "Station": 74,
    "id": 201,
    "Flag": " N"
  },
  {
    "FIELD1": 80,
    "ID": 202,
    "First": 6956.241666666666,
    "Last": 7132.9519480519475,
    "Percent Change": 2.5403125689559136,
    "rise": "up",
    "Location": "NEWLYN",
    "Latitude": 50.103,
    "Longitude": -5.542999999999999,
    "GLOSS ID": 241,
    "Country": "GBR",
    "Date": "31/05/2016",
    "Coastline": 170,
    "Station": 161,
    "id": 202,
    "Flag": " N"
  },
  {
    "FIELD1": 81,
    "ID": 203,
    "First": 7404.8166666666675,
    "Last": 6689.883333333333,
    "Percent Change": -9.654976828145656,
    "rise": "down",
    "Location": "FURUOGRUND",
    "Latitude": 64.916,
    "Longitude": 21.230999999999998,
    "GLOSS ID": null,
    "Country": "SWE",
    "Date": "05/04/2016",
    "Coastline": 50,
    "Station": 201,
    "id": 203,
    "Flag": " N"
  },
  {
    "FIELD1": 82,
    "ID": 215,
    "First": 6931.5,
    "Last": 7236.709090909091,
    "Percent Change": 4.403218508390553,
    "rise": "up",
    "Location": "TUAPSE",
    "Latitude": 44.1,
    "Longitude": 39.067,
    "GLOSS ID": 98,
    "Country": "RUS",
    "Date": "30/08/2016",
    "Coastline": 300,
    "Station": 1,
    "id": 215,
    "Flag": " N"
  },
  {
    "FIELD1": 83,
    "ID": 216,
    "First": 6838.233333333333,
    "Last": 6974.0166666666655,
    "Percent Change": 1.985649314881517,
    "rise": "up",
    "Location": "PORT PIRIE",
    "Latitude": -33.178000000000004,
    "Longitude": 138.012,
    "GLOSS ID": null,
    "Country": "AUS",
    "Date": "30/06/2016",
    "Coastline": 680,
    "Station": 391,
    "id": 216,
    "Flag": " N"
  },
  {
    "FIELD1": 84,
    "ID": 221,
    "First": 6954.157878787878,
    "Last": 7150.4681818181825,
    "Percent Change": 2.822919848125763,
    "rise": "up",
    "Location": "WELLINGTON HARBOUR",
    "Latitude": -41.284,
    "Longitude": 174.78,
    "GLOSS ID": 101,
    "Country": "NZL",
    "Date": "12/07/2016",
    "Coastline": 690,
    "Station": 11,
    "id": 221,
    "Flag": " N"
  },
  {
    "FIELD1": 85,
    "ID": 224,
    "First": 6849.141125541125,
    "Last": 7173.416666666667,
    "Percent Change": 4.734543137332746,
    "rise": "up",
    "Location": "LEWES (BREAKWATER HARBOR)",
    "Latitude": 38.782,
    "Longitude": -75.12,
    "GLOSS ID": null,
    "Country": "USA",
    "Date": "08/03/2016",
    "Coastline": 960,
    "Station": 85,
    "id": 224,
    "Flag": " N"
  },
  {
    "FIELD1": 86,
    "ID": 225,
    "First": 7062.283333333333,
    "Last": 7021.5666666666675,
    "Percent Change": -0.5765368613078207,
    "rise": "even",
    "Location": "KETCHIKAN",
    "Latitude": 55.332,
    "Longitude": -131.625,
    "GLOSS ID": null,
    "Country": "USA",
    "Date": "08/03/2016",
    "Coastline": 821,
    "Station": 51,
    "id": 225,
    "Flag": " N"
  },
  {
    "FIELD1": 87,
    "ID": 229,
    "First": 7322.471428571429,
    "Last": 6638.083333333333,
    "Percent Change": -9.346408544083811,
    "rise": "down",
    "Location": "KEMI",
    "Latitude": 65.673,
    "Longitude": 24.515,
    "GLOSS ID": null,
    "Country": "FIN",
    "Date": "06/10/2015",
    "Coastline": 60,
    "Station": 1,
    "id": 229,
    "Flag": " N"
  },
  {
    "FIELD1": 88,
    "ID": 230,
    "First": 6903.708333333333,
    "Last": 7004.980303030303,
    "Percent Change": 1.4669213241236745,
    "rise": "up",
    "Location": "PORT LINCOLN",
    "Latitude": -34.716,
    "Longitude": 135.87,
    "GLOSS ID": null,
    "Country": "AUS",
    "Date": "30/06/2016",
    "Coastline": 680,
    "Station": 431,
    "id": 230,
    "Flag": " N"
  },
  {
    "FIELD1": 89,
    "ID": 234,
    "First": 6897.75,
    "Last": 7187.533333333333,
    "Percent Change": 4.201128387276038,
    "rise": "up",
    "Location": "CHARLESTON I",
    "Latitude": 32.782,
    "Longitude": -79.925,
    "GLOSS ID": null,
    "Country": "USA",
    "Date": "08/03/2016",
    "Coastline": 960,
    "Station": 41,
    "id": 234,
    "Flag": " N"
  },
  {
    "FIELD1": 90,
    "ID": 235,
    "First": 6929.4333333333325,
    "Last": 7213.35,
    "Percent Change": 4.097256629931277,
    "rise": "up",
    "Location": "BOSTON",
    "Latitude": 42.353,
    "Longitude": -71.053,
    "GLOSS ID": null,
    "Country": "USA",
    "Date": "08/03/2016",
    "Coastline": 960,
    "Station": 171,
    "id": 235,
    "Flag": " N"
  },
  {
    "FIELD1": 91,
    "ID": 236,
    "First": 6847.15,
    "Last": 6980.566666666666,
    "Percent Change": 1.9484992539474975,
    "rise": "up",
    "Location": "WEST-TERSCHELLING",
    "Latitude": 53.363,
    "Longitude": 5.22,
    "GLOSS ID": null,
    "Country": "NLD",
    "Date": "14/06/2016",
    "Coastline": 150,
    "Station": 11,
    "id": 236,
    "Flag": " N"
  },
  {
    "FIELD1": 92,
    "ID": 239,
    "First": 7184.366666666666,
    "Last": 6813.95,
    "Percent Change": -5.155870849204979,
    "rise": "down",
    "Location": "TURKU / ABO",
    "Latitude": 60.428000000000004,
    "Longitude": 22.101,
    "GLOSS ID": null,
    "Country": "FIN",
    "Date": "06/10/2015",
    "Coastline": 60,
    "Station": 241,
    "id": 239,
    "Flag": " N"
  },
  {
    "FIELD1": 93,
    "ID": 240,
    "First": 7322.833333333333,
    "Last": 6659.833333333333,
    "Percent Change": -9.053872590299749,
    "rise": "down",
    "Location": "RAAHE / BRAHESTAD",
    "Latitude": 64.666,
    "Longitude": 24.406999999999996,
    "GLOSS ID": null,
    "Country": "FIN",
    "Date": "06/10/2015",
    "Coastline": 60,
    "Station": 21,
    "id": 240,
    "Flag": " N"
  },
  {
    "FIELD1": 94,
    "ID": 245,
    "First": 7008.383333333334,
    "Last": 7112.216666666667,
    "Percent Change": 1.481558990066654,
    "rise": "up",
    "Location": "LOS ANGELES",
    "Latitude": 33.72,
    "Longitude": -118.272,
    "GLOSS ID": null,
    "Country": "USA",
    "Date": "08/03/2016",
    "Coastline": 823,
    "Station": 51,
    "id": 245,
    "Flag": " N"
  },
  {
    "FIELD1": 95,
    "ID": 246,
    "First": 6920.2,
    "Last": 7146.636666666667,
    "Percent Change": 3.27211159600398,
    "rise": "up",
    "Location": "PENSACOLA",
    "Latitude": 30.403000000000002,
    "Longitude": -87.21,
    "GLOSS ID": 288,
    "Country": "USA",
    "Date": "08/03/2016",
    "Coastline": 940,
    "Station": 41,
    "id": 246,
    "Flag": " N"
  },
  {
    "FIELD1": 96,
    "ID": 249,
    "First": 7195.9333333333325,
    "Last": 6797.833333333333,
    "Percent Change": -5.5322913868017976,
    "rise": "down",
    "Location": "FOGLO / DEGERBY",
    "Latitude": 60.032,
    "Longitude": 20.385,
    "GLOSS ID": null,
    "Country": "ALA",
    "Date": "06/10/2015",
    "Coastline": 60,
    "Station": 281,
    "id": 249,
    "Flag": " N"
  },
  {
    "FIELD1": 97,
    "ID": 255,
    "First": 6976.483333333333,
    "Last": 7106.633333333334,
    "Percent Change": 1.8655530842903394,
    "rise": "up",
    "Location": "DOVER",
    "Latitude": 51.114,
    "Longitude": 1.3230000000000002,
    "GLOSS ID": null,
    "Country": "GBR",
    "Date": "31/05/2016",
    "Coastline": 170,
    "Station": 111,
    "id": 255,
    "Flag": " Y"
  },
  {
    "FIELD1": 98,
    "ID": 256,
    "First": 6937.2,
    "Last": 7158.583333333334,
    "Percent Change": 3.1912491110726826,
    "rise": "up",
    "Location": "LA JOLLA (SCRIPPS PIER)",
    "Latitude": 32.867,
    "Longitude": -117.257,
    "GLOSS ID": 159,
    "Country": "USA",
    "Date": "08/03/2016",
    "Coastline": 823,
    "Station": 71,
    "id": 256,
    "Flag": " N"
  },
  {
    "FIELD1": 99,
    "ID": 265,
    "First": 6949.327272727273,
    "Last": 6960.266666666667,
    "Percent Change": 0.1574165888304871,
    "rise": "even",
    "Location": "ASTORIA (TONGUE POINT)",
    "Latitude": 46.207,
    "Longitude": -123.76799999999999,
    "GLOSS ID": null,
    "Country": "USA",
    "Date": "08/03/2016",
    "Coastline": 823,
    "Station": 13,
    "id": 265,
    "Flag": " N"
  },
  {
    "FIELD1": 100,
    "ID": 266,
    "First": 7150.016666666667,
    "Last": 7006.881818181818,
    "Percent Change": -2.0018813264050594,
    "rise": "down",
    "Location": "SEWARD",
    "Latitude": 60.12,
    "Longitude": -149.42700000000002,
    "GLOSS ID": 150,
    "Country": "USA",
    "Date": "08/03/2016",
    "Coastline": 821,
    "Station": 17,
    "id": 266,
    "Flag": " N"
  },
  {
    "FIELD1": 101,
    "ID": 285,
    "First": 7318.890909090909,
    "Last": 6719.3,
    "Percent Change": -8.19237390662768,
    "rise": "down",
    "Location": "KASKINEN / KASKO",
    "Latitude": 62.343999999999994,
    "Longitude": 21.215,
    "GLOSS ID": null,
    "Country": "FIN",
    "Date": "06/10/2015",
    "Coastline": 60,
    "Station": 71,
    "id": 285,
    "Flag": " N"
  },
  {
    "FIELD1": 102,
    "ID": 286,
    "First": 7004.747619047618,
    "Last": 7014.253463203463,
    "Percent Change": 0.13570573377970377,
    "rise": "even",
    "Location": "IMMINGHAM",
    "Latitude": 53.63,
    "Longitude": -187,
    "GLOSS ID": null,
    "Country": "GBR",
    "Date": "06/05/2015",
    "Coastline": 170,
    "Station": 61,
    "id": 286,
    "Flag": " N"
  },
  {
    "FIELD1": 103,
    "ID": 299,
    "First": 6856.8,
    "Last": 7270.25,
    "Percent Change": 6.029780655699449,
    "rise": "up",
    "Location": "SEWELLS POINT, HAMPTON ROADS",
    "Latitude": 36.946999999999996,
    "Longitude": -76.33,
    "GLOSS ID": null,
    "Country": "USA",
    "Date": "08/03/2016",
    "Coastline": 960,
    "Station": 71,
    "id": 299,
    "Flag": " N"
  },
  {
    "FIELD1": 104,
    "ID": 300,
    "First": 6893.95,
    "Last": 7130.364646464647,
    "Percent Change": 3.429306079455862,
    "rise": "up",
    "Location": "HILO, HAWAII ISLAND",
    "Latitude": 19.73,
    "Longitude": -155.055,
    "GLOSS ID": 287,
    "Country": "USA",
    "Date": "08/03/2016",
    "Coastline": 760,
    "Station": 61,
    "id": 300,
    "Flag": " N"
  },
  {
    "FIELD1": 105,
    "ID": 302,
    "First": 7006.398484848485,
    "Last": 7013.5666666666675,
    "Percent Change": 0.10230907981730875,
    "rise": "even",
    "Location": "TREGDE",
    "Latitude": 58.006,
    "Longitude": 7.555,
    "GLOSS ID": 321,
    "Country": "NOR",
    "Date": "08/09/2016",
    "Coastline": 40,
    "Station": 301,
    "id": 302,
    "Flag": " N"
  },
  {
    "FIELD1": 106,
    "ID": 311,
    "First": 6788.083333333333,
    "Last": 7147.933333333334,
    "Percent Change": 5.3012018611046505,
    "rise": "up",
    "Location": "ANNAPOLIS (NAVAL ACADEMY)",
    "Latitude": 38.983000000000004,
    "Longitude": -76.48,
    "GLOSS ID": null,
    "Country": "USA",
    "Date": "08/03/2016",
    "Coastline": 960,
    "Station": 80,
    "id": 311,
    "Flag": " N"
  },
  {
    "FIELD1": 107,
    "ID": 312,
    "First": 7102.133333333333,
    "Last": 6980.3166666666675,
    "Percent Change": -1.7152123305673277,
    "rise": "down",
    "Location": "NARVIK",
    "Latitude": 68.428,
    "Longitude": 17.426,
    "GLOSS ID": null,
    "Country": "NOR",
    "Date": "08/09/2016",
    "Coastline": 40,
    "Station": 81,
    "id": 312,
    "Flag": " N"
  },
  {
    "FIELD1": 108,
    "ID": 313,
    "First": 7093.403333333334,
    "Last": 6995.016666666667,
    "Percent Change": -1.387016387526246,
    "rise": "down",
    "Location": "HEIMSJO",
    "Latitude": 63.425,
    "Longitude": 9.102,
    "GLOSS ID": null,
    "Country": "NOR",
    "Date": "08/09/2016",
    "Coastline": 40,
    "Station": 151,
    "id": 313,
    "Flag": " N"
  },
  {
    "FIELD1": 109,
    "ID": 315,
    "First": 7080.4,
    "Last": 6907.633333333333,
    "Percent Change": -2.4400692992862894,
    "rise": "down",
    "Location": "HAMINA",
    "Latitude": 60.563,
    "Longitude": 27.179000000000002,
    "GLOSS ID": null,
    "Country": "FIN",
    "Date": "06/10/2015",
    "Coastline": 60,
    "Station": 361,
    "id": 315,
    "Flag": " N"
  },
  {
    "FIELD1": 110,
    "ID": 330,
    "First": 7058.833333333333,
    "Last": 7075.15,
    "Percent Change": 0.23115245673269816,
    "rise": "even",
    "Location": "KLAGSHAMN",
    "Latitude": 55.522,
    "Longitude": 12.894,
    "GLOSS ID": null,
    "Country": "SWE",
    "Date": "05/04/2016",
    "Coastline": 50,
    "Station": 51,
    "id": 330,
    "Flag": " N"
  },
  {
    "FIELD1": 111,
    "ID": 331,
    "First": 6976,
    "Last": 7160.125450937951,
    "Percent Change": 2.6394130008307255,
    "rise": "up",
    "Location": "TAKORADI",
    "Latitude": 4.885,
    "Longitude": -1.745,
    "GLOSS ID": 335,
    "Country": "GHA",
    "Date": "15/03/2013",
    "Coastline": 410,
    "Station": 1,
    "id": 331,
    "Flag": " N"
  },
  {
    "FIELD1": 112,
    "ID": 332,
    "First": 6905.15,
    "Last": 7106.55,
    "Percent Change": 2.916663649594876,
    "rise": "up",
    "Location": "EASTPORT",
    "Latitude": 44.903,
    "Longitude": -66.982,
    "GLOSS ID": null,
    "Country": "USA",
    "Date": "08/03/2016",
    "Coastline": 960,
    "Station": 201,
    "id": 332,
    "Flag": " N"
  },
  {
    "FIELD1": 113,
    "ID": 334,
    "First": 6995.520833333334,
    "Last": 7112.466666666667,
    "Percent Change": 1.6717244665485336,
    "rise": "up",
    "Location": "SOUTHEND",
    "Latitude": 51.513999999999996,
    "Longitude": 724,
    "GLOSS ID": null,
    "Country": "GBR",
    "Date": "17/05/2016",
    "Coastline": 170,
    "Station": 81,
    "id": 334,
    "Flag": " N"
  },
  {
    "FIELD1": 114,
    "ID": 350,
    "First": 6975.390151515152,
    "Last": 7107.165757575758,
    "Percent Change": 1.8891503299207235,
    "rise": "up",
    "Location": "PORTSMOUTH",
    "Latitude": 50.802,
    "Longitude": -1.111,
    "GLOSS ID": null,
    "Country": "GBR",
    "Date": "31/05/2016",
    "Coastline": 170,
    "Station": 131,
    "id": 350,
    "Flag": " Y"
  },
  {
    "FIELD1": 115,
    "ID": 351,
    "First": 6947.7,
    "Last": 7198.583333333334,
    "Percent Change": 3.6110271504718705,
    "rise": "up",
    "Location": "NEWPORT",
    "Latitude": 41.505,
    "Longitude": -71.327,
    "GLOSS ID": 290,
    "Country": "USA",
    "Date": "08/03/2016",
    "Coastline": 960,
    "Station": 161,
    "id": 351,
    "Flag": " N"
  },
  {
    "FIELD1": 116,
    "ID": 352,
    "First": 7061.733333333333,
    "Last": 7151.5,
    "Percent Change": 1.2711704397409607,
    "rise": "up",
    "Location": "SPLIT - GRADSKA LUKA",
    "Latitude": 43.507,
    "Longitude": 16.442,
    "GLOSS ID": null,
    "Country": "HRV",
    "Date": "17/05/2016",
    "Coastline": 280,
    "Station": 31,
    "id": 352,
    "Flag": " N"
  },
  {
    "FIELD1": 117,
    "ID": 353,
    "First": 6990.05,
    "Last": 7139.35,
    "Percent Change": 2.1358931624237334,
    "rise": "up",
    "Location": "BAKAR",
    "Latitude": 45.3,
    "Longitude": 14.533,
    "GLOSS ID": null,
    "Country": "HRV",
    "Date": "01/10/2015",
    "Coastline": 280,
    "Station": 11,
    "id": 353,
    "Flag": " N"
  },
  {
    "FIELD1": 118,
    "ID": 359,
    "First": 6760.0666666666675,
    "Last": 7087.533333333335,
    "Percent Change": 4.844133687044513,
    "rise": "up",
    "Location": "MERA",
    "Latitude": 34.919000000000004,
    "Longitude": 139.825,
    "GLOSS ID": 86,
    "Country": "JPN",
    "Date": "15/03/2016",
    "Coastline": 642,
    "Station": 61,
    "id": 359,
    "Flag": " Y"
  },
  {
    "FIELD1": 119,
    "ID": 360,
    "First": 6784.666666666667,
    "Last": 7070.65,
    "Percent Change": 4.2151419868330455,
    "rise": "up",
    "Location": "WASHINGTON DC",
    "Latitude": 38.873000000000005,
    "Longitude": -77.02199999999999,
    "GLOSS ID": null,
    "Country": "USA",
    "Date": "08/03/2016",
    "Coastline": 960,
    "Station": 76,
    "id": 360,
    "Flag": " N"
  },
  {
    "FIELD1": 120,
    "ID": 361,
    "First": 6990.890476190476,
    "Last": 7045.249494949496,
    "Percent Change": 0.777569308862088,
    "rise": "even",
    "Location": "ABERDEEN I",
    "Latitude": 57.144,
    "Longitude": -2.077,
    "GLOSS ID": null,
    "Country": "GBR",
    "Date": "31/05/2016",
    "Coastline": 170,
    "Station": 11,
    "id": 361,
    "Flag": " N"
  },
  {
    "FIELD1": 121,
    "ID": 366,
    "First": 6878.25,
    "Last": 7223.955555555556,
    "Percent Change": 5.026068484797095,
    "rise": "up",
    "Location": "SANDY HOOK",
    "Latitude": 40.467,
    "Longitude": -74.008,
    "GLOSS ID": null,
    "Country": "USA",
    "Date": "08/03/2016",
    "Coastline": 960,
    "Station": 101,
    "id": 366,
    "Flag": " N"
  },
  {
    "FIELD1": 122,
    "ID": 367,
    "First": 6885.12,
    "Last": 7134.2,
    "Percent Change": 3.6176566276259514,
    "rise": "up",
    "Location": "WOODS HOLE (OCEAN. INST.)",
    "Latitude": 41.523,
    "Longitude": -70.672,
    "GLOSS ID": null,
    "Country": "USA",
    "Date": "08/03/2016",
    "Coastline": 960,
    "Station": 165,
    "id": 367,
    "Flag": " N"
  },
  {
    "FIELD1": 123,
    "ID": 368,
    "First": 6940.5,
    "Last": 7163.9571428571435,
    "Percent Change": 3.219611596529695,
    "rise": "up",
    "Location": "ST. GEORGES / ESSO PIER (BERMUDA)",
    "Latitude": 32.373000000000005,
    "Longitude": -64.703,
    "GLOSS ID": 221,
    "Country": "BMU",
    "Date": "08/03/2016",
    "Coastline": 950,
    "Station": 11,
    "id": 368,
    "Flag": " N"
  },
  {
    "FIELD1": 124,
    "ID": 369,
    "First": 6864.116666666666,
    "Last": 7319.541111111112,
    "Percent Change": 6.634858737994145,
    "rise": "up",
    "Location": "CALCUTTA (GARDEN REACH)",
    "Latitude": 22.55,
    "Longitude": 88.3,
    "GLOSS ID": null,
    "Country": "IND",
    "Date": "23/08/2016",
    "Coastline": 500,
    "Station": 141,
    "id": 369,
    "Flag": " Y"
  },
  {
    "FIELD1": 125,
    "ID": 373,
    "First": 6928.227272727274,
    "Last": 7069.777777777778,
    "Percent Change": 2.0430984648513633,
    "rise": "up",
    "Location": "THESSALONIKI",
    "Latitude": 40.633,
    "Longitude": 22.935,
    "GLOSS ID": null,
    "Country": "GRC",
    "Date": "14/06/2016",
    "Coastline": 290,
    "Station": 51,
    "id": 373,
    "Flag": " N"
  },
  {
    "FIELD1": 126,
    "ID": 374,
    "First": 7000.333333333333,
    "Last": 7014.166666666667,
    "Percent Change": 0.1976096376363117,
    "rise": "even",
    "Location": "PIRAIEVS",
    "Latitude": 37.937,
    "Longitude": 23.627,
    "GLOSS ID": null,
    "Country": "GRC",
    "Date": "14/06/2016",
    "Coastline": 290,
    "Station": 31,
    "id": 374,
    "Flag": " Y"
  },
  {
    "FIELD1": 127,
    "ID": 375,
    "First": 6958.560606060606,
    "Last": 6778.917171717172,
    "Percent Change": -2.5816177297783716,
    "rise": "down",
    "Location": "KAVALLA",
    "Latitude": 40.935,
    "Longitude": 24.412,
    "GLOSS ID": null,
    "Country": "GRC",
    "Date": "07/08/2013",
    "Coastline": 290,
    "Station": 61,
    "id": 375,
    "Flag": " N"
  },
  {
    "FIELD1": 128,
    "ID": 376,
    "First": 7080.283333333333,
    "Last": 6713.316666666666,
    "Percent Change": -5.1829375943053195,
    "rise": "down",
    "Location": "RAUMA / RAUMO",
    "Latitude": 61.13399999999999,
    "Longitude": 21.426,
    "GLOSS ID": null,
    "Country": "FIN",
    "Date": "06/10/2015",
    "Coastline": 60,
    "Station": 121,
    "id": 376,
    "Flag": " N"
  },
  {
    "FIELD1": 129,
    "ID": 377,
    "First": 6898.866666666667,
    "Last": 7067.95,
    "Percent Change": 2.4508856527159004,
    "rise": "up",
    "Location": "SANTA MONICA (MUNICIPAL PIER)",
    "Latitude": 34.008,
    "Longitude": -118.5,
    "GLOSS ID": null,
    "Country": "USA",
    "Date": "08/03/2016",
    "Coastline": 823,
    "Station": 49,
    "id": 377,
    "Flag": " N"
  },
  {
    "FIELD1": 130,
    "ID": 378,
    "First": 7092.333333333334,
    "Last": 7040.116666666667,
    "Percent Change": -0.7362410114207898,
    "rise": "even",
    "Location": "CRESCENT CITY",
    "Latitude": 41.745,
    "Longitude": -124.182,
    "GLOSS ID": null,
    "Country": "USA",
    "Date": "08/03/2016",
    "Coastline": 823,
    "Station": 21,
    "id": 378,
    "Flag": " N"
  },
  {
    "FIELD1": 131,
    "ID": 384,
    "First": 6973.5666666666675,
    "Last": 7076.85,
    "Percent Change": 1.481068989087356,
    "rise": "up",
    "Location": "FRIDAY HARBOR (OCEAN. LABS.)",
    "Latitude": 48.547,
    "Longitude": -123.01,
    "GLOSS ID": null,
    "Country": "USA",
    "Date": "08/03/2016",
    "Coastline": 823,
    "Station": 6,
    "id": 384,
    "Flag": " N"
  },
  {
    "FIELD1": 132,
    "ID": 385,
    "First": 7063.336666666667,
    "Last": 6940.2666666666655,
    "Percent Change": -1.7423776581511976,
    "rise": "down",
    "Location": "NEAH BAY",
    "Latitude": 48.367,
    "Longitude": -124.61200000000001,
    "GLOSS ID": null,
    "Country": "USA",
    "Date": "08/03/2016",
    "Coastline": 823,
    "Station": 1,
    "id": 385,
    "Flag": " N"
  },
  {
    "FIELD1": 133,
    "ID": 392,
    "First": 6918.878787878787,
    "Last": 7081.575757575757,
    "Percent Change": 2.3514932792578978,
    "rise": "up",
    "Location": "PORT AUX BASQUES",
    "Latitude": 47.567,
    "Longitude": -59.133,
    "GLOSS ID": null,
    "Country": "CAN",
    "Date": "31/05/2016",
    "Coastline": 970,
    "Station": 111,
    "id": 392,
    "Flag": " N"
  },
  {
    "FIELD1": 134,
    "ID": 393,
    "First": 6861,
    "Last": 7047,
    "Percent Change": 2.710975076519458,
    "rise": "up",
    "Location": "ST. JOHN'S, NFLD.",
    "Latitude": 47.567,
    "Longitude": -52.717,
    "GLOSS ID": 223,
    "Country": "CAN",
    "Date": "28/06/2016",
    "Coastline": 970,
    "Station": 121,
    "id": 393,
    "Flag": " N"
  },
  {
    "FIELD1": 135,
    "ID": 394,
    "First": 6922.498106060606,
    "Last": 7051.666666666667,
    "Percent Change": 1.8659241017772856,
    "rise": "up",
    "Location": "CEBU",
    "Latitude": 10.3,
    "Longitude": 123.917,
    "GLOSS ID": null,
    "Country": "PHL",
    "Date": "01/12/2015",
    "Coastline": 660,
    "Station": 101,
    "id": 394,
    "Flag": " N"
  },
  {
    "FIELD1": 136,
    "ID": 395,
    "First": 6974.2,
    "Last": 7246.846666666667,
    "Percent Change": 3.9093611692619574,
    "rise": "up",
    "Location": "FORT PULASKI",
    "Latitude": 32.033,
    "Longitude": -80.902,
    "GLOSS ID": 289,
    "Country": "USA",
    "Date": "08/03/2016",
    "Coastline": 960,
    "Station": 31,
    "id": 395,
    "Flag": " N"
  },
  {
    "FIELD1": 137,
    "ID": 396,
    "First": 7017.366666666667,
    "Last": 7201.7,
    "Percent Change": 2.6268163271122553,
    "rise": "up",
    "Location": "WILMINGTON",
    "Latitude": 34.227,
    "Longitude": -77.953,
    "GLOSS ID": null,
    "Country": "USA",
    "Date": "08/03/2016",
    "Coastline": 960,
    "Station": 60,
    "id": 396,
    "Flag": " N"
  },
  {
    "FIELD1": 138,
    "ID": 397,
    "First": 6991.5,
    "Last": 7066.766666666667,
    "Percent Change": 1.0765453288517104,
    "rise": "up",
    "Location": "SASSNITZ",
    "Latitude": 54.511,
    "Longitude": 13.642999999999999,
    "GLOSS ID": null,
    "Country": "DEU",
    "Date": "01/09/2016",
    "Coastline": 120,
    "Station": 4,
    "id": 397,
    "Flag": " N"
  },
  {
    "FIELD1": 139,
    "ID": 405,
    "First": 7366.25,
    "Last": 6346.1,
    "Percent Change": -13.848973358221613,
    "rise": "down",
    "Location": "JUNEAU",
    "Latitude": 58.298,
    "Longitude": -134.412,
    "GLOSS ID": null,
    "Country": "USA",
    "Date": "08/03/2016",
    "Coastline": 821,
    "Station": 44,
    "id": 405,
    "Flag": " N"
  },
  {
    "FIELD1": 140,
    "ID": 407,
    "First": 6959.133333333333,
    "Last": 6997.7,
    "Percent Change": 0.5541877820035054,
    "rise": "even",
    "Location": "UCHIURA",
    "Latitude": 35.016999999999996,
    "Longitude": 138.89,
    "GLOSS ID": null,
    "Country": "JPN",
    "Date": "15/03/2016",
    "Coastline": 642,
    "Station": 118,
    "id": 407,
    "Flag": " N"
  },
  {
    "FIELD1": 141,
    "ID": 408,
    "First": 6848.410606060605,
    "Last": 7032.458333333334,
    "Percent Change": 2.6874517002507643,
    "rise": "up",
    "Location": "KHIOS",
    "Latitude": 38.372,
    "Longitude": 26.141,
    "GLOSS ID": null,
    "Country": "GRC",
    "Date": "14/06/2016",
    "Coastline": 290,
    "Station": 71,
    "id": 408,
    "Flag": " N"
  },
  {
    "FIELD1": 142,
    "ID": 409,
    "First": 6983.255952380952,
    "Last": 7047.181818181818,
    "Percent Change": 0.9154163364020775,
    "rise": "even",
    "Location": "POSIDHONIA",
    "Latitude": 37.951,
    "Longitude": 22.96,
    "GLOSS ID": null,
    "Country": "GRC",
    "Date": "14/06/2016",
    "Coastline": 290,
    "Station": 11,
    "id": 409,
    "Flag": " N"
  },
  {
    "FIELD1": 143,
    "ID": 410,
    "First": 7124.072727272726,
    "Last": 7130.984848484848,
    "Percent Change": 0.09702485469667405,
    "rise": "even",
    "Location": "PREVEZA",
    "Latitude": 38.959,
    "Longitude": 20.756999999999998,
    "GLOSS ID": null,
    "Country": "GRC",
    "Date": "14/06/2016",
    "Coastline": 290,
    "Station": 1,
    "id": 410,
    "Flag": " N"
  },
  {
    "FIELD1": 144,
    "ID": 411,
    "First": 6910.856565656565,
    "Last": 7054,
    "Percent Change": 2.0712835374819485,
    "rise": "up",
    "Location": "KALAMAI",
    "Latitude": 37.024,
    "Longitude": 22.116,
    "GLOSS ID": null,
    "Country": "GRC",
    "Date": "14/06/2016",
    "Coastline": 290,
    "Station": 21,
    "id": 411,
    "Flag": " N"
  },
  {
    "FIELD1": 145,
    "ID": 412,
    "First": 6935.083333333333,
    "Last": 7273.075252525252,
    "Percent Change": 4.873653321040395,
    "rise": "up",
    "Location": "SOLOMON'S ISLAND (BIOL. LAB.)",
    "Latitude": 38.317,
    "Longitude": -76.452,
    "GLOSS ID": null,
    "Country": "USA",
    "Date": "08/03/2016",
    "Coastline": 960,
    "Station": 78,
    "id": 412,
    "Flag": " N"
  },
  {
    "FIELD1": 146,
    "ID": 413,
    "First": 6969.5,
    "Last": 7055.65,
    "Percent Change": 1.2361001506564264,
    "rise": "up",
    "Location": "OOSTENDE",
    "Latitude": 51.233000000000004,
    "Longitude": 2.917,
    "GLOSS ID": null,
    "Country": "BEL",
    "Date": "26/07/2016",
    "Coastline": 160,
    "Station": 21,
    "id": 413,
    "Flag": " N"
  },
  {
    "FIELD1": 147,
    "ID": 414,
    "First": 7043.5666666666675,
    "Last": 7142.404090909093,
    "Percent Change": 1.403229768664907,
    "rise": "up",
    "Location": "VISHAKHAPATNAM",
    "Latitude": 17.683,
    "Longitude": 83.28299999999999,
    "GLOSS ID": 35,
    "Country": "IND",
    "Date": "23/08/2016",
    "Coastline": 500,
    "Station": 101,
    "id": 414,
    "Flag": " N"
  },
  {
    "FIELD1": 148,
    "ID": 426,
    "First": 7113.483333333333,
    "Last": 6876.516666666667,
    "Percent Change": -3.331232471667636,
    "rise": "down",
    "Location": "SITKA",
    "Latitude": 57.052,
    "Longitude": -135.342,
    "GLOSS ID": 154,
    "Country": "USA",
    "Date": "08/03/2016",
    "Coastline": 821,
    "Station": 31,
    "id": 426,
    "Flag": " N"
  },
  {
    "FIELD1": 149,
    "ID": 427,
    "First": 6783.833333333333,
    "Last": 7098.909090909091,
    "Percent Change": 4.644509115924005,
    "rise": "up",
    "Location": "CHARLOTTETOWN",
    "Latitude": 46.233000000000004,
    "Longitude": -63.117,
    "GLOSS ID": null,
    "Country": "CAN",
    "Date": "31/05/2016",
    "Coastline": 970,
    "Station": 31,
    "id": 427,
    "Flag": " N"
  },
  {
    "FIELD1": 150,
    "ID": 428,
    "First": 6920.15,
    "Last": 7108.55,
    "Percent Change": 2.722484339212308,
    "rise": "up",
    "Location": "CEDAR KEY II",
    "Latitude": 29.135,
    "Longitude": -83.03200000000001,
    "GLOSS ID": null,
    "Country": "USA",
    "Date": "08/03/2016",
    "Coastline": 940,
    "Station": 52,
    "id": 428,
    "Flag": " N"
  },
  {
    "FIELD1": 151,
    "ID": 429,
    "First": 6938.9333333333325,
    "Last": 7144.654545454546,
    "Percent Change": 2.964738270837208,
    "rise": "up",
    "Location": "NEW LONDON",
    "Latitude": 41.36,
    "Longitude": -72.09,
    "GLOSS ID": null,
    "Country": "USA",
    "Date": "08/03/2016",
    "Coastline": 960,
    "Station": 151,
    "id": 429,
    "Flag": " N"
  },
  {
    "FIELD1": 152,
    "ID": 430,
    "First": 6957.533333333333,
    "Last": 7124.254545454545,
    "Percent Change": 2.39626896679684,
    "rise": "up",
    "Location": "PROVIDENCE (STATE PIER)",
    "Latitude": 41.806999999999995,
    "Longitude": -71.4,
    "GLOSS ID": null,
    "Country": "USA",
    "Date": "08/03/2016",
    "Coastline": 960,
    "Station": 158,
    "id": 430,
    "Flag": " N"
  },
  {
    "FIELD1": 153,
    "ID": 431,
    "First": 6978.5,
    "Last": 6987.643939393939,
    "Percent Change": 0.1310301553906862,
    "rise": "even",
    "Location": "MONTEVIDEO (PUNTA LOBOS)",
    "Latitude": -34.9,
    "Longitude": -56.25,
    "GLOSS ID": 300,
    "Country": "URY",
    "Date": "02/02/2016",
    "Coastline": 870,
    "Station": 11,
    "id": 431,
    "Flag": " N"
  },
  {
    "FIELD1": 154,
    "ID": 437,
    "First": 7054.627777777778,
    "Last": 7082.816666666666,
    "Percent Change": 0.3995801022654028,
    "rise": "even",
    "Location": "ALAMEDA (NAVAL AIR STATION)",
    "Latitude": 37.772,
    "Longitude": -122.29799999999999,
    "GLOSS ID": null,
    "Country": "USA",
    "Date": "08/03/2016",
    "Coastline": 823,
    "Station": 32,
    "id": 437,
    "Flag": " N"
  },
  {
    "FIELD1": 155,
    "ID": 438,
    "First": 6867.65,
    "Last": 6980.616666666667,
    "Percent Change": 1.6449100735574347,
    "rise": "up",
    "Location": "COCHIN (WILLINGDON IS.)",
    "Latitude": 9.967,
    "Longitude": 76.267,
    "GLOSS ID": 32,
    "Country": "IND",
    "Date": "23/08/2016",
    "Coastline": 500,
    "Station": 81,
    "id": 438,
    "Flag": " N"
  },
  {
    "FIELD1": 156,
    "ID": 444,
    "First": 6558.05,
    "Last": 7480.666666666667,
    "Percent Change": 14.06846039091905,
    "rise": "up",
    "Location": "FORT PHRACHULA CHOMKLAO (POM PHRACHUN)",
    "Latitude": 13.55,
    "Longitude": 100.583,
    "GLOSS ID": null,
    "Country": "THA",
    "Date": "02/07/2015",
    "Coastline": 600,
    "Station": 41,
    "id": 444,
    "Flag": " Y"
  },
  {
    "FIELD1": 157,
    "ID": 445,
    "First": 7083.366666666667,
    "Last": 6446.066666666667,
    "Percent Change": -8.997134131133503,
    "rise": "down",
    "Location": "YAKUTAT",
    "Latitude": 59.548,
    "Longitude": -139.733,
    "GLOSS ID": null,
    "Country": "USA",
    "Date": "08/03/2016",
    "Coastline": 821,
    "Station": 26,
    "id": 445,
    "Flag": " N"
  },
  {
    "FIELD1": 158,
    "ID": 446,
    "First": 7180.483333333333,
    "Last": 7244.533333333333,
    "Percent Change": 0.8920012348286701,
    "rise": "even",
    "Location": "KO TAPHAO NOI",
    "Latitude": 7.832999999999999,
    "Longitude": 98.43299999999999,
    "GLOSS ID": 42,
    "Country": "THA",
    "Date": "06/08/2013",
    "Coastline": 545,
    "Station": 1,
    "id": 446,
    "Flag": " N"
  },
  {
    "FIELD1": 159,
    "ID": 447,
    "First": 7439,
    "Last": 6860.166666666667,
    "Percent Change": -7.781063763050586,
    "rise": "down",
    "Location": "CHURCHILL",
    "Latitude": 58.766999999999996,
    "Longitude": -94.18299999999999,
    "GLOSS ID": null,
    "Country": "CAN",
    "Date": "27/07/2015",
    "Coastline": 970,
    "Station": 141,
    "id": 447,
    "Flag": " N"
  },
  {
    "FIELD1": 160,
    "ID": 448,
    "First": 6766.6875,
    "Last": 7012.95,
    "Percent Change": 3.6393360857879107,
    "rise": "up",
    "Location": "PORT ADELAIDE (OUTER HARBOR)",
    "Latitude": -34.78,
    "Longitude": 138.481,
    "GLOSS ID": null,
    "Country": "AUS",
    "Date": "30/06/2016",
    "Coastline": 680,
    "Station": 311,
    "id": 448,
    "Flag": " N"
  },
  {
    "FIELD1": 161,
    "ID": 468,
    "First": 6840.75,
    "Last": 6992.727272727272,
    "Percent Change": 2.221646350579572,
    "rise": "up",
    "Location": "DUNKERQUE",
    "Latitude": 51.048,
    "Longitude": 2.367,
    "GLOSS ID": null,
    "Country": "FRA",
    "Date": "30/08/2016",
    "Coastline": 190,
    "Station": 1,
    "id": 468,
    "Flag": " N"
  },
  {
    "FIELD1": 162,
    "ID": 470,
    "First": 6939.542857142857,
    "Last": 7054.388888888888,
    "Percent Change": 1.654950968820944,
    "rise": "up",
    "Location": "ZEEBRUGGE",
    "Latitude": 51.35,
    "Longitude": 3.2,
    "GLOSS ID": null,
    "Country": "BEL",
    "Date": "26/07/2016",
    "Coastline": 160,
    "Station": 11,
    "id": 470,
    "Flag": " N"
  },
  {
    "FIELD1": 163,
    "ID": 474,
    "First": 6847.538636363637,
    "Last": 7109.816666666666,
    "Percent Change": 3.830252653270321,
    "rise": "up",
    "Location": "DIEPPE",
    "Latitude": 49.928999999999995,
    "Longitude": 1.084,
    "GLOSS ID": null,
    "Country": "FRA",
    "Date": "30/08/2016",
    "Coastline": 190,
    "Station": 31,
    "id": 474,
    "Flag": " N"
  },
  {
    "FIELD1": 164,
    "ID": 483,
    "First": 6750.696666666668,
    "Last": 6887.351515151515,
    "Percent Change": 2.02430734533839,
    "rise": "up",
    "Location": "VIGO",
    "Latitude": 42.238,
    "Longitude": -8.731,
    "GLOSS ID": null,
    "Country": "ESP",
    "Date": "01/03/2016",
    "Coastline": 200,
    "Station": 41,
    "id": 483,
    "Flag": " N"
  },
  {
    "FIELD1": 165,
    "ID": 484,
    "First": 6952.346666666667,
    "Last": 7127.75,
    "Percent Change": 2.522937099415824,
    "rise": "up",
    "Location": "LA CORUNA I",
    "Latitude": 43.369,
    "Longitude": -8.398,
    "GLOSS ID": 243,
    "Country": "ESP",
    "Date": "24/02/2016",
    "Coastline": 200,
    "Station": 30,
    "id": 484,
    "Flag": " N"
  },
  {
    "FIELD1": 166,
    "ID": 485,
    "First": 6920.016666666667,
    "Last": 7093,
    "Percent Change": 2.499753131615762,
    "rise": "up",
    "Location": "SANTANDER I",
    "Latitude": 43.461000000000006,
    "Longitude": -3.7910000000000004,
    "GLOSS ID": null,
    "Country": "ESP",
    "Date": "24/02/2016",
    "Coastline": 200,
    "Station": 11,
    "id": 485,
    "Flag": " N"
  },
  {
    "FIELD1": 167,
    "ID": 486,
    "First": 6929.0199999999995,
    "Last": 6957.2,
    "Percent Change": 0.40669531910717954,
    "rise": "even",
    "Location": "MALOY",
    "Latitude": 61.934,
    "Longitude": 5.113,
    "GLOSS ID": null,
    "Country": "NOR",
    "Date": "08/09/2016",
    "Coastline": 40,
    "Station": 211,
    "id": 486,
    "Flag": " N"
  },
  {
    "FIELD1": 168,
    "ID": 487,
    "First": 7052.291666666667,
    "Last": 6985.128787878789,
    "Percent Change": -0.9523553755629516,
    "rise": "even",
    "Location": "ADAK SWEEPER COVE",
    "Latitude": 51.863,
    "Longitude": -176.632,
    "GLOSS ID": 302,
    "Country": "USA",
    "Date": "08/03/2016",
    "Coastline": 820,
    "Station": 11,
    "id": 487,
    "Flag": " Y"
  },
  {
    "FIELD1": 169,
    "ID": 488,
    "First": 6927.9333333333325,
    "Last": 7058.933333333334,
    "Percent Change": 1.8908957938394593,
    "rise": "up",
    "Location": "TARIFA",
    "Latitude": 36.009,
    "Longitude": -5.603,
    "GLOSS ID": null,
    "Country": "ESP",
    "Date": "24/02/2016",
    "Coastline": 220,
    "Station": 21,
    "id": 488,
    "Flag": " N"
  },
  {
    "FIELD1": 170,
    "ID": 495,
    "First": 7521.0666666666675,
    "Last": 6293.9,
    "Percent Change": -16.316391292015332,
    "rise": "down",
    "Location": "SKAGWAY",
    "Latitude": 59.45,
    "Longitude": -135.327,
    "GLOSS ID": null,
    "Country": "USA",
    "Date": "08/03/2016",
    "Coastline": 821,
    "Station": 41,
    "id": 495,
    "Flag": " N"
  },
  {
    "FIELD1": 171,
    "ID": 496,
    "First": 6960.4,
    "Last": 6996.3166666666675,
    "Percent Change": 0.5160144053023947,
    "rise": "even",
    "Location": "MALAGA",
    "Latitude": 36.713,
    "Longitude": -4.415,
    "GLOSS ID": null,
    "Country": "ESP",
    "Date": "27/04/2015",
    "Coastline": 220,
    "Station": 31,
    "id": 496,
    "Flag": " N"
  },
  {
    "FIELD1": 172,
    "ID": 497,
    "First": 6979.444444444445,
    "Last": 7181.016666666667,
    "Percent Change": 2.8880840563559635,
    "rise": "up",
    "Location": "PORT ISABEL",
    "Latitude": 26.06,
    "Longitude": -97.215,
    "GLOSS ID": null,
    "Country": "USA",
    "Date": "08/03/2016",
    "Coastline": 940,
    "Station": 1,
    "id": 497,
    "Flag": " N"
  },
  {
    "FIELD1": 173,
    "ID": 498,
    "First": 6976.2733333333335,
    "Last": 7011.966666666667,
    "Percent Change": 0.5116389743903423,
    "rise": "even",
    "Location": "CEUTA",
    "Latitude": 35.891999999999996,
    "Longitude": -5.316,
    "GLOSS ID": 249,
    "Country": "ESP",
    "Date": "24/02/2016",
    "Coastline": 340,
    "Station": 1,
    "id": 498,
    "Flag": " N"
  },
  {
    "FIELD1": 174,
    "ID": 499,
    "First": 7008.4,
    "Last": 6954.536969696969,
    "Percent Change": -0.7685496019495239,
    "rise": "even",
    "Location": "VALPARAISO",
    "Latitude": -33.027,
    "Longitude": -71.626,
    "GLOSS ID": 175,
    "Country": "CHL",
    "Date": "03/09/2015",
    "Coastline": 850,
    "Station": 31,
    "id": 499,
    "Flag": " Y"
  },
  {
    "FIELD1": 175,
    "ID": 508,
    "First": 7004.9833333333345,
    "Last": 7087.85,
    "Percent Change": 1.182967363710109,
    "rise": "up",
    "Location": "PORT SAN LUIS",
    "Latitude": 35.177,
    "Longitude": -120.76,
    "GLOSS ID": null,
    "Country": "USA",
    "Date": "08/03/2016",
    "Coastline": 823,
    "Station": 42,
    "id": 508,
    "Flag": " N"
  },
  {
    "FIELD1": 176,
    "ID": 509,
    "First": 7013.954545454546,
    "Last": 6965.466666666667,
    "Percent Change": -0.6913058599631472,
    "rise": "even",
    "Location": "ALESUND",
    "Latitude": 62.468999999999994,
    "Longitude": 6.152,
    "GLOSS ID": null,
    "Country": "NOR",
    "Date": "08/09/2016",
    "Coastline": 40,
    "Station": 191,
    "id": 509,
    "Flag": " N"
  },
  {
    "FIELD1": 177,
    "ID": 510,
    "First": 7072.454545454546,
    "Last": 7009.533333333333,
    "Percent Change": -0.8896658397281952,
    "rise": "even",
    "Location": "ANTOFAGASTA 2",
    "Latitude": -23.653000000000002,
    "Longitude": -70.404,
    "GLOSS ID": 174,
    "Country": "CHL",
    "Date": "13/07/2015",
    "Coastline": 850,
    "Station": 12,
    "id": 510,
    "Flag": " N"
  },
  {
    "FIELD1": 178,
    "ID": 513,
    "First": 6960.925194805194,
    "Last": 7121.492424242424,
    "Percent Change": 2.306693793478172,
    "rise": "up",
    "Location": "KWAJALEIN",
    "Latitude": 8.732000000000001,
    "Longitude": 167.735,
    "GLOSS ID": 111,
    "Country": "MHL",
    "Date": "08/03/2016",
    "Coastline": 720,
    "Station": 11,
    "id": 513,
    "Flag": " N"
  },
  {
    "FIELD1": 179,
    "ID": 518,
    "First": 6750.2666666666655,
    "Last": 7290.2,
    "Percent Change": 7.998696347798622,
    "rise": "up",
    "Location": "KUSHIRO",
    "Latitude": 42.976000000000006,
    "Longitude": 144.371,
    "GLOSS ID": 89,
    "Country": "JPN",
    "Date": "15/03/2016",
    "Coastline": 641,
    "Station": 21,
    "id": 518,
    "Flag": " N"
  },
  {
    "FIELD1": 180,
    "ID": 519,
    "First": 6981.75,
    "Last": 7201.151515151515,
    "Percent Change": 3.1425003065351094,
    "rise": "up",
    "Location": "MONTAUK",
    "Latitude": 41.048,
    "Longitude": -71.96,
    "GLOSS ID": null,
    "Country": "USA",
    "Date": "08/03/2016",
    "Coastline": 960,
    "Station": 135,
    "id": 519,
    "Flag": " N"
  },
  {
    "FIELD1": 181,
    "ID": 520,
    "First": 7043.0666666666675,
    "Last": 7212.8,
    "Percent Change": 2.4099350661643504,
    "rise": "up",
    "Location": "ST. PETERSBURG",
    "Latitude": 27.76,
    "Longitude": -82.62700000000001,
    "GLOSS ID": null,
    "Country": "USA",
    "Date": "08/03/2016",
    "Coastline": 940,
    "Station": 61,
    "id": 520,
    "Flag": " N"
  },
  {
    "FIELD1": 182,
    "ID": 521,
    "First": 6918.114583333333,
    "Last": 7048.083333333334,
    "Percent Change": 1.8786729886364282,
    "rise": "up",
    "Location": "KAHULUI HARBOR, MAUI ISLAND",
    "Latitude": 20.895,
    "Longitude": -156.477,
    "GLOSS ID": null,
    "Country": "USA",
    "Date": "08/03/2016",
    "Coastline": 760,
    "Station": 51,
    "id": 521,
    "Flag": " N"
  },
  {
    "FIELD1": 183,
    "ID": 522,
    "First": 6988.753333333334,
    "Last": 7329.2380952380945,
    "Percent Change": 4.871895539377463,
    "rise": "up",
    "Location": "LEGASPI, ALBAY",
    "Latitude": 13.15,
    "Longitude": 123.75,
    "GLOSS ID": 72,
    "Country": "PHL",
    "Date": "01/12/2015",
    "Coastline": 660,
    "Station": 21,
    "id": 522,
    "Flag": " N"
  },
  {
    "FIELD1": 184,
    "ID": 523,
    "First": 6968.8,
    "Last": 7051.9333333333325,
    "Percent Change": 1.1929361343894545,
    "rise": "up",
    "Location": "MIDWAY ISLAND",
    "Latitude": 28.212,
    "Longitude": -177.36,
    "GLOSS ID": 106,
    "Country": "UMI",
    "Date": "08/03/2016",
    "Coastline": 760,
    "Station": 1,
    "id": 523,
    "Flag": " N"
  },
  {
    "FIELD1": 185,
    "ID": 524,
    "First": 7092.911616161617,
    "Last": 7033.366666666666,
    "Percent Change": -0.8394993863912539,
    "rise": "even",
    "Location": "VARDO",
    "Latitude": 70.375,
    "Longitude": 31.104,
    "GLOSS ID": 323,
    "Country": "NOR",
    "Date": "08/09/2016",
    "Coastline": 40,
    "Station": 1,
    "id": 524,
    "Flag": " N"
  },
  {
    "FIELD1": 186,
    "ID": 525,
    "First": 7001.05,
    "Last": 7165.6303030303025,
    "Percent Change": 2.350794566962131,
    "rise": "up",
    "Location": "BAR HARBOR, FRENCHMAN BAY, ME",
    "Latitude": 44.391999999999996,
    "Longitude": -68.205,
    "GLOSS ID": null,
    "Country": "USA",
    "Date": "08/03/2016",
    "Coastline": 960,
    "Station": 191,
    "id": 525,
    "Flag": " N"
  },
  {
    "FIELD1": 187,
    "ID": 526,
    "First": 6758.65,
    "Last": 7283.478787878788,
    "Percent Change": 7.765290226284669,
    "rise": "up",
    "Location": "GRAND ISLE",
    "Latitude": 29.263,
    "Longitude": -89.95700000000001,
    "GLOSS ID": null,
    "Country": "USA",
    "Date": "08/03/2016",
    "Coastline": 940,
    "Station": 21,
    "id": 526,
    "Flag": " N"
  },
  {
    "FIELD1": 188,
    "ID": 537,
    "First": 7005.9134199134205,
    "Last": 7208.327272727273,
    "Percent Change": 2.889185758969232,
    "rise": "up",
    "Location": "DAVAO, DAVAO GULF",
    "Latitude": 7.082999999999999,
    "Longitude": 125.633,
    "GLOSS ID": 71,
    "Country": "PHL",
    "Date": "01/12/2015",
    "Coastline": 660,
    "Station": 121,
    "id": 537,
    "Flag": " N"
  },
  {
    "FIELD1": 189,
    "ID": 538,
    "First": 6870.166666666667,
    "Last": 7188.589999999999,
    "Percent Change": 4.63487057567743,
    "rise": "up",
    "Location": "ROCKPORT",
    "Latitude": 28.022,
    "Longitude": -97.04700000000001,
    "GLOSS ID": null,
    "Country": "USA",
    "Date": "08/03/2016",
    "Coastline": 940,
    "Station": 5,
    "id": 538,
    "Flag": " N"
  },
  {
    "FIELD1": 190,
    "ID": 539,
    "First": 6907.833333333333,
    "Last": 7202.2,
    "Percent Change": 4.261345815137407,
    "rise": "up",
    "Location": "PAGO PAGO",
    "Latitude": -14.28,
    "Longitude": -170.69,
    "GLOSS ID": 144,
    "Country": "ASM",
    "Date": "08/03/2016",
    "Coastline": 745,
    "Station": 1,
    "id": 539,
    "Flag": " N"
  },
  {
    "FIELD1": 191,
    "ID": 540,
    "First": 7047.95,
    "Last": 7153.2095238095235,
    "Percent Change": 1.4934771644169393,
    "rise": "up",
    "Location": "APRA HARBOUR, GUAM",
    "Latitude": 13.437999999999999,
    "Longitude": 144.653,
    "GLOSS ID": 149,
    "Country": "GUM",
    "Date": "08/03/2016",
    "Coastline": 701,
    "Station": 1,
    "id": 540,
    "Flag": " N"
  },
  {
    "FIELD1": 192,
    "ID": 541,
    "First": 7088.7380952380945,
    "Last": 6923.7666666666655,
    "Percent Change": -2.327232666167334,
    "rise": "down",
    "Location": "BARENTSBURG",
    "Latitude": 78.067,
    "Longitude": 14.25,
    "GLOSS ID": 231,
    "Country": "SJM",
    "Date": "26/01/2016",
    "Coastline": 25,
    "Station": 1,
    "id": 541,
    "Flag": " N"
  },
  {
    "FIELD1": 193,
    "ID": 543,
    "First": 6937.283333333335,
    "Last": 7179.6,
    "Percent Change": 3.492961942354942,
    "rise": "up",
    "Location": "DIAMOND HARBOUR",
    "Latitude": 22.2,
    "Longitude": 88.167,
    "GLOSS ID": null,
    "Country": "IND",
    "Date": "23/08/2016",
    "Coastline": 500,
    "Station": 131,
    "id": 543,
    "Flag": " N"
  },
  {
    "FIELD1": 194,
    "ID": 562,
    "First": 7155.444444444443,
    "Last": 6993.316666666666,
    "Percent Change": -2.265796052733738,
    "rise": "down",
    "Location": "BODO",
    "Latitude": 67.288,
    "Longitude": 14.390999999999998,
    "GLOSS ID": null,
    "Country": "NOR",
    "Date": "08/09/2016",
    "Coastline": 40,
    "Station": 101,
    "id": 562,
    "Flag": " N"
  },
  {
    "FIELD1": 195,
    "ID": 564,
    "First": 6845.666666666667,
    "Last": 7060.883333333334,
    "Percent Change": 3.143837951015248,
    "rise": "up",
    "Location": "MACKAY",
    "Latitude": -21.1,
    "Longitude": 149.233,
    "GLOSS ID": null,
    "Country": "AUS",
    "Date": "30/06/2016",
    "Coastline": 680,
    "Station": 61,
    "id": 564,
    "Flag": " N"
  },
  {
    "FIELD1": 196,
    "ID": 566,
    "First": 6943.860000000001,
    "Last": 7134.7,
    "Percent Change": 2.7483272992254917,
    "rise": "up",
    "Location": "CORDOVA",
    "Latitude": 60.558,
    "Longitude": -145.752,
    "GLOSS ID": null,
    "Country": "USA",
    "Date": "08/03/2016",
    "Coastline": 821,
    "Station": 20,
    "id": 566,
    "Flag": " N"
  },
  {
    "FIELD1": 197,
    "ID": 569,
    "First": 6988.666666666666,
    "Last": 7058.633333333333,
    "Percent Change": 1.0011447104836473,
    "rise": "up",
    "Location": "TIKSI (TIKSI BUKHTA)",
    "Latitude": 71.583,
    "Longitude": 128.917,
    "GLOSS ID": 313,
    "Country": "RUS",
    "Date": "13/08/2013",
    "Coastline": 30,
    "Station": 447,
    "id": 569,
    "Flag": " N"
  },
  {
    "FIELD1": 198,
    "ID": 593,
    "First": 6920.9373737373735,
    "Last": 6923.662698412699,
    "Percent Change": 0.03937797047069046,
    "rise": "even",
    "Location": "ARRECIFE",
    "Latitude": 28.971999999999998,
    "Longitude": -13.53,
    "GLOSS ID": null,
    "Country": "ESP",
    "Date": "24/02/2016",
    "Coastline": 370,
    "Station": 1,
    "id": 593,
    "Flag": " N"
  },
  {
    "FIELD1": 199,
    "ID": 595,
    "First": 6991.385714285714,
    "Last": 7108.033333333335,
    "Percent Change": 1.6684477700789826,
    "rise": "up",
    "Location": "WAKE ISLAND",
    "Latitude": 19.29,
    "Longitude": 166.61700000000002,
    "GLOSS ID": 105,
    "Country": "MHL",
    "Date": "08/03/2016",
    "Coastline": 720,
    "Station": 21,
    "id": 595,
    "Flag": " N"
  },
  {
    "FIELD1": 200,
    "ID": 599,
    "First": 6943,
    "Last": 7109.333333333334,
    "Percent Change": 2.3956983052475,
    "rise": "up",
    "Location": "AMDERMA",
    "Latitude": 69.75,
    "Longitude": 61.7,
    "GLOSS ID": null,
    "Country": "RUS",
    "Date": "08/12/2014",
    "Coastline": 30,
    "Station": 310,
    "id": 599,
    "Flag": " N"
  },
  {
    "FIELD1": 201,
    "ID": 600,
    "First": 6983.333333333334,
    "Last": 7085.065656565656,
    "Percent Change": 1.4567874448542588,
    "rise": "up",
    "Location": "UST KARA",
    "Latitude": 69.25,
    "Longitude": 64.517,
    "GLOSS ID": null,
    "Country": "RUS",
    "Date": "08/12/2014",
    "Coastline": 30,
    "Station": 315,
    "id": 600,
    "Flag": " N"
  },
  {
    "FIELD1": 202,
    "ID": 601,
    "First": 6971.833333333333,
    "Last": 6960.848214285714,
    "Percent Change": -0.15756428076239054,
    "rise": "even",
    "Location": "FEDOROVA (CHELUSKIN MYS)",
    "Latitude": 77.717,
    "Longitude": 104.3,
    "GLOSS ID": null,
    "Country": "RUS",
    "Date": "13/08/2013",
    "Coastline": 30,
    "Station": 392,
    "id": 601,
    "Flag": " N"
  },
  {
    "FIELD1": 203,
    "ID": 602,
    "First": 7028.666666666666,
    "Last": 7063,
    "Percent Change": 0.48847576591103964,
    "rise": "even",
    "Location": "SANNIKOVA (SANNIKOVA PROLIV)",
    "Latitude": 74.667,
    "Longitude": 138.9,
    "GLOSS ID": null,
    "Country": "RUS",
    "Date": "08/12/2014",
    "Coastline": 30,
    "Station": 480,
    "id": 602,
    "Flag": " N"
  },
  {
    "FIELD1": 204,
    "ID": 604,
    "First": 6995,
    "Last": 7147.333333333334,
    "Percent Change": 2.1777460090540948,
    "rise": "up",
    "Location": "AMBARCHIK",
    "Latitude": 69.617,
    "Longitude": 162.3,
    "GLOSS ID": null,
    "Country": "RUS",
    "Date": "08/12/2014",
    "Coastline": 30,
    "Station": 535,
    "id": 604,
    "Flag": " N"
  },
  {
    "FIELD1": 205,
    "ID": 605,
    "First": 7027.5,
    "Last": 7195.208333333333,
    "Percent Change": 2.3864579627653226,
    "rise": "up",
    "Location": "RAU-CHUA",
    "Latitude": 69.5,
    "Longitude": 166.583,
    "GLOSS ID": null,
    "Country": "RUS",
    "Date": "08/12/2014",
    "Coastline": 30,
    "Station": 556,
    "id": 605,
    "Flag": " N"
  },
  {
    "FIELD1": 206,
    "ID": 606,
    "First": 6968.166666666667,
    "Last": 7067.366666666667,
    "Percent Change": 1.423616924585613,
    "rise": "up",
    "Location": "PEVEK",
    "Latitude": 69.7,
    "Longitude": 170.25,
    "GLOSS ID": null,
    "Country": "RUS",
    "Date": "08/12/2014",
    "Coastline": 30,
    "Station": 567,
    "id": 606,
    "Flag": " N"
  },
  {
    "FIELD1": 207,
    "ID": 611,
    "First": 7007,
    "Last": 7106.704545454546,
    "Percent Change": 1.4229277216290275,
    "rise": "up",
    "Location": "DIKSON",
    "Latitude": 73.5,
    "Longitude": 80.4,
    "GLOSS ID": 312,
    "Country": "RUS",
    "Date": "13/08/2013",
    "Coastline": 30,
    "Station": 345,
    "id": 611,
    "Flag": " N"
  },
  {
    "FIELD1": 208,
    "ID": 612,
    "First": 6999.5,
    "Last": 7086.555555555555,
    "Percent Change": 1.2437396321959389,
    "rise": "up",
    "Location": "STERLEGOVA (STERLEGOVA MYS)",
    "Latitude": 75.417,
    "Longitude": 88.9,
    "GLOSS ID": null,
    "Country": "RUS",
    "Date": "13/08/2013",
    "Coastline": 30,
    "Station": 365,
    "id": 612,
    "Flag": " N"
  },
  {
    "FIELD1": 209,
    "ID": 635,
    "First": 6859.672727272727,
    "Last": 7169.877777777778,
    "Percent Change": 4.5221552519806965,
    "rise": "up",
    "Location": "ONAHAMA",
    "Latitude": 36.938,
    "Longitude": 140.892,
    "GLOSS ID": null,
    "Country": "JPN",
    "Date": "15/03/2016",
    "Coastline": 642,
    "Station": 41,
    "id": 635,
    "Flag": " Y"
  },
  {
    "FIELD1": 210,
    "ID": 636,
    "First": 6877.7,
    "Last": 7089.166666666667,
    "Percent Change": 3.074671280612227,
    "rise": "up",
    "Location": "KIPTOPEKE BEACH",
    "Latitude": 37.165,
    "Longitude": -75.988,
    "GLOSS ID": null,
    "Country": "USA",
    "Date": "08/03/2016",
    "Coastline": 960,
    "Station": 83,
    "id": 636,
    "Flag": " N"
  },
  {
    "FIELD1": 211,
    "ID": 637,
    "First": 6875.666666666666,
    "Last": 7014.95,
    "Percent Change": 2.0257429582585993,
    "rise": "up",
    "Location": "TOWNSVILLE I",
    "Latitude": -19.25,
    "Longitude": 146.833,
    "GLOSS ID": 60,
    "Country": "AUS",
    "Date": "30/06/2016",
    "Coastline": 680,
    "Station": 51,
    "id": 637,
    "Flag": " N"
  },
  {
    "FIELD1": 212,
    "ID": 638,
    "First": 6978.916666666666,
    "Last": 7121.983333333333,
    "Percent Change": 2.049983880019582,
    "rise": "up",
    "Location": "REYKJAVIK",
    "Latitude": 64.15100000000001,
    "Longitude": -21.94,
    "GLOSS ID": 229,
    "Country": "ISL",
    "Date": "14/06/2016",
    "Coastline": 10,
    "Station": 1,
    "id": 638,
    "Flag": " N"
  },
  {
    "FIELD1": 213,
    "ID": 640,
    "First": 6977.166666666667,
    "Last": 7077.066666666666,
    "Percent Change": 1.4318132957504057,
    "rise": "up",
    "Location": "DUNAI (DUNAI OSTROV)",
    "Latitude": 73.933,
    "Longitude": 124.5,
    "GLOSS ID": null,
    "Country": "RUS",
    "Date": "13/08/2013",
    "Coastline": 30,
    "Station": 440,
    "id": 640,
    "Flag": " N"
  },
  {
    "FIELD1": 214,
    "ID": 641,
    "First": 6870.333333333333,
    "Last": 7151.5,
    "Percent Change": 4.092474892047941,
    "rise": "up",
    "Location": "KOTELNYI (KOTELNYI OSTROV)",
    "Latitude": 76,
    "Longitude": 137.86700000000002,
    "GLOSS ID": null,
    "Country": "RUS",
    "Date": "08/12/2014",
    "Coastline": 30,
    "Station": 475,
    "id": 641,
    "Flag": " N"
  },
  {
    "FIELD1": 215,
    "ID": 642,
    "First": 7060.666666666667,
    "Last": 7010.166666666666,
    "Percent Change": -0.7152299121896079,
    "rise": "even",
    "Location": "KIGILIAH",
    "Latitude": 73.333,
    "Longitude": 139.86700000000002,
    "GLOSS ID": null,
    "Country": "RUS",
    "Date": "08/12/2014",
    "Coastline": 30,
    "Station": 485,
    "id": 642,
    "Flag": " N"
  },
  {
    "FIELD1": 216,
    "ID": 680,
    "First": 6981.225,
    "Last": 6964.3,
    "Percent Change": -0.24243596216996557,
    "rise": "even",
    "Location": "TROMSO",
    "Latitude": 69.64699999999999,
    "Longitude": 18.961,
    "GLOSS ID": null,
    "Country": "NOR",
    "Date": "08/09/2016",
    "Coastline": 40,
    "Station": 31,
    "id": 680,
    "Flag": " N"
  },
  {
    "FIELD1": 217,
    "ID": 681,
    "First": 7043.620000000001,
    "Last": 6991.983333333333,
    "Percent Change": -0.7330984162499983,
    "rise": "even",
    "Location": "HARSTAD",
    "Latitude": 68.801,
    "Longitude": 16.548,
    "GLOSS ID": null,
    "Country": "NOR",
    "Date": "08/09/2016",
    "Coastline": 40,
    "Station": 61,
    "id": 681,
    "Flag": " N"
  },
  {
    "FIELD1": 218,
    "ID": 682,
    "First": 7063.615,
    "Last": 7022.016666666667,
    "Percent Change": -0.5889099750387365,
    "rise": "even",
    "Location": "KRISTIANSUND",
    "Latitude": 63.114,
    "Longitude": 7.734,
    "GLOSS ID": null,
    "Country": "NOR",
    "Date": "08/09/2016",
    "Coastline": 40,
    "Station": 161,
    "id": 682,
    "Flag": " N"
  },
  {
    "FIELD1": 219,
    "ID": 684,
    "First": 7010.5,
    "Last": 7022.233333333333,
    "Percent Change": 0.16736799562559967,
    "rise": "even",
    "Location": "MURMANSK",
    "Latitude": 68.967,
    "Longitude": 33.05,
    "GLOSS ID": 274,
    "Country": "RUS",
    "Date": "26/01/2016",
    "Coastline": 30,
    "Station": 18,
    "id": 684,
    "Flag": " N"
  },
  {
    "FIELD1": 220,
    "ID": 685,
    "First": 6995.291666666667,
    "Last": 6949.808888888889,
    "Percent Change": -0.6501912993064841,
    "rise": "even",
    "Location": "SPLIT RT MARJANA",
    "Latitude": 43.508,
    "Longitude": 16.392,
    "GLOSS ID": null,
    "Country": "HRV",
    "Date": "13/05/2013",
    "Coastline": 280,
    "Station": 21,
    "id": 685,
    "Flag": " N"
  },
  {
    "FIELD1": 221,
    "ID": 686,
    "First": 7062.466666666667,
    "Last": 7376.175189393939,
    "Percent Change": 4.441911552063092,
    "rise": "up",
    "Location": "ACAPULCO",
    "Latitude": 16.833,
    "Longitude": -99.917,
    "GLOSS ID": 267,
    "Country": "MEX",
    "Date": "24/06/2015",
    "Coastline": 830,
    "Station": 81,
    "id": 686,
    "Flag": " N"
  },
  {
    "FIELD1": 222,
    "ID": 701,
    "First": 7025.818181818181,
    "Last": 6951.483333333333,
    "Percent Change": -1.0580240843296576,
    "rise": "down",
    "Location": "KAINAN",
    "Latitude": 34.144,
    "Longitude": 135.191,
    "GLOSS ID": null,
    "Country": "JPN",
    "Date": "15/03/2016",
    "Coastline": 643,
    "Station": 13,
    "id": 701,
    "Flag": " N"
  },
  {
    "FIELD1": 223,
    "ID": 703,
    "First": 7003.209686147186,
    "Last": 7116.5,
    "Percent Change": 1.6176913005605038,
    "rise": "up",
    "Location": "HANSTHOLM",
    "Latitude": 57.119,
    "Longitude": 8.596,
    "GLOSS ID": null,
    "Country": "DNK",
    "Date": "12/09/2013",
    "Coastline": 130,
    "Station": 111,
    "id": 703,
    "Flag": " N"
  },
  {
    "FIELD1": 224,
    "ID": 704,
    "First": 6990.166666666666,
    "Last": 6968,
    "Percent Change": -0.3171121337116339,
    "rise": "even",
    "Location": "VISE (VISE OSTROV)",
    "Latitude": 79.5,
    "Longitude": 76.983,
    "GLOSS ID": null,
    "Country": "RUS",
    "Date": "08/12/2014",
    "Coastline": 30,
    "Station": 338,
    "id": 704,
    "Flag": " N"
  },
  {
    "FIELD1": 225,
    "ID": 721,
    "First": 7005.609523809524,
    "Last": 7015.4833333333345,
    "Percent Change": 0.14094147683014527,
    "rise": "even",
    "Location": "ASAMUSHI",
    "Latitude": 40.898,
    "Longitude": 140.859,
    "GLOSS ID": null,
    "Country": "JPN",
    "Date": "15/03/2016",
    "Coastline": 647,
    "Station": 121,
    "id": 721,
    "Flag": " N"
  },
  {
    "FIELD1": 226,
    "ID": 722,
    "First": 6971.112698412699,
    "Last": 7224.033333333335,
    "Percent Change": 3.6281243161974035,
    "rise": "up",
    "Location": "YOKOSUKA",
    "Latitude": 35.288000000000004,
    "Longitude": 139.651,
    "GLOSS ID": null,
    "Country": "JPN",
    "Date": "15/03/2016",
    "Coastline": 642,
    "Station": 81,
    "id": 722,
    "Flag": " N"
  },
  {
    "FIELD1": 227,
    "ID": 723,
    "First": 7004.127777777778,
    "Last": 7114.5,
    "Percent Change": 1.5758168000932788,
    "rise": "up",
    "Location": "DALIAN",
    "Latitude": 38.867,
    "Longitude": 121.68299999999999,
    "GLOSS ID": 79,
    "Country": "CHN",
    "Date": "04/05/2016",
    "Coastline": 610,
    "Station": 44,
    "id": 723,
    "Flag": " N"
  },
  {
    "FIELD1": 228,
    "ID": 724,
    "First": 6953.219444444444,
    "Last": 6913.35,
    "Percent Change": -0.5733954574998913,
    "rise": "even",
    "Location": "SEMBAWANG",
    "Latitude": 1.4669999999999999,
    "Longitude": 103.833,
    "GLOSS ID": null,
    "Country": "SGP",
    "Date": "10/05/2016",
    "Coastline": 555,
    "Station": 51,
    "id": 724,
    "Flag": " N"
  },
  {
    "FIELD1": 229,
    "ID": 728,
    "First": 6966.166666666666,
    "Last": 6969.313131313131,
    "Percent Change": 0.045167806011886,
    "rise": "even",
    "Location": "IZVESTIA TSIK (IZVESTIA TSIK OSTROVA)",
    "Latitude": 75.95,
    "Longitude": 82.95,
    "GLOSS ID": null,
    "Country": "RUS",
    "Date": "08/12/2014",
    "Coastline": 30,
    "Station": 360,
    "id": 728,
    "Flag": " N"
  },
  {
    "FIELD1": 230,
    "ID": 729,
    "First": 6951.5,
    "Last": 6972.349206349206,
    "Percent Change": 0.2999238487981848,
    "rise": "even",
    "Location": "GOLOMIANYI (GOLOMIANYI OSTROV)",
    "Latitude": 79.55,
    "Longitude": 90.617,
    "GLOSS ID": null,
    "Country": "RUS",
    "Date": "13/08/2013",
    "Coastline": 30,
    "Station": 374,
    "id": 729,
    "Flag": " N"
  },
  {
    "FIELD1": 231,
    "ID": 752,
    "First": 6835.833333333333,
    "Last": 7101.7733333333335,
    "Percent Change": 3.8903815677191345,
    "rise": "up",
    "Location": "NEZUGASEKI",
    "Latitude": 38.563,
    "Longitude": 139.546,
    "GLOSS ID": null,
    "Country": "JPN",
    "Date": "15/03/2016",
    "Coastline": 647,
    "Station": 91,
    "id": 752,
    "Flag": " Y"
  },
  {
    "FIELD1": 232,
    "ID": 753,
    "First": 7002.664285714285,
    "Last": 7040.4,
    "Percent Change": 0.5388765296473923,
    "rise": "even",
    "Location": "KASHIWAZAKI",
    "Latitude": 37.357,
    "Longitude": 138.50799999999998,
    "GLOSS ID": null,
    "Country": "JPN",
    "Date": "15/03/2016",
    "Coastline": 647,
    "Station": 81,
    "id": 753,
    "Flag": " N"
  },
  {
    "FIELD1": 233,
    "ID": 754,
    "First": 6972.325,
    "Last": 7110.436363636365,
    "Percent Change": 1.9808509161056784,
    "rise": "up",
    "Location": "LOWESTOFT",
    "Latitude": 52.473,
    "Longitude": 1.75,
    "GLOSS ID": null,
    "Country": "GBR",
    "Date": "31/05/2016",
    "Coastline": 170,
    "Station": 68,
    "id": 754,
    "Flag": " N"
  },
  {
    "FIELD1": 234,
    "ID": 755,
    "First": 7064.858333333333,
    "Last": 7106.672727272728,
    "Percent Change": 0.5918645776958714,
    "rise": "even",
    "Location": "MILLPORT",
    "Latitude": 55.75,
    "Longitude": -4.906000000000001,
    "GLOSS ID": null,
    "Country": "GBR",
    "Date": "31/05/2016",
    "Coastline": 170,
    "Station": 241,
    "id": 755,
    "Flag": " N"
  },
  {
    "FIELD1": 235,
    "ID": 756,
    "First": 6940.366666666667,
    "Last": 7031.354545454546,
    "Percent Change": 1.3109952709685675,
    "rise": "up",
    "Location": "NAWILIWILI BAY, KAUAI ISLAND",
    "Latitude": 21.953000000000003,
    "Longitude": -159.355,
    "GLOSS ID": null,
    "Country": "USA",
    "Date": "08/03/2016",
    "Coastline": 760,
    "Station": 21,
    "id": 756,
    "Flag": " N"
  },
  {
    "FIELD1": 236,
    "ID": 757,
    "First": 7097.953333333334,
    "Last": 6804.177272727274,
    "Percent Change": -4.13888408122426,
    "rise": "down",
    "Location": "UNALASKA",
    "Latitude": 53.88,
    "Longitude": -166.537,
    "GLOSS ID": 102,
    "Country": "USA",
    "Date": "08/03/2016",
    "Coastline": 820,
    "Station": 21,
    "id": 757,
    "Flag": " N"
  },
  {
    "FIELD1": 237,
    "ID": 758,
    "First": 6942.184848484848,
    "Last": 6972.233333333333,
    "Percent Change": 0.43283901976541256,
    "rise": "even",
    "Location": "HAMMERFEST",
    "Latitude": 70.665,
    "Longitude": 23.683000000000003,
    "GLOSS ID": null,
    "Country": "NOR",
    "Date": "08/09/2016",
    "Coastline": 40,
    "Station": 21,
    "id": 758,
    "Flag": " N"
  },
  {
    "FIELD1": 238,
    "ID": 759,
    "First": 6981.383333333334,
    "Last": 7107.216666666667,
    "Percent Change": 1.8024126068615773,
    "rise": "up",
    "Location": "MAGUEYES ISLAND",
    "Latitude": 17.97,
    "Longitude": -67.045,
    "GLOSS ID": null,
    "Country": "PRI",
    "Date": "08/03/2016",
    "Coastline": 938,
    "Station": 11,
    "id": 759,
    "Flag": " N"
  },
  {
    "FIELD1": 239,
    "ID": 760,
    "First": 7057.466666666667,
    "Last": 7182.403333333334,
    "Percent Change": 1.770276397574198,
    "rise": "up",
    "Location": "DUBROVNIK",
    "Latitude": 42.658,
    "Longitude": 18.063,
    "GLOSS ID": null,
    "Country": "HRV",
    "Date": "17/05/2016",
    "Coastline": 280,
    "Station": 81,
    "id": 760,
    "Flag": " N"
  },
  {
    "FIELD1": 240,
    "ID": 761,
    "First": 7038.276190476191,
    "Last": 7117.125757575758,
    "Percent Change": 1.12029657498042,
    "rise": "up",
    "Location": "ROVINJ",
    "Latitude": 45.083,
    "Longitude": 13.628,
    "GLOSS ID": null,
    "Country": "HRV",
    "Date": "17/05/2016",
    "Coastline": 280,
    "Station": 6,
    "id": 761,
    "Flag": " N"
  },
  {
    "FIELD1": 241,
    "ID": 762,
    "First": 7035.376666666666,
    "Last": 7103.766666666667,
    "Percent Change": 0.972087256166828,
    "rise": "even",
    "Location": "RODBYHAVN",
    "Latitude": 54.656000000000006,
    "Longitude": 11.349,
    "GLOSS ID": null,
    "Country": "DNK",
    "Date": "12/09/2013",
    "Coastline": 130,
    "Station": 11,
    "id": 762,
    "Flag": " N"
  },
  {
    "FIELD1": 242,
    "ID": 789,
    "First": 6980.166666666667,
    "Last": 7038.283333333335,
    "Percent Change": 0.8325971204126124,
    "rise": "even",
    "Location": "KIEL-HOLTENAU",
    "Latitude": 54.372,
    "Longitude": 10.157,
    "GLOSS ID": null,
    "Country": "DEU",
    "Date": "18/11/2015",
    "Coastline": 125,
    "Station": 21,
    "id": 789,
    "Flag": " N"
  },
  {
    "FIELD1": 243,
    "ID": 808,
    "First": 7276.983333333333,
    "Last": 7577.2,
    "Percent Change": 4.125564851735731,
    "rise": "up",
    "Location": "SHIMIZU-MINATO",
    "Latitude": 35.012,
    "Longitude": 138.518,
    "GLOSS ID": null,
    "Country": "JPN",
    "Date": "15/03/2016",
    "Coastline": 642,
    "Station": 121,
    "id": 808,
    "Flag": " N"
  },
  {
    "FIELD1": 244,
    "ID": 809,
    "First": 6954.9,
    "Last": 7077.616666666666,
    "Percent Change": 1.7644634238690167,
    "rise": "up",
    "Location": "KOMATSUSHIMA",
    "Latitude": 34.009,
    "Longitude": 134.588,
    "GLOSS ID": null,
    "Country": "JPN",
    "Date": "15/03/2016",
    "Coastline": 644,
    "Station": 51,
    "id": 809,
    "Flag": " N"
  },
  {
    "FIELD1": 245,
    "ID": 810,
    "First": 6971.254545454545,
    "Last": 7078.866666666667,
    "Percent Change": 1.5436550266592648,
    "rise": "up",
    "Location": "MISUMI",
    "Latitude": 32.623000000000005,
    "Longitude": 130.451,
    "GLOSS ID": null,
    "Country": "JPN",
    "Date": "07/02/2013",
    "Coastline": 645,
    "Station": 51,
    "id": 810,
    "Flag": " N"
  },
  {
    "FIELD1": 246,
    "ID": 811,
    "First": 7052.416666666667,
    "Last": 7160.866666666667,
    "Percent Change": 1.5377707405262946,
    "rise": "up",
    "Location": "SAKAI",
    "Latitude": 35.548,
    "Longitude": 133.243,
    "GLOSS ID": null,
    "Country": "JPN",
    "Date": "15/03/2016",
    "Coastline": 647,
    "Station": 41,
    "id": 811,
    "Flag": " N"
  },
  {
    "FIELD1": 247,
    "ID": 812,
    "First": 7002.498484848485,
    "Last": 7249.516666666667,
    "Percent Change": 3.527572085201637,
    "rise": "up",
    "Location": "UNO",
    "Latitude": 34.489000000000004,
    "Longitude": 133.94899999999998,
    "GLOSS ID": null,
    "Country": "JPN",
    "Date": "15/03/2016",
    "Coastline": 643,
    "Station": 31,
    "id": 812,
    "Flag": " N"
  },
  {
    "FIELD1": 248,
    "ID": 813,
    "First": 6932.487878787879,
    "Last": 6894.416666666667,
    "Percent Change": -0.549170987196424,
    "rise": "even",
    "Location": "HAKODATE I",
    "Latitude": 41.782,
    "Longitude": 140.725,
    "GLOSS ID": 88,
    "Country": "JPN",
    "Date": "15/03/2016",
    "Coastline": 641,
    "Station": 31,
    "id": 813,
    "Flag": " N"
  },
  {
    "FIELD1": 249,
    "ID": 814,
    "First": 6922.1,
    "Last": 7041.4333333333325,
    "Percent Change": 1.72394697177637,
    "rise": "up",
    "Location": "ABURATSU",
    "Latitude": 31.576999999999998,
    "Longitude": 131.409,
    "GLOSS ID": 82,
    "Country": "JPN",
    "Date": "15/03/2016",
    "Coastline": 645,
    "Station": 21,
    "id": 814,
    "Flag": " N"
  },
  {
    "FIELD1": 250,
    "ID": 815,
    "First": 6981.5666666666675,
    "Last": 7046.95,
    "Percent Change": 0.9365137719804862,
    "rise": "even",
    "Location": "TOSA SHIMIZU",
    "Latitude": 32.779,
    "Longitude": 132.959,
    "GLOSS ID": null,
    "Country": "JPN",
    "Date": "15/03/2016",
    "Coastline": 644,
    "Station": 11,
    "id": 815,
    "Flag": " N"
  },
  {
    "FIELD1": 251,
    "ID": 816,
    "First": 7016.106060606061,
    "Last": 6972.283333333335,
    "Percent Change": -0.6246018360352555,
    "rise": "even",
    "Location": "WAKAYAMA",
    "Latitude": 34.222,
    "Longitude": 135.14600000000002,
    "GLOSS ID": null,
    "Country": "JPN",
    "Date": "15/03/2016",
    "Coastline": 643,
    "Station": 15,
    "id": 816,
    "Flag": " N"
  },
  {
    "FIELD1": 252,
    "ID": 817,
    "First": 6992.504444444445,
    "Last": 7078.633333333334,
    "Percent Change": 1.231731628820328,
    "rise": "up",
    "Location": "TAN-NOWA",
    "Latitude": 34.339,
    "Longitude": 135.178,
    "GLOSS ID": null,
    "Country": "JPN",
    "Date": "15/03/2016",
    "Coastline": 643,
    "Station": 17,
    "id": 817,
    "Flag": " N"
  },
  {
    "FIELD1": 253,
    "ID": 819,
    "First": 7052.716666666667,
    "Last": 7088.044444444444,
    "Percent Change": 0.5009102087532696,
    "rise": "even",
    "Location": "MAR DEL PLATA (NAVAL BASE)",
    "Latitude": -38.033,
    "Longitude": -57.516999999999996,
    "GLOSS ID": 192,
    "Country": "ARG",
    "Date": "05/08/2015",
    "Coastline": 860,
    "Station": 101,
    "id": 819,
    "Flag": " N"
  },
  {
    "FIELD1": 254,
    "ID": 822,
    "First": 7294.321212121213,
    "Last": 7336.35,
    "Percent Change": 0.5761850439071289,
    "rise": "even",
    "Location": "BRISBANE (WEST INNER BAR)",
    "Latitude": -27.366999999999997,
    "Longitude": 153.167,
    "GLOSS ID": 58,
    "Country": "AUS",
    "Date": "30/06/2016",
    "Coastline": 680,
    "Station": 78,
    "id": 822,
    "Flag": " N"
  },
  {
    "FIELD1": 255,
    "ID": 823,
    "First": 6926.575,
    "Last": 6986.133333333333,
    "Percent Change": 0.859852572639918,
    "rise": "even",
    "Location": "MOKUOLOE ISLAND",
    "Latitude": 21.432,
    "Longitude": -157.79,
    "GLOSS ID": null,
    "Country": "USA",
    "Date": "08/03/2016",
    "Coastline": 760,
    "Station": 41,
    "id": 823,
    "Flag": " N"
  },
  {
    "FIELD1": 256,
    "ID": 824,
    "First": 6989,
    "Last": 7133.0166666666655,
    "Percent Change": 2.0606190680593146,
    "rise": "up",
    "Location": "PETROPAVLOVSK-KAMCHATSKY",
    "Latitude": 52.983000000000004,
    "Longitude": 158.65,
    "GLOSS ID": 93,
    "Country": "RUS",
    "Date": "26/01/2016",
    "Coastline": 630,
    "Station": 21,
    "id": 824,
    "Flag": " N"
  },