id,location,latitude,longitude,country,continent,country_name,c02_emissions,c02_rank,coastal_population2010_sum,total_population2010_sum,trend_1985_2015,start_year,trend_longest,risk_rank,risk_index,risk_description
1,Brest,48.383,-4.495,FRA,europe,France,5.05,92.0,2983590.0,63125894.0,2.38,1807.0,0.97,152.0,2.62,very low
61,Marseille,43.279,5.354,FRA,europe,France,5.05,92.0,2983590.0,63125894.0,3.53,1885.0,1.32,152.0,2.62,very low
453,Le Havre,49.482,0.106,FRA,europe,France,5.05,92.0,2983590.0,63125894.0,1.98,1959.0,2.66,152.0,2.62,very low
467,Cherbourg,49.651,-1.636,FRA,europe,France,5.05,92.0,2983590.0,63125894.0,1.91,1975.0,1.47,152.0,2.62,very low
468,Dunkerque,51.048,2.367,FRA,europe,France,5.05,92.0,2983590.0,63125894.0,,1957.0,1.96,152.0,2.62,very low
469,St Jean De Luz (Socoa),43.395,-1.682,FRA,europe,France,5.05,92.0,2983590.0,63125894.0,,1966.0,0.95,152.0,2.62,very low
471,Boulogne,50.728,1.577,FRA,europe,France,5.05,92.0,2983590.0,63125894.0,,,,152.0,2.62,very low
474,Dieppe,49.929,1.084,FRA,europe,France,5.05,92.0,2983590.0,63125894.0,,1954.0,5.2,152.0,2.62,very low
1247,Port Tudy,47.644,-3.446,FRA,europe,France,5.05,92.0,2983590.0,63125894.0,2.97,1976.0,2.47,152.0,2.62,very low
1294,Le Conquet,48.359,-4.7810000000000015,FRA,europe,France,5.05,92.0,2983590.0,63125894.0,3.54,1971.0,2.86,152.0,2.62,very low
1347,Roscoff,48.718,-3.966,FRA,europe,France,5.05,92.0,2983590.0,63125894.0,1.99,1975.0,1.77,152.0,2.62,very low
1468,Nice,43.69600000000001,7.286,FRA,europe,France,5.05,92.0,2983590.0,63125894.0,2.83,1978.0,3.07,152.0,2.62,very low
1469,Port Vendres,42.52,3.107,FRA,europe,France,5.05,92.0,2983590.0,63125894.0,,,,152.0,2.62,very low
1801,Boucau,43.527,-1.515,FRA,europe,France,5.05,92.0,2983590.0,63125894.0,2.99,1969.0,1.42,152.0,2.62,very low
3,Sheerness,51.44600000000001,0.743,GBR,europe,United Kingdom,7.13,56.0,6662984.0,62417431.0,,1968.0,1.73,131.0,3.54,low
5,Holyhead,53.31399999999999,-4.62,GBR,europe,United Kingdom,7.13,56.0,6662984.0,62417431.0,,,,131.0,3.54,low
95,North Shields,55.007,-1.44,GBR,europe,United Kingdom,7.13,56.0,6662984.0,62417431.0,2.6,1896.0,1.89,131.0,3.54,low
202,Newlyn,50.103,-5.542999999999998,GBR,europe,United Kingdom,7.13,56.0,6662984.0,62417431.0,2.81,1916.0,1.83,131.0,3.54,low
255,Dover,51.114,1.3230000000000002,GBR,europe,United Kingdom,7.13,56.0,6662984.0,62417431.0,,,,131.0,3.54,low
286,Immingham,53.63,-0.187,GBR,europe,United Kingdom,7.13,56.0,6662984.0,62417431.0,-1.04,1960.0,0.54,131.0,3.54,low
314,Stornoway,58.208,-6.3889999999999985,GBR,europe,United Kingdom,7.13,56.0,6662984.0,62417431.0,2.64,1977.0,1.91,131.0,3.54,low
350,Portsmouth,50.802,-1.111,GBR,europe,United Kingdom,7.13,56.0,6662984.0,62417431.0,,,,131.0,3.54,low
361,Aberdeen I,57.144,-2.077,GBR,europe,United Kingdom,7.13,56.0,6662984.0,62417431.0,1.24,1932.0,0.97,131.0,3.54,low
754,Lowestoft,52.473,1.75,GBR,europe,United Kingdom,7.13,56.0,6662984.0,62417431.0,3.48,1956.0,2.62,131.0,3.54,low
755,Millport,55.75,-4.9060000000000015,GBR,europe,United Kingdom,7.13,56.0,6662984.0,62417431.0,1.25,1986.0,1.31,131.0,3.54,low
830,Lerwick,60.154,-1.14,GBR,europe,United Kingdom,7.13,56.0,6662984.0,62417431.0,,1957.0,0.35,131.0,3.54,low
936,Heysham,54.032,-2.92,GBR,europe,United Kingdom,7.13,56.0,6662984.0,62417431.0,,1962.0,1.22,131.0,3.54,low
982,Devonport,50.368,-4.185,GBR,europe,United Kingdom,7.13,56.0,6662984.0,62417431.0,,,,131.0,3.54,low
1109,Wick,58.441,-3.0860000000000003,GBR,europe,United Kingdom,7.13,56.0,6662984.0,62417431.0,1.97,1965.0,1.25,131.0,3.54,low
1112,Ullapool,57.895,-5.158,GBR,europe,United Kingdom,7.13,56.0,6662984.0,62417431.0,1.68,1983.0,1.72,131.0,3.54,low
1215,Portpatrick,54.843,-5.12,GBR,europe,United Kingdom,7.13,56.0,6662984.0,62417431.0,4.07,1968.0,2.07,131.0,3.54,low
1505,Whitby,54.49,-0.615,GBR,europe,United Kingdom,7.13,56.0,6662984.0,62417431.0,,1981.0,7.48,131.0,3.54,low
7,Cuxhaven 2,53.867,8.717,DEU,europe,Germany,9.22,37.0,4430201.0,82162512.0,3.53,1843.0,2.12,147.0,2.95,very low
8,Wismar 2,53.899,11.458,DEU,europe,Germany,9.22,37.0,4430201.0,82162512.0,1.48,1849.0,1.42,147.0,2.95,very low
11,Warnemunde 2,54.17,12.103,DEU,europe,Germany,9.22,37.0,4430201.0,82162512.0,1.88,1856.0,1.25,147.0,2.95,very low
397,Sassnitz,54.511,13.643,DEU,europe,Germany,9.22,37.0,4430201.0,82162512.0,2.34,1936.0,0.85,147.0,2.95,very low
1036,Amrum (Wittduen),54.617,8.383,DEU,europe,Germany,9.22,37.0,4430201.0,82162512.0,3.0,1963.0,2.94,147.0,2.95,very low
1037,Borkum (Fischerbalje),53.558,6.747999999999998,DEU,europe,Germany,9.22,37.0,4430201.0,82162512.0,2.87,1963.0,2.28,147.0,2.95,very low
1448,Koserow,54.06,14.001,DEU,europe,Germany,9.22,37.0,4430201.0,82162512.0,1.35,1980.0,1.21,147.0,2.95,very low
9,Maassluis,51.918,4.25,NLD,europe,Netherlands,10.11,29.0,11967821.0,16664746.0,1.48,1848.0,1.67,49.0,8.24,high
20,Vlissingen,51.442,3.596,NLD,europe,Netherlands,10.11,29.0,11967821.0,16664746.0,3.0,1862.0,1.27,49.0,8.24,high
22,Hoek Van Holland,51.978,4.12,NLD,europe,Netherlands,10.11,29.0,11967821.0,16664746.0,2.45,1864.0,2.4,49.0,8.24,high
23,Den Helder,52.964,4.745,NLD,europe,Netherlands,10.11,29.0,11967821.0,16664746.0,1.56,1865.0,1.48,49.0,8.24,high
24,Delfzijl,53.326,6.933,NLD,europe,Netherlands,10.11,29.0,11967821.0,16664746.0,2.8,1865.0,1.71,49.0,8.24,high
25,Harlingen,53.176,5.409,NLD,europe,Netherlands,10.11,29.0,11967821.0,16664746.0,2.82,1865.0,1.41,49.0,8.24,high
32,Ijmuiden,52.462,4.555,NLD,europe,Netherlands,10.11,29.0,11967821.0,16664746.0,2.69,1872.0,1.52,49.0,8.24,high
236,West-Terschelling,53.363,5.22,NLD,europe,Netherlands,10.11,29.0,11967821.0,16664746.0,2.46,1921.0,1.15,49.0,8.24,high
10,San Francisco,37.807,-122.465,USA,north-america,United States,16.39,11.0,24431214.0,313085381.0,2.19,1855.0,1.45,127.0,3.76,low
12,New York (The Battery),40.7,-74.013,USA,north-america,United States,16.39,11.0,24431214.0,313085381.0,4.54,1856.0,2.82,127.0,3.76,low
112,Fernandina Beach,30.672,-81.465,USA,north-america,United States,16.39,11.0,24431214.0,313085381.0,2.15,1898.0,2.1,127.0,3.76,low
127,Seattle,47.602,-122.338,USA,north-america,United States,16.39,11.0,24431214.0,313085381.0,2.58,1899.0,2.02,127.0,3.76,low
135,Philadelphia (Pier 9N),39.933,-75.142,USA,north-america,United States,16.39,11.0,24431214.0,313085381.0,5.2,1901.0,2.92,127.0,3.76,low
148,Baltimore,39.267,-76.578,USA,north-america,United States,16.39,11.0,24431214.0,313085381.0,4.44,1903.0,3.15,127.0,3.76,low
155,Honolulu,21.307,-157.86700000000005,USA,north-america,United States,16.39,11.0,24431214.0,313085381.0,1.09,1905.0,1.41,127.0,3.76,low
158,San Diego (Quarantine Station),32.713,-117.173,USA,north-america,United States,16.39,11.0,24431214.0,313085381.0,2.83,1906.0,2.15,127.0,3.76,low
161,"Galveston Ii, Pier 21, Tx",29.31,-94.793,USA,north-america,United States,16.39,11.0,24431214.0,313085381.0,5.6,1909.0,6.39,127.0,3.76,low
180,Atlantic City,39.355,-74.418,USA,north-america,United States,16.39,11.0,24431214.0,313085381.0,4.91,1912.0,4.08,127.0,3.76,low
183,Portland (Maine),43.657,-70.247,USA,north-america,United States,16.39,11.0,24431214.0,313085381.0,2.64,1912.0,1.84,127.0,3.76,low
188,Key West,24.555,-81.807,USA,north-america,United States,16.39,11.0,24431214.0,313085381.0,3.37,1913.0,2.38,127.0,3.76,low
224,Lewes (Breakwater Harbor),38.782,-75.12,USA,north-america,United States,16.39,11.0,24431214.0,313085381.0,5.09,1919.0,3.4,127.0,3.76,low
225,Ketchikan,55.332,-131.625,USA,north-america,United States,16.39,11.0,24431214.0,313085381.0,-0.84,1919.0,-0.32,127.0,3.76,low
234,Charleston I,32.782,-79.925,USA,north-america,United States,16.39,11.0,24431214.0,313085381.0,3.98,1922.0,3.25,127.0,3.76,low
235,Boston,42.353,-71.053,USA,north-america,United States,16.39,11.0,24431214.0,313085381.0,4.25,1921.0,2.78,127.0,3.76,low
245,Los Angeles,33.72,-118.272,USA,north-america,United States,16.39,11.0,24431214.0,313085381.0,2.3,1924.0,0.98,127.0,3.76,low
246,Pensacola,30.403,-87.21,USA,north-america,United States,16.39,11.0,24431214.0,313085381.0,3.8,1924.0,2.31,127.0,3.76,low
256,La Jolla (Scripps Pier),32.867,-117.257,USA,north-america,United States,16.39,11.0,24431214.0,313085381.0,2.75,1925.0,2.22,127.0,3.76,low
265,Astoria (Tongue Point),46.207,-123.768,USA,north-america,United States,16.39,11.0,24431214.0,313085381.0,1.86,1925.0,-0.21,127.0,3.76,low
266,Seward,60.12,-149.42700000000005,USA,north-america,United States,16.39,11.0,24431214.0,313085381.0,-4.29,1964.0,-2.64,127.0,3.76,low
299,"Sewells Point, Hampton Roads",36.947,-76.33,USA,north-america,United States,16.39,11.0,24431214.0,313085381.0,6.38,1928.0,4.62,127.0,3.76,low
300,"Hilo, Hawaii Island",19.73,-155.055,USA,north-america,United States,16.39,11.0,24431214.0,313085381.0,1.76,1927.0,2.97,127.0,3.76,low
311,Annapolis (Naval Academy),38.983,-76.48,USA,north-america,United States,16.39,11.0,24431214.0,313085381.0,4.93,1929.0,3.57,127.0,3.76,low
332,Eastport,44.903,-66.982,USA,north-america,United States,16.39,11.0,24431214.0,313085381.0,2.83,1930.0,2.14,127.0,3.76,low
351,Newport,41.505,-71.327,USA,north-america,United States,16.39,11.0,24431214.0,313085381.0,3.8,1931.0,2.71,127.0,3.76,low
360,Washington Dc,38.87300000000001,-77.02199999999998,USA,north-america,United States,16.39,11.0,24431214.0,313085381.0,4.48,1931.0,3.15,127.0,3.76,low
366,Sandy Hook,40.467,-74.008,USA,north-america,United States,16.39,11.0,24431214.0,313085381.0,5.62,1933.0,4.05,127.0,3.76,low
367,Woods Hole (Ocean. Inst.),41.523,-70.672,USA,north-america,United States,16.39,11.0,24431214.0,313085381.0,4.24,1933.0,2.78,127.0,3.76,low
377,Santa Monica (Municipal Pier),34.008,-118.5,USA,north-america,United States,16.39,11.0,24431214.0,313085381.0,2.47,1933.0,1.53,127.0,3.76,low
378,Crescent City,41.745,-124.182,USA,north-america,United States,16.39,11.0,24431214.0,313085381.0,-0.71,1933.0,-0.78,127.0,3.76,low
384,Friday Harbor (Ocean. Labs.),48.547,-123.01,USA,north-america,United States,16.39,11.0,24431214.0,313085381.0,2.12,1934.0,1.12,127.0,3.76,low
385,Neah Bay,48.367,-124.612,USA,north-america,United States,16.39,11.0,24431214.0,313085381.0,-1.2,1935.0,-1.73,127.0,3.76,low
395,Fort Pulaski,32.033,-80.902,USA,north-america,United States,16.39,11.0,24431214.0,313085381.0,3.98,1935.0,3.13,127.0,3.76,low
396,Wilmington,34.227,-77.953,USA,north-america,United States,16.39,11.0,24431214.0,313085381.0,3.2,1936.0,2.17,127.0,3.76,low
405,Juneau,58.298,-134.412,USA,north-america,United States,16.39,11.0,24431214.0,313085381.0,-14.41,1936.0,-13.19,127.0,3.76,low
412,Solomon'S Island (Biol. Lab.),38.317,-76.452,USA,north-america,United States,16.39,11.0,24431214.0,313085381.0,5.46,1938.0,3.68,127.0,3.76,low
426,Sitka,57.052,-135.342,USA,north-america,United States,16.39,11.0,24431214.0,313085381.0,-2.47,1938.0,-2.31,127.0,3.76,low
428,Cedar Key Ii,29.135,-83.03200000000002,USA,north-america,United States,16.39,11.0,24431214.0,313085381.0,,1939.0,1.89,127.0,3.76,low
429,New London,41.36,-72.09,USA,north-america,United States,16.39,11.0,24431214.0,313085381.0,4.46,1939.0,2.53,127.0,3.76,low
430,Providence (State Pier),41.807,-71.4,USA,north-america,United States,16.39,11.0,24431214.0,313085381.0,3.76,1939.0,2.17,127.0,3.76,low
437,Alameda (Naval Air Station),37.772,-122.298,USA,north-america,United States,16.39,11.0,24431214.0,313085381.0,0.93,1940.0,0.69,127.0,3.76,low
445,Yakutat,59.548,-139.733,USA,north-america,United States,16.39,11.0,24431214.0,313085381.0,-13.28,1940.0,-8.16,127.0,3.76,low
487,Adak Sweeper Cove,51.863,-176.632,USA,north-america,United States,16.39,11.0,24431214.0,313085381.0,,,,127.0,3.76,low
495,Skagway,59.45,-135.327,USA,north-america,United States,16.39,11.0,24431214.0,313085381.0,-20.45,1945.0,-17.62,127.0,3.76,low
497,Port Isabel,26.06,-97.215,USA,north-america,United States,16.39,11.0,24431214.0,313085381.0,5.54,1945.0,3.89,127.0,3.76,low
508,Port San Luis,35.177,-120.76,USA,north-america,United States,16.39,11.0,24431214.0,313085381.0,1.22,1946.0,0.86,127.0,3.76,low
519,Montauk,41.048,-71.96,USA,north-america,United States,16.39,11.0,24431214.0,313085381.0,5.09,1948.0,3.2,127.0,3.76,low
520,St. Petersburg,27.76,-82.62700000000002,USA,north-america,United States,16.39,11.0,24431214.0,313085381.0,3.31,1947.0,2.68,127.0,3.76,low
521,"Kahului Harbor, Maui Island",20.895,-156.477,USA,north-america,United States,16.39,11.0,24431214.0,313085381.0,1.52,1951.0,1.9,127.0,3.76,low
523,Midway Island,28.212,-177.36,USA,north-america,United States,16.39,11.0,24431214.0,313085381.0,3.65,1947.0,1.24,127.0,3.76,low
525,"Bar Harbor, Frenchman Bay, Me",44.392,-68.205,USA,north-america,United States,16.39,11.0,24431214.0,313085381.0,2.76,1948.0,2.15,127.0,3.76,low
526,Grand Isle,29.263,-89.95700000000002,USA,north-america,United States,16.39,11.0,24431214.0,313085381.0,7.6,1947.0,8.89,127.0,3.76,low
538,Rockport,28.022,-97.047,USA,north-america,United States,16.39,11.0,24431214.0,313085381.0,8.3,1948.0,5.5,127.0,3.76,low
566,Cordova,60.558,-145.752,USA,north-america,United States,16.39,11.0,24431214.0,313085381.0,0.95,1965.0,4.17,127.0,3.76,low
567,"Kodiak Island, Womens Bay",57.732,-152.512,USA,north-america,United States,16.39,11.0,24431214.0,313085381.0,-9.37,1985.0,-9.37,127.0,3.76,low
636,Kiptopeke Beach,37.165,-75.988,USA,north-america,United States,16.39,11.0,24431214.0,313085381.0,4.25,1952.0,3.57,127.0,3.76,low
756,"Nawiliwili Bay, Kauai Island",21.953000000000007,-159.355,USA,north-america,United States,16.39,11.0,24431214.0,313085381.0,1.44,1955.0,1.45,127.0,3.76,low
757,Unalaska,53.88,-166.537,USA,north-america,United States,16.39,11.0,24431214.0,313085381.0,-2.5,1956.0,-4.92,127.0,3.76,low
786,Reedy Point,39.558,-75.57300000000002,USA,north-america,United States,16.39,11.0,24431214.0,313085381.0,4.03,1985.0,4.03,127.0,3.76,low
823,Mokuoloe Island,21.432,-157.79,USA,north-america,United States,16.39,11.0,24431214.0,313085381.0,1.33,1958.0,1.17,127.0,3.76,low
828,"Galveston I, Pleasure Pier, Tx",29.285,-94.788,USA,north-america,United States,16.39,11.0,24431214.0,313085381.0,4.64,1958.0,6.62,127.0,3.76,low
1067,Anchorage,61.238,-149.89,USA,north-america,United States,16.39,11.0,24431214.0,313085381.0,,,,127.0,3.76,low
1068,Bridgeport,41.173,-73.182,USA,north-america,United States,16.39,11.0,24431214.0,313085381.0,3.7,1965.0,2.91,127.0,3.76,low
1070,Seldovia,59.44,-151.72,USA,north-america,United States,16.39,11.0,24431214.0,313085381.0,-8.89,1966.0,-9.55,127.0,3.76,low
1106,Fort Myers,26.647,-81.87,USA,north-america,United States,16.39,11.0,24431214.0,313085381.0,3.85,1966.0,2.83,127.0,3.76,low
1107,Naples,26.132,-81.807,USA,north-america,United States,16.39,11.0,24431214.0,313085381.0,3.88,1966.0,2.66,127.0,3.76,low
1111,Nantucket Island,41.285,-70.097,USA,north-america,United States,16.39,11.0,24431214.0,313085381.0,4.32,1965.0,3.49,127.0,3.76,low
1153,Cape May,38.968,-74.96,USA,north-america,United States,16.39,11.0,24431214.0,313085381.0,5.77,1966.0,4.46,127.0,3.76,low
1156,Dauphin Island,30.25,-88.075,USA,north-america,United States,16.39,11.0,24431214.0,313085381.0,,1971.0,3.01,127.0,3.76,low
1193,Apalachicola,29.727,-84.98200000000001,USA,north-america,United States,16.39,11.0,24431214.0,313085381.0,3.2,1968.0,2.0,127.0,3.76,low
1269,Charleston Ii,43.345,-124.322,USA,north-america,United States,16.39,11.0,24431214.0,313085381.0,1.79,1971.0,0.99,127.0,3.76,low
1295,Cambridge Ii,38.573,-76.068,USA,north-america,United States,16.39,11.0,24431214.0,313085381.0,5.05,1971.0,3.8,127.0,3.76,low
1325,Port Townsend,48.112,-122.757,USA,north-america,United States,16.39,11.0,24431214.0,313085381.0,2.65,1972.0,1.83,127.0,3.76,low
1352,Monterey,36.605,-121.887,USA,north-america,United States,16.39,11.0,24431214.0,313085381.0,1.45,1974.0,1.41,127.0,3.76,low
1353,Valdez,61.125,-146.362,USA,north-america,United States,16.39,11.0,24431214.0,313085381.0,-7.33,1975.0,-4.65,127.0,3.76,low
1354,"Toke Point, Willipa Bay, Wa",46.707,-123.967,USA,north-america,United States,16.39,11.0,24431214.0,313085381.0,0.7,1979.0,-0.49,127.0,3.76,low
1394,Point Reyes,37.995,-122.977,USA,north-america,United States,16.39,11.0,24431214.0,313085381.0,2.2,1975.0,2.03,127.0,3.76,low
1444,Springmaid Pier,33.655,-78.918,USA,north-america,United States,16.39,11.0,24431214.0,313085381.0,1.52,1978.0,2.87,127.0,3.76,low
1633,Cherry Point,48.863,-122.757,USA,north-america,United States,16.39,11.0,24431214.0,313085381.0,0.74,1985.0,0.74,127.0,3.76,low
1634,"Sand Point, Popof Is., Ak",55.337,-160.502,USA,north-america,United States,16.39,11.0,24431214.0,313085381.0,1.77,1985.0,1.77,127.0,3.76,low
1635,Chesapeake Bay Br. Tun.,36.967,-76.113,USA,north-america,United States,16.39,11.0,24431214.0,313085381.0,6.05,1985.0,6.05,127.0,3.76,low
1636,Duck Pier Outside,36.183,-75.747,USA,north-america,United States,16.39,11.0,24431214.0,313085381.0,4.87,1985.0,4.87,127.0,3.76,low
1637,"Bergen Point, Staten Is.",40.637,-74.142,USA,north-america,United States,16.39,11.0,24431214.0,313085381.0,5.08,1985.0,5.08,127.0,3.76,low
1638,Clearwater Beach,27.978,-82.83200000000002,USA,north-america,United States,16.39,11.0,24431214.0,313085381.0,,,,127.0,3.76,low
1639,"N. Spit, Humboldt Bay",40.767,-124.217,USA,north-america,United States,16.39,11.0,24431214.0,313085381.0,5.39,1985.0,5.39,127.0,3.76,low
1640,Port Orford,42.738,-124.498,USA,north-america,United States,16.39,11.0,24431214.0,313085381.0,1.48,1985.0,1.48,127.0,3.76,low
1641,"Panama City, St.Andrews Bay, Fl",30.152,-85.667,USA,north-america,United States,16.39,11.0,24431214.0,313085381.0,3.22,1985.0,3.22,127.0,3.76,low
2127,"Port Angeles, Washington",48.125,-123.44,USA,north-america,United States,16.39,11.0,24431214.0,313085381.0,1.05,1976.0,0.22,127.0,3.76,low
2295,"Beaufort, North Carolina",34.72,-76.67,USA,north-america,United States,16.39,11.0,24431214.0,313085381.0,3.58,1973.0,3.36,127.0,3.76,low
14,Helsinki,60.154,24.956,FIN,europe,Finland,8.51,41.0,260454.0,5384770.0,-2.58,1879.0,-2.31,160.0,2.21,very low
57,Vaasa / Vasa,63.082,21.571,FIN,europe,Finland,8.51,41.0,260454.0,5384770.0,-7.04,1884.0,-7.3,160.0,2.21,very low
71,Hanko / Hango,59.823,22.977,FIN,europe,Finland,8.51,41.0,260454.0,5384770.0,-3.85,1889.0,-2.68,160.0,2.21,very low
79,Oulu / Uleaborg,65.04,25.418000000000006,FIN,europe,Finland,8.51,41.0,260454.0,5384770.0,-6.22,1889.0,-6.37,160.0,2.21,very low
172,Mantyluoto,61.594,21.463,FIN,europe,Finland,8.51,41.0,260454.0,5384770.0,-5.14,1911.0,-5.9,160.0,2.21,very low
194,Pietarsaari / Jakobstad,63.709,22.69,FIN,europe,Finland,8.51,41.0,260454.0,5384770.0,-6.86,1915.0,-7.23,160.0,2.21,very low
229,Kemi,65.673,24.515,FIN,europe,Finland,8.51,41.0,260454.0,5384770.0,-5.74,1920.0,-6.92,160.0,2.21,very low
239,Turku / Abo,60.428,22.101,FIN,europe,Finland,8.51,41.0,260454.0,5384770.0,-4.24,1922.0,-3.66,160.0,2.21,very low
240,Raahe / Brahestad,64.666,24.407,FIN,europe,Finland,8.51,41.0,260454.0,5384770.0,-7.36,1923.0,-6.83,160.0,2.21,very low
285,Kaskinen / Kasko,62.344,21.215,FIN,europe,Finland,8.51,41.0,260454.0,5384770.0,-6.44,1927.0,-6.45,160.0,2.21,very low
315,Hamina,60.563,27.179,FIN,europe,Finland,8.51,41.0,260454.0,5384770.0,-1.63,1929.0,-0.95,160.0,2.21,very low
376,Rauma / Raumo,61.13399999999999,21.426,FIN,europe,Finland,8.51,41.0,260454.0,5384770.0,-5.07,1933.0,-4.62,160.0,2.21,very low
33,Oscarsborg,59.678,10.605,NOR,europe,Norway,11.74,25.0,294257.0,4924848.0,-1.89,1954.0,-1.81,161.0,2.19,very low
45,Kabelvag,68.21300000000001,14.482,NOR,europe,Norway,11.74,25.0,294257.0,4924848.0,-0.62,1948.0,-0.89,161.0,2.19,very low
47,Stavanger,58.974,5.73,NOR,europe,Norway,11.74,25.0,294257.0,4924848.0,0.97,1919.0,0.37,161.0,2.19,very low
58,Bergen,60.398,5.32,NOR,europe,Norway,11.74,25.0,294257.0,4924848.0,1.16,1916.0,-0.04,161.0,2.19,very low
62,Oslo,59.909,10.735,NOR,europe,Norway,11.74,25.0,294257.0,4924848.0,-1.01,1886.0,-2.91,161.0,2.19,very low
302,Tregde,58.006,7.555,NOR,europe,Norway,11.74,25.0,294257.0,4924848.0,1.28,1928.0,0.26,161.0,2.19,very low
312,Narvik,68.428,17.426,NOR,europe,Norway,11.74,25.0,294257.0,4924848.0,-1.27,1932.0,-2.49,161.0,2.19,very low
313,Heimsjo,63.425,9.102,NOR,europe,Norway,11.74,25.0,294257.0,4924848.0,-0.04,1928.0,-1.36,161.0,2.19,very low
425,Andenes,69.32600000000001,16.135,NOR,europe,Norway,11.74,25.0,294257.0,4924848.0,-0.68,1982.0,-3.07,161.0,2.19,very low
486,Maloy,61.934,5.113,NOR,europe,Norway,11.74,25.0,294257.0,4924848.0,1.56,1944.0,0.71,161.0,2.19,very low
509,Alesund,62.469,6.152,NOR,europe,Norway,11.74,25.0,294257.0,4924848.0,0.45,1945.0,0.73,161.0,2.19,very low
524,Vardo,70.375,31.104,NOR,europe,Norway,11.74,25.0,294257.0,4924848.0,0.22,1984.0,0.48,161.0,2.19,very low
562,Bodo,67.288,14.390999999999998,NOR,europe,Norway,11.74,25.0,294257.0,4924848.0,0.48,1950.0,-1.26,161.0,2.19,very low
680,Tromso,69.64699999999999,18.961,NOR,europe,Norway,11.74,25.0,294257.0,4924848.0,0.68,1953.0,0.07,161.0,2.19,very low
681,Harstad,68.801,16.548,NOR,europe,Norway,11.74,25.0,294257.0,4924848.0,0.22,1953.0,-0.77,161.0,2.19,very low
682,Kristiansund,63.114,7.734,NOR,europe,Norway,11.74,25.0,294257.0,4924848.0,0.44,1953.0,-0.74,161.0,2.19,very low
758,Hammerfest,70.665,23.683000000000003,NOR,europe,Norway,11.74,25.0,294257.0,4924848.0,1.06,1957.0,0.87,161.0,2.19,very low
1113,Helgeroa,58.995,9.856,NOR,europe,Norway,11.74,25.0,294257.0,4924848.0,-0.7,1984.0,-0.51,161.0,2.19,very low
1241,Rorvik,64.859,11.23,NOR,europe,Norway,11.74,25.0,294257.0,4924848.0,-0.99,1970.0,-0.79,161.0,2.19,very low
41,Poti,42.167,41.683,GEO,asia,Georgia,1.99,147.0,176485.0,4329026.0,8.65,1874.0,6.75,88.0,6.27,middle
51,Batumi,41.633,41.7,GEO,asia,Georgia,1.99,147.0,176485.0,4329026.0,,,,88.0,6.27,middle
69,Olands Norra Udde,57.36600000000001,17.097,SWE,europe,Sweden,4.62,98.0,678429.0,9440747.0,-1.09,1887.0,-1.09,162.0,2.12,very low
70,Kungsholmsfort,56.105,15.589,SWE,europe,Sweden,4.62,98.0,678429.0,9440747.0,0.23,1887.0,0.03,162.0,2.12,very low
78,Stockholm,59.324,18.082,SWE,europe,Sweden,4.62,98.0,678429.0,9440747.0,-2.9,1889.0,-3.78,162.0,2.12,very low
88,Ratan,63.986,20.895,SWE,europe,Sweden,4.62,98.0,678429.0,9440747.0,-7.23,1892.0,-7.72,162.0,2.12,very low
179,Smogen,58.354,11.218,SWE,europe,Sweden,4.62,98.0,678429.0,9440747.0,0.2,1911.0,-1.79,162.0,2.12,very low
203,Furuogrund,64.916,21.231,SWE,europe,Sweden,4.62,98.0,678429.0,9440747.0,-5.78,1916.0,-7.98,162.0,2.12,very low
330,Klagshamn,55.522,12.894,SWE,europe,Sweden,4.62,98.0,678429.0,9440747.0,0.38,1930.0,0.53,162.0,2.12,very low
1211,Spikarna,62.363,17.531,SWE,europe,Sweden,4.62,98.0,678429.0,9440747.0,-5.9,1969.0,-6.13,162.0,2.12,very low
1236,Goteborg - Torshamnen,57.685,11.791,SWE,europe,Sweden,4.62,98.0,678429.0,9440747.0,0.57,1969.0,0.48,162.0,2.12,very low
2101,Kalix,65.697,23.096,SWE,europe,Sweden,4.62,98.0,678429.0,9440747.0,-5.22,1975.0,-5.61,162.0,2.12,very low
2103,Forsmark,60.409,18.211,SWE,europe,Sweden,4.62,98.0,678429.0,9440747.0,-4.52,1976.0,-4.28,162.0,2.12,very low
2104,Marviken,58.554,16.837,SWE,europe,Sweden,4.62,98.0,678429.0,9440747.0,-2.37,1965.0,-1.98,162.0,2.12,very low
2105,Visby,57.639,18.284,SWE,europe,Sweden,4.62,98.0,678429.0,9440747.0,-1.13,1916.0,-1.13,162.0,2.12,very low
2106,Oskarshamn,57.275,16.477999999999998,SWE,europe,Sweden,4.62,98.0,678429.0,9440747.0,-0.32,1961.0,-0.4,162.0,2.12,very low
2107,Simrishamn,55.558,14.358,SWE,europe,Sweden,4.62,98.0,678429.0,9440747.0,0.68,1983.0,0.48,162.0,2.12,very low
2110,Viken,56.142,12.579,SWE,europe,Sweden,4.62,98.0,678429.0,9440747.0,0.96,1977.0,1.11,162.0,2.12,very low
2111,Ringhals,57.25,12.113,SWE,europe,Sweden,4.62,98.0,678429.0,9440747.0,-0.19,1968.0,0.26,162.0,2.12,very low
2112,Stenungsund,58.093,11.833,SWE,europe,Sweden,4.62,98.0,678429.0,9440747.0,-1.16,1966.0,-0.86,162.0,2.12,very low
2113,Kungsvik,58.997,11.127,SWE,europe,Sweden,4.62,98.0,678429.0,9440747.0,-1.18,1974.0,-1.32,162.0,2.12,very low
76,Aarhus,56.147,10.224,DNK,europe,Denmark,6.78,63.0,1492575.0,5572594.0,2.63,1889.0,0.61,149.0,2.89,very low
80,Esbjerg,55.46100000000001,8.441,DNK,europe,Denmark,6.78,63.0,1492575.0,5572594.0,2.68,1889.0,1.24,149.0,2.89,very low
81,Fredericia,55.56100000000001,9.754,DNK,europe,Denmark,6.78,63.0,1492575.0,5572594.0,2.01,1890.0,1.09,149.0,2.89,very low
82,Kobenhavn,55.705,12.6,DNK,europe,Denmark,6.78,63.0,1492575.0,5572594.0,1.81,1889.0,0.55,149.0,2.89,very low
89,Hirtshals,57.596,9.964,DNK,europe,Denmark,6.78,63.0,1492575.0,5572594.0,-0.21,1892.0,-0.22,149.0,2.89,very low
91,Frederikshavn,57.43600000000001,10.549,DNK,europe,Denmark,6.78,63.0,1492575.0,5572594.0,-0.98,1894.0,0.1,149.0,2.89,very low
98,Slipshavn,55.288,10.828,DNK,europe,Denmark,6.78,63.0,1492575.0,5572594.0,2.14,1896.0,1.04,149.0,2.89,very low
113,Korsor,55.332,11.142,DNK,europe,Denmark,6.78,63.0,1492575.0,5572594.0,1.92,1897.0,0.84,149.0,2.89,very low
119,Hornbaek,56.091,12.458,DNK,europe,Denmark,6.78,63.0,1492575.0,5572594.0,2.67,1891.0,0.4,149.0,2.89,very low
120,Gedser,54.573,11.925999999999998,DNK,europe,Denmark,6.78,63.0,1492575.0,5572594.0,2.39,1892.0,1.19,149.0,2.89,very low
703,Hanstholm,57.119,8.596,DNK,europe,Denmark,6.78,63.0,1492575.0,5572594.0,2.61,1953.0,2.01,149.0,2.89,very low
762,Rodbyhavn,54.65600000000001,11.349,DNK,europe,Denmark,6.78,63.0,1492575.0,5572594.0,1.16,1955.0,1.48,149.0,2.89,very low
1197,Fynshav,54.995,9.987,DNK,europe,Denmark,6.78,63.0,1492575.0,5572594.0,1.78,1968.0,2.27,149.0,2.89,very low
96,Halifax,44.667,-63.583,CAN,north-america,Canada,13.53,20.0,1300770.0,34349561.0,,1896.0,3.05,145.0,3.01,very low
126,Trois-Rivieres,46.333,-72.55,CAN,north-america,Canada,13.53,20.0,1300770.0,34349561.0,-7.87,1925.0,-1.17,145.0,3.01,very low
137,Port-Saint-Francois,46.267,-72.617,CAN,north-america,Canada,13.53,20.0,1300770.0,34349561.0,,1964.0,4.66,145.0,3.01,very low
144,Batiscan,46.5,-72.25,CAN,north-america,Canada,13.53,20.0,1300770.0,34349561.0,-4.14,1961.0,-1.34,145.0,3.01,very low
165,Tofino,49.15,-125.917,CAN,north-america,Canada,13.53,20.0,1300770.0,34349561.0,0.66,1910.0,-1.27,145.0,3.01,very low
166,Victoria,48.417,-123.367,CAN,north-america,Canada,13.53,20.0,1300770.0,34349561.0,1.72,1910.0,0.73,145.0,3.01,very low
167,Prince Rupert,54.317,-130.333,CAN,north-america,Canada,13.53,20.0,1300770.0,34349561.0,2.04,1909.0,1.19,145.0,3.01,very low
173,Quebec (Lauzon),46.833,-71.167,CAN,north-america,Canada,13.53,20.0,1300770.0,34349561.0,1.29,1911.0,0.1,145.0,3.01,very low
175,Vancouver,49.283,-123.117,CAN,north-america,Canada,13.53,20.0,1300770.0,34349561.0,,,,145.0,3.01,very low
192,Neuville,46.7,-71.567,CAN,north-america,Canada,13.53,20.0,1300770.0,34349561.0,0.67,1961.0,-0.05,145.0,3.01,very low
193,Point Atkinson,49.333,-123.25,CAN,north-america,Canada,13.53,20.0,1300770.0,34349561.0,2.25,1915.0,1.02,145.0,3.01,very low
195,"Saint John, N.B.",45.267,-66.067,CAN,north-america,Canada,13.53,20.0,1300770.0,34349561.0,2.0,1929.0,2.26,145.0,3.01,very low
201,Deschaillons,46.567,-72.1,CAN,north-america,Canada,13.53,20.0,1300770.0,34349561.0,-2.14,1960.0,-0.93,145.0,3.01,very low
392,Port Aux Basques,47.567,-59.133,CAN,north-america,Canada,13.53,20.0,1300770.0,34349561.0,3.31,1959.0,2.68,145.0,3.01,very low
393,"St. John'S, Nfld.",47.567,-52.717,CAN,north-america,Canada,13.53,20.0,1300770.0,34349561.0,1.84,1957.0,1.84,145.0,3.01,very low
427,Charlottetown,46.233,-63.117,CAN,north-america,Canada,13.53,20.0,1300770.0,34349561.0,3.81,1938.0,3.08,145.0,3.01,very low
447,Churchill,58.767,-94.183,CAN,north-america,Canada,13.53,20.0,1300770.0,34349561.0,-7.16,1940.0,-8.99,145.0,3.01,very low
829,Queen Charlotte City,53.25,-132.067,CAN,north-america,Canada,13.53,20.0,1300770.0,34349561.0,1.66,1966.0,0.09,145.0,3.01,very low
984,Bella Bella,52.167,-128.13299999999998,CAN,north-america,Canada,13.53,20.0,1300770.0,34349561.0,0.91,1962.0,-0.02,145.0,3.01,very low
999,St-Francois,47.0,-70.817,CAN,north-america,Canada,13.53,20.0,1300770.0,34349561.0,1.82,1963.0,0.25,145.0,3.01,very low
1071,Port Hardy,50.717,-127.483,CAN,north-america,Canada,13.53,20.0,1300770.0,34349561.0,0.43,1965.0,-0.54,145.0,3.01,very low
1152,Patricia Bay,48.65,-123.45,CAN,north-america,Canada,13.53,20.0,1300770.0,34349561.0,1.92,1977.0,0.81,145.0,3.01,very low
1158,Yarmouth,43.833,-66.133,CAN,north-america,Canada,13.53,20.0,1300770.0,34349561.0,4.24,1967.0,3.53,145.0,3.01,very low
1213,Riviere-Au-Renard,49.0,-64.383,CAN,north-america,Canada,13.53,20.0,1300770.0,34349561.0,2.16,1969.0,0.57,145.0,3.01,very low
1242,Bamfield,48.85,-125.133,CAN,north-america,Canada,13.53,20.0,1300770.0,34349561.0,0.22,1971.0,-0.08,145.0,3.01,very low
1244,St-Joseph-De-La-Rive,47.45,-70.367,CAN,north-america,Canada,13.53,20.0,1300770.0,34349561.0,0.99,1980.0,-0.91,145.0,3.01,very low
1245,New Westminster,49.2,-122.917,CAN,north-america,Canada,13.53,20.0,1300770.0,34349561.0,3.62,1970.0,-0.91,145.0,3.01,very low
1299,North Sydney,46.217,-60.25,CAN,north-america,Canada,13.53,20.0,1300770.0,34349561.0,4.21,1970.0,3.44,145.0,3.01,very low
1321,Argentia,47.3,-53.983,CAN,north-america,Canada,13.53,20.0,1300770.0,34349561.0,2.5,1972.0,2.3,145.0,3.01,very low
1322,Sept-Iles,50.2,-66.4,CAN,north-america,Canada,13.53,20.0,1300770.0,34349561.0,0.01,1981.0,0.27,145.0,3.01,very low
1323,Campbell River,50.017,-125.233,CAN,north-america,Canada,13.53,20.0,1300770.0,34349561.0,-0.36,1967.0,-1.7,145.0,3.01,very low
1349,Lower Escuminac,47.083,-64.883,CAN,north-america,Canada,13.53,20.0,1300770.0,34349561.0,4.17,1973.0,2.81,145.0,3.01,very low
1392,Port-Alfred,48.333,-70.867,CAN,north-america,Canada,13.53,20.0,1300770.0,34349561.0,,,,145.0,3.01,very low
1597,Rimouski,48.483,-68.517,CAN,north-america,Canada,13.53,20.0,1300770.0,34349561.0,0.41,1985.0,0.41,145.0,3.01,very low
111,Fremantle,-32.066,115.748,AUS,oceania,Australia,16.35,12.0,2662710.0,22605732.0,4.77,1897.0,1.7,121.0,4.22,low
189,Port Hedland,-20.318,118.574,AUS,oceania,Australia,16.35,12.0,2662710.0,22605732.0,4.76,1966.0,2.28,121.0,4.22,low
196,"Sydney, Fort Denison 2",-33.855,151.226,AUS,oceania,Australia,16.35,12.0,2662710.0,22605732.0,1.61,1915.0,0.96,121.0,4.22,low
216,Port Pirie,-33.178000000000004,138.012,AUS,oceania,Australia,16.35,12.0,2662710.0,22605732.0,3.93,1941.0,1.15,121.0,4.22,low
230,Port Lincoln,-34.716,135.87,AUS,oceania,Australia,16.35,12.0,2662710.0,22605732.0,2.62,1966.0,1.89,121.0,4.22,low
448,Port Adelaide (Outer Harbor),-34.78,138.481,AUS,oceania,Australia,16.35,12.0,2662710.0,22605732.0,3.59,1941.0,2.36,121.0,4.22,low
564,Mackay,-21.1,149.233,AUS,oceania,Australia,16.35,12.0,2662710.0,22605732.0,3.47,1966.0,2.17,121.0,4.22,low
637,Townsville I,-19.25,146.833,AUS,oceania,Australia,16.35,12.0,2662710.0,22605732.0,3.5,1959.0,1.94,121.0,4.22,low
822,Brisbane (West Inner Bar),-27.367,153.167,AUS,oceania,Australia,16.35,12.0,2662710.0,22605732.0,3.27,1966.0,0.64,121.0,4.22,low
825,Gladstone,-23.854,151.314,AUS,oceania,Australia,16.35,12.0,2662710.0,22605732.0,3.89,1978.0,3.11,121.0,4.22,low
834,Bunbury,-33.323,115.66,AUS,oceania,Australia,16.35,12.0,2662710.0,22605732.0,3.03,1958.0,1.68,121.0,4.22,low
835,Karumba,-17.5,140.833,AUS,oceania,Australia,16.35,12.0,2662710.0,22605732.0,3.51,1985.0,3.51,121.0,4.22,low
837,Newcastle V,-32.924,151.789,AUS,oceania,Australia,16.35,12.0,2662710.0,22605732.0,2.3,1966.0,1.42,121.0,4.22,low
953,Cairns,-16.917,145.783,AUS,oceania,Australia,16.35,12.0,2662710.0,22605732.0,,,,121.0,4.22,low
1069,Victor Harbour,-35.562,138.635,AUS,oceania,Australia,16.35,12.0,2662710.0,22605732.0,2.13,1966.0,1.1,121.0,4.22,low
1115,Carnarvon,-24.899,113.651,AUS,oceania,Australia,16.35,12.0,2662710.0,22605732.0,3.62,1967.0,2.31,121.0,4.22,low
1116,Wyndham,-15.453,128.101,AUS,oceania,Australia,16.35,12.0,2662710.0,22605732.0,5.48,1985.0,5.48,121.0,4.22,low
1154,"Bundaberg, Burnett Heads",-24.767,152.38299999999995,AUS,oceania,Australia,16.35,12.0,2662710.0,22605732.0,3.36,1966.0,1.55,121.0,4.22,low
1157,Weipa,-12.667,141.86700000000005,AUS,oceania,Australia,16.35,12.0,2662710.0,22605732.0,3.47,1966.0,3.46,121.0,4.22,low
1246,Hay Point,-21.283,149.3,AUS,oceania,Australia,16.35,12.0,2662710.0,22605732.0,3.71,1985.0,3.71,121.0,4.22,low
1328,Cape Lambert,-20.588,117.186,AUS,oceania,Australia,16.35,12.0,2662710.0,22605732.0,4.47,1984.0,4.04,121.0,4.22,low
1420,Wallaroo Ii,-33.926,137.615,AUS,oceania,Australia,16.35,12.0,2662710.0,22605732.0,1.67,1983.0,0.49,121.0,4.22,low
1549,King Bay,-20.624,116.749,AUS,oceania,Australia,16.35,12.0,2662710.0,22605732.0,3.89,1983.0,4.71,121.0,4.22,low
1629,Mourilyan Harbour,-17.583,146.083,AUS,oceania,Australia,16.35,12.0,2662710.0,22605732.0,4.16,1985.0,4.16,121.0,4.22,low
1630,Lucinda,-18.517,146.38299999999995,AUS,oceania,Australia,16.35,12.0,2662710.0,22605732.0,3.97,1986.0,3.74,121.0,4.22,low
1631,Onslow,-21.65,115.132,AUS,oceania,Australia,16.35,12.0,2662710.0,22605732.0,4.9,1986.0,4.99,121.0,4.22,low
2316,Port Stephens (Tomaree),-32.715,152.18200000000004,AUS,oceania,Australia,16.35,12.0,2662710.0,22605732.0,2.63,1986.0,2.98,121.0,4.22,low
118,Klaipeda,55.7,21.133000000000006,LTU,europe,Lithuania,4.27,104.0,164111.0,3307481.0,3.5,1898.0,1.48,148.0,2.92,very low
130,Aburatsubo,35.16,139.615,JPN,asia,Japan,9.76,31.0,29241996.0,126497241.0,5.47,1930.0,3.64,17.0,12.99,very high
131,Ayukawa,38.297,141.505,JPN,asia,Japan,9.76,31.0,29241996.0,126497241.0,7.18,1959.0,5.26,17.0,12.99,very high
132,Wajima,37.406,136.9,JPN,asia,Japan,9.76,31.0,29241996.0,126497241.0,2.58,1930.0,-0.1,17.0,12.99,very high
133,Hosojima,32.429,131.66899999999998,JPN,asia,Japan,9.76,31.0,29241996.0,126497241.0,2.32,1930.0,-0.13,17.0,12.99,very high
134,Kushimoto,33.476,135.773,JPN,asia,Japan,9.76,31.0,29241996.0,126497241.0,7.04,1958.0,3.77,17.0,12.99,very high
359,Mera,34.919000000000004,139.825,JPN,asia,Japan,9.76,31.0,29241996.0,126497241.0,,,,17.0,12.99,very high
407,Uchiura,35.017,138.89,JPN,asia,Japan,9.76,31.0,29241996.0,126497241.0,3.24,1944.0,-0.28,17.0,12.99,very high
518,Kushiro,42.976000000000006,144.371,JPN,asia,Japan,9.76,31.0,29241996.0,126497241.0,7.7,1947.0,8.88,17.0,12.99,very high
635,Onahama,36.938,140.892,JPN,asia,Japan,9.76,31.0,29241996.0,126497241.0,,,,17.0,12.99,very high
701,Kainan,34.144,135.191,JPN,asia,Japan,9.76,31.0,29241996.0,126497241.0,0.06,1953.0,-1.55,17.0,12.99,very high
721,Asamushi,40.898,140.859,JPN,asia,Japan,9.76,31.0,29241996.0,126497241.0,0.44,1955.0,0.93,17.0,12.99,very high
722,Yokosuka,35.28800000000001,139.651,JPN,asia,Japan,9.76,31.0,29241996.0,126497241.0,5.64,1957.0,4.9,17.0,12.99,very high
752,Nezugaseki,38.563,139.546,JPN,asia,Japan,9.76,31.0,29241996.0,126497241.0,,,,17.0,12.99,very high
753,Kashiwazaki,37.357,138.50799999999998,JPN,asia,Japan,9.76,31.0,29241996.0,126497241.0,3.17,1956.0,1.15,17.0,12.99,very high
808,Shimizu-Minato,35.012,138.518,JPN,asia,Japan,9.76,31.0,29241996.0,126497241.0,7.68,1958.0,5.73,17.0,12.99,very high
809,Komatsushima,34.009,134.588,JPN,asia,Japan,9.76,31.0,29241996.0,126497241.0,3.45,1958.0,2.19,17.0,12.99,very high
810,Misumi,32.623000000000005,130.451,JPN,asia,Japan,9.76,31.0,29241996.0,126497241.0,5.06,1957.0,2.46,17.0,12.99,very high
811,Sakai,35.548,133.243,JPN,asia,Japan,9.76,31.0,29241996.0,126497241.0,5.2,1958.0,2.33,17.0,12.99,very high
812,Uno,34.489000000000004,133.94899999999998,JPN,asia,Japan,9.76,31.0,29241996.0,126497241.0,4.89,1958.0,5.06,17.0,12.99,very high
813,Hakodate I,41.782,140.725,JPN,asia,Japan,9.76,31.0,29241996.0,126497241.0,-2.24,1961.0,-0.79,17.0,12.99,very high
814,Aburatsu,31.577,131.409,JPN,asia,Japan,9.76,31.0,29241996.0,126497241.0,4.18,1960.0,2.06,17.0,12.99,very high
815,Tosa Shimizu,32.779,132.959,JPN,asia,Japan,9.76,31.0,29241996.0,126497241.0,4.69,1958.0,1.62,17.0,12.99,very high
816,Wakayama,34.222,135.14600000000002,JPN,asia,Japan,9.76,31.0,29241996.0,126497241.0,0.62,1958.0,-0.39,17.0,12.99,very high
817,Tan-Nowa,34.339,135.178,JPN,asia,Japan,9.76,31.0,29241996.0,126497241.0,3.66,1958.0,1.95,17.0,12.99,very high
1026,Onisaki,34.904,136.82399999999998,JPN,asia,Japan,9.76,31.0,29241996.0,126497241.0,,,,17.0,12.99,very high
1027,Oshoro Ii,43.209,140.858,JPN,asia,Japan,9.76,31.0,29241996.0,126497241.0,0.79,1963.0,0.55,17.0,12.99,very high
1028,Hirosima,34.353,132.465,JPN,asia,Japan,9.76,31.0,29241996.0,126497241.0,6.09,1964.0,4.61,17.0,12.99,very high
1060,Miyake Sima,34.067,139.481,JPN,asia,Japan,9.76,31.0,29241996.0,126497241.0,,,,17.0,12.99,very high
1062,Matsuyama Ii,33.859,132.71200000000002,JPN,asia,Japan,9.76,31.0,29241996.0,126497241.0,1.81,1964.0,0.13,17.0,12.99,very high
1089,Maisaka,34.681999999999995,137.609,JPN,asia,Japan,9.76,31.0,29241996.0,126497241.0,,,,17.0,12.99,very high
1090,Uragami,33.558,135.89600000000002,JPN,asia,Japan,9.76,31.0,29241996.0,126497241.0,4.05,1965.0,2.06,17.0,12.99,very high
1091,Okada,34.789,139.391,JPN,asia,Japan,9.76,31.0,29241996.0,126497241.0,-0.86,1965.0,-1.04,17.0,12.99,very high
1093,Awa Sima,38.468,139.255,JPN,asia,Japan,9.76,31.0,29241996.0,126497241.0,4.84,1968.0,3.74,17.0,12.99,very high
1094,Hakata,33.619,130.408,JPN,asia,Japan,9.76,31.0,29241996.0,126497241.0,3.9,1966.0,2.03,17.0,12.99,very high
1095,Saigo,36.201,133.33100000000002,JPN,asia,Japan,9.76,31.0,29241996.0,126497241.0,3.64,1965.0,1.96,17.0,12.99,very high
1096,Nisinoomote,30.735,130.99200000000002,JPN,asia,Japan,9.76,31.0,29241996.0,126497241.0,3.28,1966.0,2.29,17.0,12.99,very high
1097,Odomari,31.024,130.689,JPN,asia,Japan,9.76,31.0,29241996.0,126497241.0,3.84,1966.0,1.9,17.0,12.99,very high
1098,Sumoto,34.341,134.907,JPN,asia,Japan,9.76,31.0,29241996.0,126497241.0,4.37,1965.0,2.93,17.0,12.99,very high
1099,Osaka,34.658,135.433,JPN,asia,Japan,9.76,31.0,29241996.0,126497241.0,,,,17.0,12.99,very high
1100,Nagasaki,32.735,129.866,JPN,asia,Japan,9.76,31.0,29241996.0,126497241.0,3.7,1965.0,2.52,17.0,12.99,very high
1101,Fukue,32.696,128.849,JPN,asia,Japan,9.76,31.0,29241996.0,126497241.0,2.97,1965.0,1.38,17.0,12.99,very high
1102,Oura,32.977,130.221,JPN,asia,Japan,9.76,31.0,29241996.0,126497241.0,3.66,1965.0,2.93,17.0,12.99,very high
1103,Wakkanai,45.408,141.685,JPN,asia,Japan,9.76,31.0,29241996.0,126497241.0,3.12,1975.0,3.53,17.0,12.99,very high
1104,Abashiri,44.019,144.286,JPN,asia,Japan,9.76,31.0,29241996.0,126497241.0,2.68,1965.0,1.29,17.0,12.99,very high
1105,Nakano Sima,29.842,129.84799999999998,JPN,asia,Japan,9.76,31.0,29241996.0,126497241.0,4.07,1984.0,4.08,17.0,12.99,very high
1146,Owase,34.076,136.207,JPN,asia,Japan,9.76,31.0,29241996.0,126497241.0,-0.46,1967.0,-1.31,17.0,12.99,very high
1147,Sasebo Ii,33.158,129.724,JPN,asia,Japan,9.76,31.0,29241996.0,126497241.0,3.8,1967.0,2.07,17.0,12.99,very high
1148,Tajiri,35.594,134.316,JPN,asia,Japan,9.76,31.0,29241996.0,126497241.0,3.92,1966.0,2.93,17.0,12.99,very high
1149,Miyako Ii,39.643,141.975,JPN,asia,Japan,9.76,31.0,29241996.0,126497241.0,4.29,1967.0,3.21,17.0,12.99,very high
1150,Shirahama,33.684,135.375,JPN,asia,Japan,9.76,31.0,29241996.0,126497241.0,2.54,1967.0,0.12,17.0,12.99,very high
1151,Naha,26.213,127.665,JPN,asia,Japan,9.76,31.0,29241996.0,126497241.0,2.7,1967.0,2.13,17.0,12.99,very high
1190,Mikuni,36.255,136.149,JPN,asia,Japan,9.76,31.0,29241996.0,126497241.0,6.02,1968.0,4.09,17.0,12.99,very high
1191,Katsuura,35.129,140.249,JPN,asia,Japan,9.76,31.0,29241996.0,126497241.0,2.99,1968.0,2.24,17.0,12.99,very high
1209,Kure Iv,34.241,132.55,JPN,asia,Japan,9.76,31.0,29241996.0,126497241.0,4.69,1968.0,3.46,17.0,12.99,very high
1210,Tokuyama Ii,34.041,131.803,JPN,asia,Japan,9.76,31.0,29241996.0,126497241.0,5.19,1968.0,2.84,17.0,12.99,very high
1212,Uwajima Ii,33.227,132.55100000000002,JPN,asia,Japan,9.76,31.0,29241996.0,126497241.0,1.46,1969.0,-0.07,17.0,12.99,very high
1263,Omaezaki Ii,34.608000000000004,138.222,JPN,asia,Japan,9.76,31.0,29241996.0,126497241.0,8.81,1971.0,7.71,17.0,12.99,very high
1264,Oga,39.942,139.70600000000002,JPN,asia,Japan,9.76,31.0,29241996.0,126497241.0,-0.49,1970.0,-1.56,17.0,12.99,very high
1265,Akune,32.018,130.191,JPN,asia,Japan,9.76,31.0,29241996.0,126497241.0,2.94,1971.0,1.18,17.0,12.99,very high
1266,Hachinohe Ii,40.532,141.528,JPN,asia,Japan,9.76,31.0,29241996.0,126497241.0,4.95,1971.0,2.69,17.0,12.99,very high
1293,Oita Ii,33.266,131.687,JPN,asia,Japan,9.76,31.0,29241996.0,126497241.0,3.65,1972.0,1.43,17.0,12.99,very high
1318,Kariya,33.473,129.849,JPN,asia,Japan,9.76,31.0,29241996.0,126497241.0,3.24,1972.0,1.87,17.0,12.99,very high
1320,Kure I,33.334,133.243,JPN,asia,Japan,9.76,31.0,29241996.0,126497241.0,0.33,1973.0,-2.1,17.0,12.99,very high
1343,Ito Ii,34.896,139.13299999999998,JPN,asia,Japan,9.76,31.0,29241996.0,126497241.0,,,,17.0,12.99,very high
1344,Ogi,37.815,138.281,JPN,asia,Japan,9.76,31.0,29241996.0,126497241.0,1.28,1974.0,1.03,17.0,12.99,very high
1345,Soma,37.831,140.96200000000005,JPN,asia,Japan,9.76,31.0,29241996.0,126497241.0,5.71,1974.0,4.71,17.0,12.99,very high
1346,Kamaisi Ii,39.273,141.889,JPN,asia,Japan,9.76,31.0,29241996.0,126497241.0,,,,17.0,12.99,very high
1364,Ofunato Ii,39.02,141.753,JPN,asia,Japan,9.76,31.0,29241996.0,126497241.0,5.64,1974.0,4.71,17.0,12.99,very high
1386,Kuchinotsu,32.605,130.195,JPN,asia,Japan,9.76,31.0,29241996.0,126497241.0,3.97,1975.0,3.15,17.0,12.99,very high
1387,Maizuru Ii,35.477,135.387,JPN,asia,Japan,9.76,31.0,29241996.0,126497241.0,4.82,1975.0,4.2,17.0,12.99,very high
1388,Okinawa,26.179,127.824,JPN,asia,Japan,9.76,31.0,29241996.0,126497241.0,1.83,1976.0,1.16,17.0,12.99,very high
1389,Toyama,36.762,137.225,JPN,asia,Japan,9.76,31.0,29241996.0,126497241.0,4.49,1975.0,3.68,17.0,12.99,very high
1390,Murotomisaki,33.266,134.164,JPN,asia,Japan,9.76,31.0,29241996.0,126497241.0,9.44,1976.0,8.03,17.0,12.99,very high
1391,Chichijima,27.083,142.183,JPN,asia,Japan,9.76,31.0,29241996.0,126497241.0,2.96,1976.0,3.35,17.0,12.99,very high
1437,Tago,34.806999999999995,138.764,JPN,asia,Japan,9.76,31.0,29241996.0,126497241.0,5.66,1981.0,5.15,17.0,12.99,very high
1438,Yaizu,34.871,138.327,JPN,asia,Japan,9.76,31.0,29241996.0,126497241.0,5.56,1981.0,5.59,17.0,12.99,very high
1440,Kaminato Ii (Hatizyo Sima),33.13,139.805,JPN,asia,Japan,9.76,31.0,29241996.0,126497241.0,0.47,1981.0,2.2,17.0,12.99,very high
1442,Hanasaki Ii,43.278,145.56799999999996,JPN,asia,Japan,9.76,31.0,29241996.0,126497241.0,,,,17.0,12.99,very high
1488,Nagoya Ii,35.091,136.881,JPN,asia,Japan,9.76,31.0,29241996.0,126497241.0,-1.84,1980.0,-2.54,17.0,12.99,very high
1522,Nase Iii,28.5,129.5,JPN,asia,Japan,9.76,31.0,29241996.0,126497241.0,2.21,1981.0,2.05,17.0,12.99,very high
1544,Choshi-Gyoko,35.744,140.858,JPN,asia,Japan,9.76,31.0,29241996.0,126497241.0,4.04,1982.0,3.45,17.0,12.99,very high
1545,Tokyo Iii,35.649,139.77,JPN,asia,Japan,9.76,31.0,29241996.0,126497241.0,1.99,1983.0,1.69,17.0,12.99,very high
1567,Kochi Iii,33.499,133.569,JPN,asia,Japan,9.76,31.0,29241996.0,126497241.0,3.1,1984.0,3.25,17.0,12.99,very high
1585,Hamada Ii,34.897,132.066,JPN,asia,Japan,9.76,31.0,29241996.0,126497241.0,5.04,1985.0,5.04,17.0,12.99,very high
1586,Izuhara Ii,34.198,129.292,JPN,asia,Japan,9.76,31.0,29241996.0,126497241.0,2.96,1985.0,2.96,17.0,12.99,very high
1587,Tappi,41.243,140.381,JPN,asia,Japan,9.76,31.0,29241996.0,126497241.0,0.27,1985.0,0.27,17.0,12.99,very high
136,Dunedin Ii,-45.879,170.513,NZL,oceania,New Zealand,7.65,50.0,560959.0,4414509.0,,1958.0,1.76,116.0,4.55,low
213,Bluff (Southland Harbour),-46.598,168.345,NZL,oceania,New Zealand,7.65,50.0,560959.0,4414509.0,,,,116.0,4.55,low
221,Wellington Harbour,-41.284,174.78,NZL,oceania,New Zealand,7.65,50.0,560959.0,4414509.0,3.57,1945.0,2.65,116.0,4.55,low
787,Nelson,-41.261,173.273,NZL,oceania,New Zealand,7.65,50.0,560959.0,4414509.0,,,,116.0,4.55,low
996,Port Taranaki,-39.056,174.03400000000005,NZL,oceania,New Zealand,7.65,50.0,560959.0,4414509.0,,,,116.0,4.55,low
1065,Whangarei Harbour (Marsden Point),-35.757,174.35,NZL,oceania,New Zealand,7.65,50.0,560959.0,4414509.0,3.01,1985.0,3.01,116.0,4.55,low
1590,Tauranga (Salisbury Wharf),-37.641,176.18099999999995,NZL,oceania,New Zealand,7.65,50.0,560959.0,4414509.0,3.68,1985.0,3.68,116.0,4.55,low
1643,Port Chalmers,-45.815,170.62400000000005,NZL,oceania,New Zealand,7.65,50.0,560959.0,4414509.0,,,,116.0,4.55,low
145,"Manila, S. Harbor",14.583,120.967,PHL,asia,Philippines,1.01,181.0,14121488.0,94852030.0,,,,3.0,26.7,very high
394,Cebu,10.3,123.917,PHL,asia,Philippines,1.01,181.0,14121488.0,94852030.0,3.98,1948.0,0.98,3.0,26.7,very high
522,"Legaspi, Albay",13.15,123.75,PHL,asia,Philippines,1.01,181.0,14121488.0,94852030.0,,1949.0,5.46,3.0,26.7,very high
537,"Davao, Davao Gulf",7.082999999999998,125.633,PHL,asia,Philippines,1.01,181.0,14121488.0,94852030.0,,1949.0,2.98,3.0,26.7,very high
154,Trieste,45.647,13.758,ITA,europe,Italy,5.72,84.0,5304525.0,60788694.0,3.47,1875.0,1.29,119.0,4.42,low
163,Balboa,8.967,-79.567,PAN,north-america,Panama,2.72,135.0,306782.0,3571185.0,2.84,1908.0,1.5,65.0,7.26,high
174,Ko Lak,11.8,99.817,THA,asia,Thailand,4.49,100.0,17309591.0,69518555.0,4.64,1940.0,1.32,89.0,6.19,middle
444,Fort Phrachula Chomklao (Pom Phrachun),13.55,100.583,THA,asia,Thailand,4.49,100.0,17309591.0,69518555.0,,,,89.0,6.19,middle
446,Ko Taphao Noi,7.832999999999998,98.433,THA,asia,Thailand,4.49,100.0,17309591.0,69518555.0,6.06,1940.0,1.57,89.0,6.19,middle
205,Chennai / Madras,13.1,80.3,IND,asia,India,1.59,164.0,84941245.0,1241491960.0,,1953.0,0.48,77.0,6.64,middle
369,Calcutta (Garden Reach),22.55,88.3,IND,asia,India,1.59,164.0,84941245.0,1241491960.0,,,,77.0,6.64,middle
414,Vishakhapatnam,17.683,83.28299999999999,IND,asia,India,1.59,164.0,84941245.0,1241491960.0,,1937.0,1.0,77.0,6.64,middle
438,Cochin (Willingdon Is.),9.967,76.267,IND,asia,India,1.59,164.0,84941245.0,1241491960.0,,1939.0,1.62,77.0,6.64,middle
543,Diamond Harbour,22.2,88.167,IND,asia,India,1.59,164.0,84941245.0,1241491960.0,3.14,1948.0,4.01,77.0,6.64,middle
1161,Paradip,20.267,86.7,IND,asia,India,1.59,164.0,84941245.0,1241491960.0,,,,77.0,6.64,middle
1270,Haldia,22.033,88.1,IND,asia,India,1.59,164.0,84941245.0,1241491960.0,2.28,1971.0,2.7,77.0,6.64,middle
1395,Okha,22.467,69.083,IND,asia,India,1.59,164.0,84941245.0,1241491960.0,,1976.0,0.74,77.0,6.64,middle
215,Tuapse,44.1,39.067,RUS,europe,Russian Federation,12.47,22.0,2907303.0,142835555.0,5.48,1917.0,2.49,128.0,3.58,low
569,Tiksi (Tiksi Bukhta),71.583,128.917,RUS,europe,Russian Federation,12.47,22.0,2907303.0,142835555.0,2.87,1949.0,1.54,128.0,3.58,low
599,Amderma,69.75,61.7,RUS,europe,Russian Federation,12.47,22.0,2907303.0,142835555.0,7.11,1950.0,3.66,128.0,3.58,low
600,Ust Kara,69.25,64.517,RUS,europe,Russian Federation,12.47,22.0,2907303.0,142835555.0,,1950.0,1.81,128.0,3.58,low
601,Fedorova (Cheluskin Mys),77.717,104.3,RUS,europe,Russian Federation,12.47,22.0,2907303.0,142835555.0,,1950.0,2.62,128.0,3.58,low
602,Sannikova (Sannikova Proliv),74.667,138.9,RUS,europe,Russian Federation,12.47,22.0,2907303.0,142835555.0,2.22,1950.0,1.45,128.0,3.58,low
604,Ambarchik,69.617,162.3,RUS,europe,Russian Federation,12.47,22.0,2907303.0,142835555.0,,1950.0,2.69,128.0,3.58,low
605,Rau-Chua,69.5,166.583,RUS,europe,Russian Federation,12.47,22.0,2907303.0,142835555.0,,1950.0,0.27,128.0,3.58,low
606,Pevek,69.7,170.25,RUS,europe,Russian Federation,12.47,22.0,2907303.0,142835555.0,,1950.0,3.33,128.0,3.58,low
612,Sterlegova (Sterlegova Mys),75.417,88.9,RUS,europe,Russian Federation,12.47,22.0,2907303.0,142835555.0,,1950.0,1.42,128.0,3.58,low
640,Dunai (Dunai Ostrov),73.933,124.5,RUS,europe,Russian Federation,12.47,22.0,2907303.0,142835555.0,2.5,1951.0,2.41,128.0,3.58,low
641,Kotelnyi (Kotelnyi Ostrov),76.0,137.86700000000002,RUS,europe,Russian Federation,12.47,22.0,2907303.0,142835555.0,6.67,1951.0,4.98,128.0,3.58,low
642,Kigiliah,73.333,139.86700000000002,RUS,europe,Russian Federation,12.47,22.0,2907303.0,142835555.0,0.55,1951.0,0.38,128.0,3.58,low
684,Murmansk,68.967,33.05,RUS,europe,Russian Federation,12.47,22.0,2907303.0,142835555.0,2.36,1952.0,2.07,128.0,3.58,low
704,Vise (Vise Ostrov),79.5,76.983,RUS,europe,Russian Federation,12.47,22.0,2907303.0,142835555.0,,1953.0,0.19,128.0,3.58,low
728,Izvestia Tsik (Izvestia Tsik Ostrova),75.95,82.95,RUS,europe,Russian Federation,12.47,22.0,2907303.0,142835555.0,-1.32,1954.0,-0.13,128.0,3.58,low
729,Golomianyi (Golomianyi Ostrov),79.55,90.617,RUS,europe,Russian Federation,12.47,22.0,2907303.0,142835555.0,,1954.0,0.85,128.0,3.58,low
824,Petropavlovsk-Kamchatsky,52.983,158.65,RUS,europe,Russian Federation,12.47,22.0,2907303.0,142835555.0,4.93,1958.0,2.79,128.0,3.58,low
827,Nagaevo,59.55,150.717,RUS,europe,Russian Federation,12.47,22.0,2907303.0,142835555.0,,,,128.0,3.58,low
917,Sopochnaia Karga,71.867,82.7,RUS,europe,Russian Federation,12.47,22.0,2907303.0,142835555.0,,1958.0,2.37,128.0,3.58,low
248,Johor Bahru,1.462,103.792,MYS,asia,Malaysia,8.03,45.0,6215003.0,28859154.0,,1984.0,3.06,86.0,6.39,middle
1589,Tanjung Gelang,3.975,103.43,MYS,asia,Malaysia,8.03,45.0,6215003.0,28859154.0,3.13,1984.0,2.71,86.0,6.39,middle
1591,Pelabuhan Kelang,3.05,101.358,MYS,asia,Malaysia,8.03,45.0,6215003.0,28859154.0,2.89,1984.0,2.3,86.0,6.39,middle
1592,Cendering,5.265,103.187,MYS,asia,Malaysia,8.03,45.0,6215003.0,28859154.0,3.13,1985.0,3.42,86.0,6.39,middle
1593,Tanjung Keling,2.215,102.153,MYS,asia,Malaysia,8.03,45.0,6215003.0,28859154.0,2.53,1985.0,2.53,86.0,6.39,middle
1594,Lumut,4.24,100.613,MYS,asia,Malaysia,8.03,45.0,6215003.0,28859154.0,2.48,1985.0,2.48,86.0,6.39,middle
1595,Pulau Pinang,5.4220000000000015,100.347,MYS,asia,Malaysia,8.03,45.0,6215003.0,28859154.0,3.44,1986.0,4.17,86.0,6.39,middle
249,Foglo / Degerby,60.032,20.385,ALA,europe,,,,,,-4.52,1924.0,-3.76,,,
258,Ponta Delgada,37.736,-25.671,PRT,europe,Portugal,4.42,102.0,653262.0,10689663.0,,,,133.0,3.45,low
352,Split - Gradska Luka,43.507,16.442,HRV,europe,Croatia,4.16,108.0,115291.0,4395560.0,3.9,1955.0,1.11,125.0,3.97,low
353,Bakar,45.3,14.533,HRV,europe,Croatia,4.16,108.0,115291.0,4395560.0,3.24,1930.0,1.19,125.0,3.97,low
685,Split Rt Marjana,43.508,16.392,HRV,europe,Croatia,4.16,108.0,115291.0,4395560.0,-1.84,1953.0,-0.33,125.0,3.97,low
760,Dubrovnik,42.658,18.063,HRV,europe,Croatia,4.16,108.0,115291.0,4395560.0,4.11,1956.0,1.65,125.0,3.97,low
761,Rovinj,45.083,13.628,HRV,europe,Croatia,4.16,108.0,115291.0,4395560.0,2.39,1956.0,0.89,125.0,3.97,low
368,St. Georges / Esso Pier (Bermuda),32.373000000000005,-64.703,BMU,north-america,Bermuda,5.59,85.0,19476.0,65077.0,,1933.0,2.01,,,
373,Thessaloniki,40.633,22.935,GRC,europe,Greece,6.31,70.0,927234.0,11390031.0,5.89,1969.0,3.72,76.0,6.7,middle
374,Piraievs,37.937,23.627,GRC,europe,Greece,6.31,70.0,927234.0,11390031.0,,,,76.0,6.7,middle
375,Kavalla,40.935,24.412,GRC,europe,Greece,6.31,70.0,927234.0,11390031.0,,,,76.0,6.7,middle
408,Khios,38.372,26.141,GRC,europe,Greece,6.31,70.0,927234.0,11390031.0,4.52,1975.0,3.66,76.0,6.7,middle
409,Posidhonia,37.951,22.96,GRC,europe,Greece,6.31,70.0,927234.0,11390031.0,,,,76.0,6.7,middle
410,Preveza,38.959,20.757,GRC,europe,Greece,6.31,70.0,927234.0,11390031.0,2.57,1969.0,-0.2,76.0,6.7,middle
411,Kalamai,37.024,22.116,GRC,europe,Greece,6.31,70.0,927234.0,11390031.0,,1973.0,4.32,76.0,6.7,middle
634,Iraklion,35.348,25.153,GRC,europe,Greece,6.31,70.0,927234.0,11390031.0,,,,76.0,6.7,middle
1232,Soudhas,35.48699999999999,24.082,GRC,europe,Greece,6.31,70.0,927234.0,11390031.0,3.08,1969.0,0.25,76.0,6.7,middle
1233,Leros,37.13,26.848000000000006,GRC,europe,Greece,6.31,70.0,927234.0,11390031.0,1.04,1977.0,1.29,76.0,6.7,middle
1234,Siros,37.44,24.946,GRC,europe,Greece,6.31,70.0,927234.0,11390031.0,-0.78,1969.0,-3.33,76.0,6.7,middle
1237,Khalkis North,38.472,23.593000000000004,GRC,europe,Greece,6.31,70.0,927234.0,11390031.0,3.26,1969.0,0.59,76.0,6.7,middle
1238,Alexandroupolis,40.844,25.878,GRC,europe,Greece,6.31,70.0,927234.0,11390031.0,3.97,1969.0,2.08,76.0,6.7,middle
1239,Levkas,38.835,20.712,GRC,europe,Greece,6.31,70.0,927234.0,11390031.0,7.32,1970.0,5.76,76.0,6.7,middle
1240,Katakolon,37.645,21.32,GRC,europe,Greece,6.31,70.0,927234.0,11390031.0,4.69,1969.0,2.83,76.0,6.7,middle
1441,Khalkis South,38.461,23.589,GRC,europe,Greece,6.31,70.0,927234.0,11390031.0,,,,76.0,6.7,middle
413,Oostende,51.233,2.917,BEL,europe,Belgium,8.37,42.0,2264375.0,10754056.0,2.31,1937.0,1.73,143.0,3.07,very low
470,Zeebrugge,51.35,3.2,BEL,europe,Belgium,8.37,42.0,2264375.0,10754056.0,3.22,1962.0,2.77,143.0,3.07,very low
489,Nieuwpoort,51.15,2.733,BEL,europe,Belgium,8.37,42.0,2264375.0,10754056.0,1.93,1967.0,2.62,143.0,3.07,very low
431,Montevideo (Punta Lobos),-34.9,-56.25,URY,south-america,Uruguay,2.23,143.0,329223.0,3380008.0,0.56,1938.0,0.83,124.0,4.03,low
483,Vigo,42.238,-8.731,ESP,europe,Spain,5.08,91.0,3556459.0,46454895.0,1.32,1944.0,2.16,144.0,3.05,very low
484,La Coruna I,43.369,-8.398,ESP,europe,Spain,5.08,91.0,3556459.0,46454895.0,3.06,1944.0,2.4,144.0,3.05,very low
485,Santander I,43.46100000000001,-3.791,ESP,europe,Spain,5.08,91.0,3556459.0,46454895.0,3.13,1944.0,2.26,144.0,3.05,very low
488,Tarifa,36.009,-5.603,ESP,europe,Spain,5.08,91.0,3556459.0,46454895.0,4.53,1944.0,1.06,144.0,3.05,very low
496,Malaga,36.713,-4.415,ESP,europe,Spain,5.08,91.0,3556459.0,46454895.0,3.62,1944.0,0.71,144.0,3.05,very low
498,Ceuta,35.892,-5.316,ESP,europe,Spain,5.08,91.0,3556459.0,46454895.0,0.49,1945.0,0.62,144.0,3.05,very low
593,Arrecife,28.972,-13.53,ESP,europe,Spain,5.08,91.0,3556459.0,46454895.0,,1950.0,0.5,144.0,3.05,very low
985,Cadiz Iii,36.54,-6.2860000000000005,ESP,europe,Spain,5.08,91.0,3556459.0,46454895.0,2.06,1961.0,3.71,144.0,3.05,very low
499,Valparaiso,-33.027,-71.626,CHL,south-america,Chile,4.73,96.0,214863.0,17269525.0,,,,22.0,11.65,very high
510,Antofagasta 2,-23.653,-70.404,CHL,south-america,Chile,4.73,96.0,214863.0,17269525.0,-0.44,1946.0,-0.79,22.0,11.65,very high
1272,Easter Island-E,-27.155,-109.473,CHL,south-america,Chile,4.73,96.0,214863.0,17269525.0,0.24,1981.0,-0.23,22.0,11.65,very high
1644,Juan Fernandez-C,-33.636,-78.83,CHL,south-america,Chile,4.73,96.0,214863.0,17269525.0,,,,22.0,11.65,very high
2261,Iquique Ii,-20.204,-70.148,CHL,south-america,Chile,4.73,96.0,214863.0,17269525.0,-0.87,1986.0,-0.96,22.0,11.65,very high
2262,Corral Ii,-39.878,-73.423,CHL,south-america,Chile,4.73,96.0,214863.0,17269525.0,,,,22.0,11.65,very high
513,Kwajalein,8.732000000000001,167.735,MHL,oceania,Marshall Islands,1.95,149.0,44211.0,54816.0,5.19,1947.0,2.14,,,
595,Wake Island,19.29,166.61700000000005,MHL,oceania,Marshall Islands,1.95,149.0,44211.0,54816.0,2.82,1951.0,1.99,,,
539,Pago Pago,-14.28,-170.69,ASM,oceania,American Samoa,,,5370.0,69543.0,6.87,1949.0,3.25,,,
540,"Apra Harbour, Guam",13.438,144.653,GUM,oceania,Guam,,,10089.0,182111.0,5.35,1948.0,1.64,,,
541,Barentsburg,78.067,14.25,SJM,europe,,,,316.0,2338.0,,1949.0,-2.83,,,
1421,Ny-Alesund,78.929,11.938,SJM,europe,,,,316.0,2338.0,-4.58,1977.0,-4.24,,,
563,Gibara,21.108,-76.125,CUB,north-america,Cuba,3.46,123.0,1014837.0,11253665.0,1.83,1976.0,2.0,90.0,6.13,middle
1297,Cabo De San Antonio,21.9,-84.9,CUB,north-america,Cuba,3.46,123.0,1014837.0,11253665.0,,1973.0,3.28,90.0,6.13,middle
2021,Casilda Ii,21.753,-79.992,CUB,north-america,Cuba,3.46,123.0,1014837.0,11253665.0,,,,90.0,6.13,middle
638,Reykjavik,64.15100000000001,-21.94,ISL,europe,Iceland,6.08,75.0,36207.0,324366.0,1.29,1957.0,2.21,166.0,1.52,very low
723,Dalian,38.867,121.683,CHN,asia,China,7.55,52.0,163381088.0,1347565324.0,3.54,1954.0,2.15,85.0,6.39,middle
933,Zhapo,21.583,111.817,CHN,asia,China,7.55,52.0,163381088.0,1347565324.0,2.58,1959.0,2.14,85.0,6.39,middle
934,Kanmen,28.083,121.283,CHN,asia,China,7.55,52.0,163381088.0,1347565324.0,3.37,1959.0,2.24,85.0,6.39,middle
979,Lusi,32.133,121.617,CHN,asia,China,7.55,52.0,163381088.0,1347565324.0,,,,85.0,6.39,middle
724,Sembawang,1.467,103.833,SGP,asia,Singapore,9.36,34.0,1558272.0,5187933.0,2.36,1954.0,-0.85,159.0,2.27,very low
1248,Sultan Shoal,1.233,103.65,SGP,asia,Singapore,9.36,34.0,1558272.0,5187933.0,3.53,1972.0,2.99,159.0,2.27,very low
1351,Raffles Light House,1.167,103.75,SGP,asia,Singapore,9.36,34.0,1558272.0,5187933.0,,,,159.0,2.27,very low
759,Magueyes Island,17.97,-67.045,PRI,north-america,Puerto Rico,,,555617.0,3745526.0,2.74,1955.0,1.71,,,
1001,San Juan,18.458,-66.115,PRI,north-america,Puerto Rico,,,555617.0,3745526.0,3.05,1963.0,2.02,,,
819,Mar Del Plata (Naval Base),-38.033,-57.517,ARG,south-america,Argentina,4.46,101.0,4139178.0,40764561.0,2.5,1958.0,0.91,129.0,3.56,low
832,Palermo,-34.567,-58.4,ARG,south-america,Argentina,4.46,101.0,4139178.0,40764561.0,0.29,1960.0,1.61,129.0,3.56,low
820,Port Elizabeth,-33.951,25.63,ZAF,africa,South Africa,8.86,38.0,384108.0,50459979.0,,,,101.0,5.58,middle
826,Simons Bay,-34.188,18.44,ZAF,africa,South Africa,8.86,38.0,384108.0,50459979.0,,,,101.0,5.58,middle
836,Port Nolloth,-29.257,16.868,ZAF,africa,South Africa,8.86,38.0,384108.0,50459979.0,,,,101.0,5.58,middle
910,Mossel Bay,-34.179,22.135,ZAF,africa,South Africa,8.86,38.0,384108.0,50459979.0,,,,101.0,5.58,middle
1192,East London,-33.027,27.932,ZAF,africa,South Africa,8.86,38.0,384108.0,50459979.0,,,,101.0,5.58,middle
1195,Cape Town (Granger Bay),-33.905,18.435,ZAF,africa,South Africa,8.86,38.0,384108.0,50459979.0,,,,101.0,5.58,middle
841,Hondau,20.667,106.8,VNM,asia,Vietnam,1.7,161.0,50286178.0,88791996.0,1.91,1957.0,2.03,18.0,12.53,very high
1003,Honngu,18.8,105.767,VNM,asia,Vietnam,1.7,161.0,50286178.0,88791996.0,-8.87,1962.0,-5.67,18.0,12.53,very high
1449,Quinhon,13.767,109.25,VNM,asia,Vietnam,1.7,161.0,50286178.0,88791996.0,0.85,1977.0,0.32,18.0,12.53,very high
1475,Danang,16.1,108.217,VNM,asia,Vietnam,1.7,161.0,50286178.0,88791996.0,4.05,1978.0,3.19,18.0,12.53,very high
1495,Vungtau,10.333,107.067,VNM,asia,Vietnam,1.7,161.0,50286178.0,88791996.0,3.89,1979.0,3.82,18.0,12.53,very high
913,Argentine Islands,-65.24600000000001,-64.257,ATA,antarctica,,,,,,0.19,1960.0,1.34,,,
954,Mokpo,34.78,126.376,KOR,asia,"Korea, Rep.",11.8,24.0,3970153.0,48391343.0,5.4,1960.0,3.69,113.0,4.59,low
955,Busan,35.096,129.036,KOR,asia,"Korea, Rep.",11.8,24.0,3970153.0,48391343.0,2.77,1961.0,2.06,113.0,4.59,low
956,Incheon,37.452,126.592,KOR,asia,"Korea, Rep.",11.8,24.0,3970153.0,48391343.0,4.05,1960.0,1.14,113.0,4.59,low
997,Ulsan,35.50199999999999,129.387,KOR,asia,"Korea, Rep.",11.8,24.0,3970153.0,48391343.0,2.04,1963.0,1.5,113.0,4.59,low
1066,Jeju,33.528,126.543,KOR,asia,"Korea, Rep.",11.8,24.0,3970153.0,48391343.0,6.06,1964.0,5.22,113.0,4.59,low
1108,Mukho,37.55,129.116,KOR,asia,"Korea, Rep.",11.8,24.0,3970153.0,48391343.0,2.62,1965.0,0.94,113.0,4.59,low
1155,Yeosu,34.747,127.766,KOR,asia,"Korea, Rep.",11.8,24.0,3970153.0,48391343.0,1.53,1966.0,1.48,113.0,4.59,low
1324,Pohang,36.047,129.384,KOR,asia,"Korea, Rep.",11.8,24.0,3970153.0,48391343.0,7.42,1972.0,4.97,113.0,4.59,low
1365,Sokcho,38.207,128.594,KOR,asia,"Korea, Rep.",11.8,24.0,3970153.0,48391343.0,2.71,1974.0,2.45,113.0,4.59,low
1445,Gadeokdo,35.025,128.811,KOR,asia,"Korea, Rep.",11.8,24.0,3970153.0,48391343.0,3.44,1977.0,3.05,113.0,4.59,low
1446,Tongyeong,34.828,128.435,KOR,asia,"Korea, Rep.",11.8,24.0,3970153.0,48391343.0,1.88,1977.0,2.16,113.0,4.59,low
1489,Daeheuksando,34.684,125.436,KOR,asia,"Korea, Rep.",11.8,24.0,3970153.0,48391343.0,-0.17,1979.0,0.81,113.0,4.59,low
1490,Ulleung,37.491,130.914,KOR,asia,"Korea, Rep.",11.8,24.0,3970153.0,48391343.0,4.21,1979.0,3.47,113.0,4.59,low
1527,Gunsan (Outer Port),35.976,126.563,KOR,asia,"Korea, Rep.",11.8,24.0,3970153.0,48391343.0,3.53,1981.0,3.32,113.0,4.59,low
1546,Geomundo,34.028,127.309,KOR,asia,"Korea, Rep.",11.8,24.0,3970153.0,48391343.0,4.36,1982.0,4.55,113.0,4.59,low
1568,Wando,34.315,126.76,KOR,asia,"Korea, Rep.",11.8,24.0,3970153.0,48391343.0,1.67,1983.0,1.69,113.0,4.59,low
1588,Chujado,33.962,126.3,KOR,asia,"Korea, Rep.",11.8,24.0,3970153.0,48391343.0,2.18,1984.0,2.31,113.0,4.59,low
1627,Seogwipo,33.24,126.562,KOR,asia,"Korea, Rep.",11.8,24.0,3970153.0,48391343.0,4.17,1985.0,4.17,113.0,4.59,low
1628,Wido,35.618,126.302,KOR,asia,"Korea, Rep.",11.8,24.0,3970153.0,48391343.0,,,,113.0,4.59,low
1032,Ilha Fiscal,-22.897,-43.167,BRA,south-america,Brazil,2.47,140.0,13525900.0,196655014.0,0.35,1965.0,2.73,123.0,4.09,low
1252,Malakal-B,7.332999999999998,134.467,PLW,oceania,Palau,10.69,27.0,2500.0,20609.0,5.61,1971.0,2.73,,,
1253,Rikitea,-23.122,-134.967,PYF,oceania,French Polynesia,2.97,128.0,34466.0,273777.0,1.88,1970.0,1.7,,,
1397,"Papeete-B, Fare Ute Point, Soc.Is.",-17.533,-149.57299999999995,PYF,oceania,French Polynesia,2.97,128.0,34466.0,273777.0,1.69,1970.0,3.29,,,
1274,Callao 2,-12.05,-77.15,PER,south-america,Peru,1.87,155.0,570737.0,29399817.0,,,,78.0,6.59,middle
1327,Suva-A,-18.136,178.423,FJI,oceania,Fiji,1.94,150.0,107090.0,868406.0,7.6,1973.0,6.49,16.0,13.15,very high
1329,Kanton Island-B,-2.817,-171.717,KIR,oceania,Kiribati,0.57,203.0,65881.0,101093.0,,1973.0,0.69,164.0,1.78,very low
1371,Christmas Island Ii,1.983,-157.483,KIR,oceania,Kiribati,0.57,203.0,65881.0,101093.0,0.94,1974.0,0.98,164.0,1.78,very low
1370,Pohnpei-B,6.983,158.233,FSM,oceania,"Micronesia, Fed. Sts.",1.41,167.0,21442.0,111542.0,2.73,1976.0,2.28,,,
1473,Kapingamarangi,1.1,154.783,FSM,oceania,"Micronesia, Fed. Sts.",1.41,167.0,21442.0,111542.0,,,,,,
1393,Charlotte Amalie,18.335,-64.92,VIR,north-america,Virgin Islands (U.S.),,,13958.0,108846.0,2.83,1976.0,2.45,,,
1447,"Lime Tree Bay, St Croix",17.692999999999994,-64.753,VIR,north-america,Virgin Islands (U.S.),,,13958.0,108846.0,3.34,1984.0,3.19,,,
1450,Penrhyn,-9.017,-158.067,COK,oceania,,,,3353.0,20414.0,1.7,1978.0,1.93,,,
1474,Saipan,15.233,145.75,MNP,oceania,Northern Mariana Islands,,,18049.0,61174.0,,,,,,
1501,Pointe Des Galets,-20.935,55.285,REU,africa,,,,29047.0,855849.0,,,,,,
1600,Zanzibar,-6.15,39.183,TZA,africa,Tanzania,0.21,232.0,777316.0,46218486.0,1.58,1985.0,1.03,,,
1645,Baltra-B,-0.433,-90.283,ECU,south-america,Ecuador,2.78,134.0,1955846.0,14666055.0,1.58,1986.0,1.16,58.0,7.53,high
