,id,location,latitude,longitude,continent,county_name,county_code,c02_emissions,c02_rank,coastal_population2010_sum,total_population2010_sum,trend_1985_2015,start_year,trend_longest,c02_rank,risk_index,risk_description
0,1,Brest,48.383,-4.495,Europe,France,FRA,5.050482994348349,92.0,2983590,63125894,2.385,1807,0.97,152,2.62,very low
1,61,Marseille,43.279,5.354,Europe,France,FRA,5.050482994348349,92.0,2983590,63125894,3.53,1885,1.32,152,2.62,very low
2,453,Le Havre,49.482,0.106,Europe,France,FRA,5.050482994348349,92.0,2983590,63125894,1.984,1959,2.66,152,2.62,very low
3,467,Cherbourg,49.651,-1.636,Europe,France,FRA,5.050482994348349,92.0,2983590,63125894,1.908,1975,1.47,152,2.62,very low
4,1247,Port Tudy,47.644,-3.446,Europe,France,FRA,5.050482994348349,92.0,2983590,63125894,2.971,1976,2.47,152,2.62,very low
5,1294,Le Conquet,48.359,-4.7810000000000015,Europe,France,FRA,5.050482994348349,92.0,2983590,63125894,3.54,1971,2.86,152,2.62,very low
6,1347,Roscoff,48.718,-3.966,Europe,France,FRA,5.050482994348349,92.0,2983590,63125894,1.986,1975,1.77,152,2.62,very low
7,1468,Nice,43.69600000000001,7.286,Europe,France,FRA,5.050482994348349,92.0,2983590,63125894,2.831,1978,3.07,152,2.62,very low
8,1801,Boucau,43.527,-1.515,Europe,France,FRA,5.050482994348349,92.0,2983590,63125894,2.992,1969,1.42,152,2.62,very low
9,95,North Shields,55.007,-1.44,Europe,United Kingdom,GBR,7.13372170937646,56.0,6662984,62417431,2.603,1896,1.89,131,3.54,low
10,202,Newlyn,50.103,-5.542999999999998,Europe,United Kingdom,GBR,7.13372170937646,56.0,6662984,62417431,2.807,1916,1.83,131,3.54,low
11,286,Immingham,53.63,-0.187,Europe,United Kingdom,GBR,7.13372170937646,56.0,6662984,62417431,-1.043,1960,0.54,131,3.54,low
12,314,Stornoway,58.208,-6.3889999999999985,Europe,United Kingdom,GBR,7.13372170937646,56.0,6662984,62417431,2.638,1977,1.91,131,3.54,low
13,361,Aberdeen I,57.144,-2.077,Europe,United Kingdom,GBR,7.13372170937646,56.0,6662984,62417431,1.237,1932,0.97,131,3.54,low
14,754,Lowestoft,52.473,1.75,Europe,United Kingdom,GBR,7.13372170937646,56.0,6662984,62417431,3.477,1956,2.62,131,3.54,low
15,755,Millport,55.75,-4.9060000000000015,Europe,United Kingdom,GBR,7.13372170937646,56.0,6662984,62417431,1.246,1986,1.31,131,3.54,low
16,1109,Wick,58.441,-3.0860000000000003,Europe,United Kingdom,GBR,7.13372170937646,56.0,6662984,62417431,1.973,1965,1.25,131,3.54,low
17,1112,Ullapool,57.895,-5.158,Europe,United Kingdom,GBR,7.13372170937646,56.0,6662984,62417431,1.675,1983,1.72,131,3.54,low
18,1215,Portpatrick,54.843,-5.12,Europe,United Kingdom,GBR,7.13372170937646,56.0,6662984,62417431,4.066,1968,2.07,131,3.54,low
19,7,Cuxhaven 2,53.867,8.717,Europe,Germany,DEU,9.22059080376862,37.0,4430201,82162512,3.531,1843,2.12,147,2.95,very low
20,8,Wismar 2,53.899,11.458,Europe,Germany,DEU,9.22059080376862,37.0,4430201,82162512,1.476,1849,1.42,147,2.95,very low
21,11,Warnemunde 2,54.17,12.103,Europe,Germany,DEU,9.22059080376862,37.0,4430201,82162512,1.875,1856,1.25,147,2.95,very low
22,397,Sassnitz,54.511,13.643,Europe,Germany,DEU,9.22059080376862,37.0,4430201,82162512,2.343,1936,0.85,147,2.95,very low
23,1036,Amrum (Wittduen),54.617,8.383,Europe,Germany,DEU,9.22059080376862,37.0,4430201,82162512,2.999,1963,2.94,147,2.95,very low
24,1037,Borkum (Fischerbalje),53.558,6.747999999999998,Europe,Germany,DEU,9.22059080376862,37.0,4430201,82162512,2.866,1963,2.28,147,2.95,very low
25,1448,Koserow,54.06,14.001,Europe,Germany,DEU,9.22059080376862,37.0,4430201,82162512,1.348,1980,1.21,147,2.95,very low
26,9,Maassluis,51.918,4.25,Europe,Netherlands,NLD,10.1147592492266,29.0,11967821,16664746,1.484,1848,1.67,49,8.24,high
27,20,Vlissingen,51.442,3.596,Europe,Netherlands,NLD,10.1147592492266,29.0,11967821,16664746,2.998,1862,1.27,49,8.24,high
28,22,Hoek Van Holland,51.978,4.12,Europe,Netherlands,NLD,10.1147592492266,29.0,11967821,16664746,2.446,1864,2.4,49,8.24,high
29,23,Den Helder,52.964,4.745,Europe,Netherlands,NLD,10.1147592492266,29.0,11967821,16664746,1.555,1865,1.48,49,8.24,high
30,24,Delfzijl,53.326,6.933,Europe,Netherlands,NLD,10.1147592492266,29.0,11967821,16664746,2.798,1865,1.71,49,8.24,high
31,25,Harlingen,53.176,5.409,Europe,Netherlands,NLD,10.1147592492266,29.0,11967821,16664746,2.815,1865,1.41,49,8.24,high
32,32,Ijmuiden,52.462,4.555,Europe,Netherlands,NLD,10.1147592492266,29.0,11967821,16664746,2.687,1872,1.52,49,8.24,high
33,236,West-Terschelling,53.363,5.22,Europe,Netherlands,NLD,10.1147592492266,29.0,11967821,16664746,2.465,1921,1.15,49,8.24,high
34,10,San Francisco,37.807,-122.465,North America,United States,USA,16.389757994879,11.0,24431214,313085381,2.19,1855,1.45,127,3.76,low
35,12,New York (The Battery),40.7,-74.013,North America,United States,USA,16.389757994879,11.0,24431214,313085381,4.544,1856,2.82,127,3.76,low
36,112,Fernandina Beach,30.672,-81.465,North America,United States,USA,16.389757994879,11.0,24431214,313085381,2.149,1898,2.1,127,3.76,low
37,127,Seattle,47.602,-122.338,North America,United States,USA,16.389757994879,11.0,24431214,313085381,2.579,1899,2.02,127,3.76,low
38,135,Philadelphia (Pier 9N),39.933,-75.142,North America,United States,USA,16.389757994879,11.0,24431214,313085381,5.198,1901,2.92,127,3.76,low
39,148,Baltimore,39.267,-76.578,North America,United States,USA,16.389757994879,11.0,24431214,313085381,4.442,1903,3.15,127,3.76,low
40,155,Honolulu,21.307,-157.86700000000005,North America,United States,USA,16.389757994879,11.0,24431214,313085381,1.088,1905,1.41,127,3.76,low
41,158,San Diego (Quarantine Station),32.713,-117.173,North America,United States,USA,16.389757994879,11.0,24431214,313085381,2.828,1906,2.15,127,3.76,low
42,161,"Galveston Ii, Pier 21, Tx",29.31,-94.793,North America,United States,USA,16.389757994879,11.0,24431214,313085381,5.597,1909,6.39,127,3.76,low
43,180,Atlantic City,39.355,-74.418,North America,United States,USA,16.389757994879,11.0,24431214,313085381,4.909,1912,4.08,127,3.76,low
44,183,Portland (Maine),43.657,-70.247,North America,United States,USA,16.389757994879,11.0,24431214,313085381,2.641,1912,1.84,127,3.76,low
45,188,Key West,24.555,-81.807,North America,United States,USA,16.389757994879,11.0,24431214,313085381,3.368,1913,2.38,127,3.76,low
46,224,Lewes (Breakwater Harbor),38.782,-75.12,North America,United States,USA,16.389757994879,11.0,24431214,313085381,5.094,1919,3.4,127,3.76,low
47,225,Ketchikan,55.332,-131.625,North America,United States,USA,16.389757994879,11.0,24431214,313085381,-0.841,1919,-0.32,127,3.76,low
48,234,Charleston I,32.782,-79.925,North America,United States,USA,16.389757994879,11.0,24431214,313085381,3.983,1922,3.25,127,3.76,low
49,235,Boston,42.353,-71.053,North America,United States,USA,16.389757994879,11.0,24431214,313085381,4.252,1921,2.78,127,3.76,low
50,245,Los Angeles,33.72,-118.272,North America,United States,USA,16.389757994879,11.0,24431214,313085381,2.301,1924,0.98,127,3.76,low
51,246,Pensacola,30.403,-87.21,North America,United States,USA,16.389757994879,11.0,24431214,313085381,3.805,1924,2.31,127,3.76,low
52,256,La Jolla (Scripps Pier),32.867,-117.257,North America,United States,USA,16.389757994879,11.0,24431214,313085381,2.753,1925,2.22,127,3.76,low
53,265,Astoria (Tongue Point),46.207,-123.768,North America,United States,USA,16.389757994879,11.0,24431214,313085381,1.859,1925,-0.21,127,3.76,low
54,266,Seward,60.12,-149.42700000000005,North America,United States,USA,16.389757994879,11.0,24431214,313085381,-4.291,1964,-2.64,127,3.76,low
55,299,"Sewells Point, Hampton Roads",36.947,-76.33,North America,United States,USA,16.389757994879,11.0,24431214,313085381,6.385,1928,4.62,127,3.76,low
56,300,"Hilo, Hawaii Island",19.73,-155.055,North America,United States,USA,16.389757994879,11.0,24431214,313085381,1.756,1927,2.97,127,3.76,low
57,311,Annapolis (Naval Academy),38.983,-76.48,North America,United States,USA,16.389757994879,11.0,24431214,313085381,4.934,1929,3.57,127,3.76,low
58,332,Eastport,44.903,-66.982,North America,United States,USA,16.389757994879,11.0,24431214,313085381,2.829,1930,2.14,127,3.76,low
59,351,Newport,41.505,-71.327,North America,United States,USA,16.389757994879,11.0,24431214,313085381,3.798,1931,2.71,127,3.76,low
60,360,Washington Dc,38.87300000000001,-77.02199999999998,North America,United States,USA,16.389757994879,11.0,24431214,313085381,4.481,1931,3.15,127,3.76,low
61,366,Sandy Hook,40.467,-74.008,North America,United States,USA,16.389757994879,11.0,24431214,313085381,5.619,1933,4.05,127,3.76,low
62,367,Woods Hole (Ocean. Inst.),41.523,-70.672,North America,United States,USA,16.389757994879,11.0,24431214,313085381,4.243,1933,2.78,127,3.76,low
63,377,Santa Monica (Municipal Pier),34.008,-118.5,North America,United States,USA,16.389757994879,11.0,24431214,313085381,2.468,1933,1.53,127,3.76,low
64,378,Crescent City,41.745,-124.182,North America,United States,USA,16.389757994879,11.0,24431214,313085381,-0.713,1933,-0.78,127,3.76,low
65,384,Friday Harbor (Ocean. Labs.),48.547,-123.01,North America,United States,USA,16.389757994879,11.0,24431214,313085381,2.125,1934,1.12,127,3.76,low
66,385,Neah Bay,48.367,-124.612,North America,United States,USA,16.389757994879,11.0,24431214,313085381,-1.2,1935,-1.73,127,3.76,low
67,395,Fort Pulaski,32.033,-80.902,North America,United States,USA,16.389757994879,11.0,24431214,313085381,3.98,1935,3.13,127,3.76,low
68,396,Wilmington,34.227,-77.953,North America,United States,USA,16.389757994879,11.0,24431214,313085381,3.203,1936,2.17,127,3.76,low
69,405,Juneau,58.298,-134.412,North America,United States,USA,16.389757994879,11.0,24431214,313085381,-14.407,1936,-13.19,127,3.76,low
70,412,Solomon'S Island (Biol. Lab.),38.317,-76.452,North America,United States,USA,16.389757994879,11.0,24431214,313085381,5.462,1938,3.68,127,3.76,low
71,426,Sitka,57.052,-135.342,North America,United States,USA,16.389757994879,11.0,24431214,313085381,-2.47,1938,-2.31,127,3.76,low
72,429,New London,41.36,-72.09,North America,United States,USA,16.389757994879,11.0,24431214,313085381,4.463,1939,2.53,127,3.76,low
73,430,Providence (State Pier),41.807,-71.4,North America,United States,USA,16.389757994879,11.0,24431214,313085381,3.764,1939,2.17,127,3.76,low
74,437,Alameda (Naval Air Station),37.772,-122.298,North America,United States,USA,16.389757994879,11.0,24431214,313085381,0.933,1940,0.69,127,3.76,low
75,445,Yakutat,59.548,-139.733,North America,United States,USA,16.389757994879,11.0,24431214,313085381,-13.276,1940,-8.16,127,3.76,low
76,495,Skagway,59.45,-135.327,North America,United States,USA,16.389757994879,11.0,24431214,313085381,-20.451,1945,-17.62,127,3.76,low
77,497,Port Isabel,26.06,-97.215,North America,United States,USA,16.389757994879,11.0,24431214,313085381,5.542,1945,3.89,127,3.76,low
78,508,Port San Luis,35.177,-120.76,North America,United States,USA,16.389757994879,11.0,24431214,313085381,1.221,1946,0.86,127,3.76,low
79,519,Montauk,41.048,-71.96,North America,United States,USA,16.389757994879,11.0,24431214,313085381,5.091,1948,3.2,127,3.76,low
80,520,St. Petersburg,27.76,-82.62700000000002,North America,United States,USA,16.389757994879,11.0,24431214,313085381,3.314,1947,2.68,127,3.76,low
81,521,"Kahului Harbor, Maui Island",20.895,-156.477,North America,United States,USA,16.389757994879,11.0,24431214,313085381,1.519,1951,1.9,127,3.76,low
82,525,"Bar Harbor, Frenchman Bay, Me",44.392,-68.205,North America,United States,USA,16.389757994879,11.0,24431214,313085381,2.764,1948,2.15,127,3.76,low
83,526,Grand Isle,29.263,-89.95700000000002,North America,United States,USA,16.389757994879,11.0,24431214,313085381,7.596,1947,8.89,127,3.76,low
84,538,Rockport,28.022,-97.047,North America,United States,USA,16.389757994879,11.0,24431214,313085381,8.3,1948,5.5,127,3.76,low
85,566,Cordova,60.558,-145.752,North America,United States,USA,16.389757994879,11.0,24431214,313085381,0.95,1965,4.17,127,3.76,low
86,567,"Kodiak Island, Womens Bay",57.732,-152.512,North America,United States,USA,16.389757994879,11.0,24431214,313085381,-9.374,1985,-9.37,127,3.76,low
87,636,Kiptopeke Beach,37.165,-75.988,North America,United States,USA,16.389757994879,11.0,24431214,313085381,4.247,1952,3.57,127,3.76,low
88,756,"Nawiliwili Bay, Kauai Island",21.953000000000007,-159.355,North America,United States,USA,16.389757994879,11.0,24431214,313085381,1.436,1955,1.45,127,3.76,low
89,757,Unalaska,53.88,-166.537,North America,United States,USA,16.389757994879,11.0,24431214,313085381,-2.5,1956,-4.92,127,3.76,low
90,786,Reedy Point,39.558,-75.57300000000002,North America,United States,USA,16.389757994879,11.0,24431214,313085381,4.029,1985,4.03,127,3.76,low
91,823,Mokuoloe Island,21.432,-157.79,North America,United States,USA,16.389757994879,11.0,24431214,313085381,1.328,1958,1.17,127,3.76,low
92,828,"Galveston I, Pleasure Pier, Tx",29.285,-94.788,North America,United States,USA,16.389757994879,11.0,24431214,313085381,4.643,1958,6.62,127,3.76,low
93,1068,Bridgeport,41.173,-73.182,North America,United States,USA,16.389757994879,11.0,24431214,313085381,3.697,1965,2.91,127,3.76,low
94,1070,Seldovia,59.44,-151.72,North America,United States,USA,16.389757994879,11.0,24431214,313085381,-8.888,1966,-9.55,127,3.76,low
95,1106,Fort Myers,26.647,-81.87,North America,United States,USA,16.389757994879,11.0,24431214,313085381,3.846,1966,2.83,127,3.76,low
96,1107,Naples,26.132,-81.807,North America,United States,USA,16.389757994879,11.0,24431214,313085381,3.877,1966,2.66,127,3.76,low
97,1111,Nantucket Island,41.285,-70.097,North America,United States,USA,16.389757994879,11.0,24431214,313085381,4.317,1965,3.49,127,3.76,low
98,1153,Cape May,38.968,-74.96,North America,United States,USA,16.389757994879,11.0,24431214,313085381,5.766,1966,4.46,127,3.76,low
99,1193,Apalachicola,29.727,-84.98200000000001,North America,United States,USA,16.389757994879,11.0,24431214,313085381,3.196,1968,2.0,127,3.76,low
100,1269,Charleston Ii,43.345,-124.322,North America,United States,USA,16.389757994879,11.0,24431214,313085381,1.787,1971,0.99,127,3.76,low
101,1295,Cambridge Ii,38.573,-76.068,North America,United States,USA,16.389757994879,11.0,24431214,313085381,5.048,1971,3.8,127,3.76,low
102,1325,Port Townsend,48.112,-122.757,North America,United States,USA,16.389757994879,11.0,24431214,313085381,2.653,1972,1.83,127,3.76,low
103,1352,Monterey,36.605,-121.887,North America,United States,USA,16.389757994879,11.0,24431214,313085381,1.45,1974,1.41,127,3.76,low
104,1353,Valdez,61.125,-146.362,North America,United States,USA,16.389757994879,11.0,24431214,313085381,-7.332,1975,-4.65,127,3.76,low
105,1354,"Toke Point, Willipa Bay, Wa",46.707,-123.967,North America,United States,USA,16.389757994879,11.0,24431214,313085381,0.695,1979,-0.49,127,3.76,low
106,1394,Point Reyes,37.995,-122.977,North America,United States,USA,16.389757994879,11.0,24431214,313085381,2.201,1975,2.03,127,3.76,low
107,1444,Springmaid Pier,33.655,-78.918,North America,United States,USA,16.389757994879,11.0,24431214,313085381,1.517,1978,2.87,127,3.76,low
108,1633,Cherry Point,48.863,-122.757,North America,United States,USA,16.389757994879,11.0,24431214,313085381,0.736,1985,0.74,127,3.76,low
109,1634,"Sand Point, Popof Is., Ak",55.337,-160.502,North America,United States,USA,16.389757994879,11.0,24431214,313085381,1.767,1985,1.77,127,3.76,low
110,1635,Chesapeake Bay Br. Tun.,36.967,-76.113,North America,United States,USA,16.389757994879,11.0,24431214,313085381,6.049,1985,6.05,127,3.76,low
111,1636,Duck Pier Outside,36.183,-75.747,North America,United States,USA,16.389757994879,11.0,24431214,313085381,4.871,1985,4.87,127,3.76,low
112,1637,"Bergen Point, Staten Is.",40.637,-74.142,North America,United States,USA,16.389757994879,11.0,24431214,313085381,5.08,1985,5.08,127,3.76,low
113,1639,"N. Spit, Humboldt Bay",40.767,-124.217,North America,United States,USA,16.389757994879,11.0,24431214,313085381,5.389,1985,5.39,127,3.76,low
114,1640,Port Orford,42.738,-124.498,North America,United States,USA,16.389757994879,11.0,24431214,313085381,1.481,1985,1.48,127,3.76,low
115,1641,"Panama City, St.Andrews Bay, Fl",30.152,-85.667,North America,United States,USA,16.389757994879,11.0,24431214,313085381,3.223,1985,3.22,127,3.76,low
116,2127,"Port Angeles, Washington",48.125,-123.44,North America,United States,USA,16.389757994879,11.0,24431214,313085381,1.05,1976,0.22,127,3.76,low
117,2295,"Beaufort, North Carolina",34.72,-76.67,North America,United States,USA,16.389757994879,11.0,24431214,313085381,3.582,1973,3.36,127,3.76,low
118,14,Helsinki,60.154,24.956,Europe,Finland,FIN,8.51255384289531,41.0,260454,5384770,-2.578,1879,-2.31,160,2.21,very low
119,57,Vaasa / Vasa,63.082,21.571,Europe,Finland,FIN,8.51255384289531,41.0,260454,5384770,-7.041,1884,-7.3,160,2.21,very low
120,71,Hanko / Hango,59.823,22.977,Europe,Finland,FIN,8.51255384289531,41.0,260454,5384770,-3.851,1889,-2.68,160,2.21,very low
121,79,Oulu / Uleaborg,65.04,25.418000000000006,Europe,Finland,FIN,8.51255384289531,41.0,260454,5384770,-6.216,1889,-6.37,160,2.21,very low
122,172,Mantyluoto,61.594,21.463,Europe,Finland,FIN,8.51255384289531,41.0,260454,5384770,-5.139,1911,-5.9,160,2.21,very low
123,194,Pietarsaari / Jakobstad,63.709,22.69,Europe,Finland,FIN,8.51255384289531,41.0,260454,5384770,-6.86,1915,-7.23,160,2.21,very low
124,229,Kemi,65.673,24.515,Europe,Finland,FIN,8.51255384289531,41.0,260454,5384770,-5.741,1920,-6.92,160,2.21,very low
125,239,Turku / Abo,60.428,22.101,Europe,Finland,FIN,8.51255384289531,41.0,260454,5384770,-4.239,1922,-3.66,160,2.21,very low
126,240,Raahe / Brahestad,64.666,24.407,Europe,Finland,FIN,8.51255384289531,41.0,260454,5384770,-7.356,1923,-6.83,160,2.21,very low
127,285,Kaskinen / Kasko,62.344,21.215,Europe,Finland,FIN,8.51255384289531,41.0,260454,5384770,-6.443,1927,-6.45,160,2.21,very low
128,315,Hamina,60.563,27.179,Europe,Finland,FIN,8.51255384289531,41.0,260454,5384770,-1.633,1929,-0.95,160,2.21,very low
129,376,Rauma / Raumo,61.13399999999999,21.426,Europe,Finland,FIN,8.51255384289531,41.0,260454,5384770,-5.066,1933,-4.62,160,2.21,very low
130,33,Oscarsborg,59.678,10.605,Europe,Norway,NOR,11.740324232723598,25.0,294257,4924848,-1.888,1954,-1.81,161,2.19,very low
131,45,Kabelvag,68.21300000000001,14.482,Europe,Norway,NOR,11.740324232723598,25.0,294257,4924848,-0.619,1948,-0.89,161,2.19,very low
132,47,Stavanger,58.974,5.73,Europe,Norway,NOR,11.740324232723598,25.0,294257,4924848,0.968,1919,0.37,161,2.19,very low
133,58,Bergen,60.398,5.32,Europe,Norway,NOR,11.740324232723598,25.0,294257,4924848,1.156,1916,-0.04,161,2.19,very low
134,62,Oslo,59.909,10.735,Europe,Norway,NOR,11.740324232723598,25.0,294257,4924848,-1.008,1886,-2.91,161,2.19,very low
135,302,Tregde,58.006,7.555,Europe,Norway,NOR,11.740324232723598,25.0,294257,4924848,1.279,1928,0.26,161,2.19,very low
136,312,Narvik,68.428,17.426,Europe,Norway,NOR,11.740324232723598,25.0,294257,4924848,-1.267,1932,-2.49,161,2.19,very low
137,313,Heimsjo,63.425,9.102,Europe,Norway,NOR,11.740324232723598,25.0,294257,4924848,-0.037,1928,-1.36,161,2.19,very low
138,425,Andenes,69.32600000000001,16.135,Europe,Norway,NOR,11.740324232723598,25.0,294257,4924848,-0.684,1982,-3.07,161,2.19,very low
139,486,Maloy,61.934,5.113,Europe,Norway,NOR,11.740324232723598,25.0,294257,4924848,1.561,1944,0.71,161,2.19,very low
140,509,Alesund,62.469,6.152,Europe,Norway,NOR,11.740324232723598,25.0,294257,4924848,0.449,1945,0.73,161,2.19,very low
141,524,Vardo,70.375,31.104,Europe,Norway,NOR,11.740324232723598,25.0,294257,4924848,0.223,1984,0.48,161,2.19,very low
142,562,Bodo,67.288,14.390999999999998,Europe,Norway,NOR,11.740324232723598,25.0,294257,4924848,0.48,1950,-1.26,161,2.19,very low
143,680,Tromso,69.64699999999999,18.961,Europe,Norway,NOR,11.740324232723598,25.0,294257,4924848,0.685,1953,0.07,161,2.19,very low
144,681,Harstad,68.801,16.548,Europe,Norway,NOR,11.740324232723598,25.0,294257,4924848,0.224,1953,-0.77,161,2.19,very low
145,682,Kristiansund,63.114,7.734,Europe,Norway,NOR,11.740324232723598,25.0,294257,4924848,0.443,1953,-0.74,161,2.19,very low
146,758,Hammerfest,70.665,23.683000000000003,Europe,Norway,NOR,11.740324232723598,25.0,294257,4924848,1.055,1957,0.87,161,2.19,very low
147,1113,Helgeroa,58.995,9.856,Europe,Norway,NOR,11.740324232723598,25.0,294257,4924848,-0.701,1984,-0.51,161,2.19,very low
148,1241,Rorvik,64.859,11.23,Europe,Norway,NOR,11.740324232723598,25.0,294257,4924848,-0.991,1970,-0.79,161,2.19,very low
149,41,Poti,42.167,41.683,Europe,Georgia,GEO,1.9888813559322,147.0,176485,4329026,8.651,1874,6.75,88,6.27,middle
150,41,Poti,42.167,41.683,Asia,Georgia,GEO,1.9888813559322,147.0,176485,4329026,8.651,1874,6.75,88,6.27,middle
151,69,Olands Norra Udde,57.36600000000001,17.097,Europe,Sweden,SWE,4.61718188417353,98.0,678429,9440747,-1.087,1887,-1.09,162,2.12,very low
152,70,Kungsholmsfort,56.105,15.589,Europe,Sweden,SWE,4.61718188417353,98.0,678429,9440747,0.233,1887,0.03,162,2.12,very low
153,78,Stockholm,59.324,18.082,Europe,Sweden,SWE,4.61718188417353,98.0,678429,9440747,-2.901,1889,-3.78,162,2.12,very low
154,88,Ratan,63.986,20.895,Europe,Sweden,SWE,4.61718188417353,98.0,678429,9440747,-7.231,1892,-7.72,162,2.12,very low
155,179,Smogen,58.354,11.218,Europe,Sweden,SWE,4.61718188417353,98.0,678429,9440747,0.199,1911,-1.79,162,2.12,very low
156,203,Furuogrund,64.916,21.231,Europe,Sweden,SWE,4.61718188417353,98.0,678429,9440747,-5.785,1916,-7.98,162,2.12,very low
157,330,Klagshamn,55.522,12.894,Europe,Sweden,SWE,4.61718188417353,98.0,678429,9440747,0.382,1930,0.53,162,2.12,very low
158,1211,Spikarna,62.363,17.531,Europe,Sweden,SWE,4.61718188417353,98.0,678429,9440747,-5.903,1969,-6.13,162,2.12,very low
159,1236,Goteborg - Torshamnen,57.685,11.791,Europe,Sweden,SWE,4.61718188417353,98.0,678429,9440747,0.572,1969,0.48,162,2.12,very low
160,2101,Kalix,65.697,23.096,Europe,Sweden,SWE,4.61718188417353,98.0,678429,9440747,-5.223,1975,-5.61,162,2.12,very low
161,2103,Forsmark,60.409,18.211,Europe,Sweden,SWE,4.61718188417353,98.0,678429,9440747,-4.521,1976,-4.28,162,2.12,very low
162,2104,Marviken,58.554,16.837,Europe,Sweden,SWE,4.61718188417353,98.0,678429,9440747,-2.374,1965,-1.98,162,2.12,very low
163,2105,Visby,57.639,18.284,Europe,Sweden,SWE,4.61718188417353,98.0,678429,9440747,-1.132,1916,-1.13,162,2.12,very low
164,2106,Oskarshamn,57.275,16.477999999999998,Europe,Sweden,SWE,4.61718188417353,98.0,678429,9440747,-0.322,1961,-0.4,162,2.12,very low
165,2107,Simrishamn,55.558,14.358,Europe,Sweden,SWE,4.61718188417353,98.0,678429,9440747,0.683,1983,0.48,162,2.12,very low
166,2110,Viken,56.142,12.579,Europe,Sweden,SWE,4.61718188417353,98.0,678429,9440747,0.956,1977,1.11,162,2.12,very low
167,2111,Ringhals,57.25,12.113,Europe,Sweden,SWE,4.61718188417353,98.0,678429,9440747,-0.192,1968,0.26,162,2.12,very low
168,2112,Stenungsund,58.093,11.833,Europe,Sweden,SWE,4.61718188417353,98.0,678429,9440747,-1.158,1966,-0.86,162,2.12,very low
169,2113,Kungsvik,58.997,11.127,Europe,Sweden,SWE,4.61718188417353,98.0,678429,9440747,-1.182,1974,-1.32,162,2.12,very low
170,76,Aarhus,56.147,10.224,Europe,Denmark,DNK,6.77962386721691,63.0,1492575,5572594,2.627,1889,0.61,149,2.89,very low
171,80,Esbjerg,55.46100000000001,8.441,Europe,Denmark,DNK,6.77962386721691,63.0,1492575,5572594,2.677,1889,1.24,149,2.89,very low
172,81,Fredericia,55.56100000000001,9.754,Europe,Denmark,DNK,6.77962386721691,63.0,1492575,5572594,2.008,1890,1.09,149,2.89,very low
173,82,Kobenhavn,55.705,12.6,Europe,Denmark,DNK,6.77962386721691,63.0,1492575,5572594,1.811,1889,0.55,149,2.89,very low
174,89,Hirtshals,57.596,9.964,Europe,Denmark,DNK,6.77962386721691,63.0,1492575,5572594,-0.209,1892,-0.22,149,2.89,very low
175,91,Frederikshavn,57.43600000000001,10.549,Europe,Denmark,DNK,6.77962386721691,63.0,1492575,5572594,-0.983,1894,0.1,149,2.89,very low
176,98,Slipshavn,55.288,10.828,Europe,Denmark,DNK,6.77962386721691,63.0,1492575,5572594,2.143,1896,1.04,149,2.89,very low
177,113,Korsor,55.332,11.142,Europe,Denmark,DNK,6.77962386721691,63.0,1492575,5572594,1.917,1897,0.84,149,2.89,very low
178,119,Hornbaek,56.091,12.458,Europe,Denmark,DNK,6.77962386721691,63.0,1492575,5572594,2.673,1891,0.4,149,2.89,very low
179,120,Gedser,54.573,11.925999999999998,Europe,Denmark,DNK,6.77962386721691,63.0,1492575,5572594,2.389,1892,1.19,149,2.89,very low
180,703,Hanstholm,57.119,8.596,Europe,Denmark,DNK,6.77962386721691,63.0,1492575,5572594,2.609,1953,2.01,149,2.89,very low
181,762,Rodbyhavn,54.65600000000001,11.349,Europe,Denmark,DNK,6.77962386721691,63.0,1492575,5572594,1.164,1955,1.48,149,2.89,very low
182,1197,Fynshav,54.995,9.987,Europe,Denmark,DNK,6.77962386721691,63.0,1492575,5572594,1.778,1968,2.27,149,2.89,very low
183,126,Trois-Rivieres,46.333,-72.55,North America,Canada,CAN,13.532294848097598,20.0,1300770,34349561,-7.87,1925,-1.17,145,3.01,very low
184,144,Batiscan,46.5,-72.25,North America,Canada,CAN,13.532294848097598,20.0,1300770,34349561,-4.143,1961,-1.34,145,3.01,very low
185,165,Tofino,49.15,-125.917,North America,Canada,CAN,13.532294848097598,20.0,1300770,34349561,0.663,1910,-1.27,145,3.01,very low
186,166,Victoria,48.417,-123.367,North America,Canada,CAN,13.532294848097598,20.0,1300770,34349561,1.718,1910,0.73,145,3.01,very low
187,167,Prince Rupert,54.317,-130.333,North America,Canada,CAN,13.532294848097598,20.0,1300770,34349561,2.035,1909,1.19,145,3.01,very low
188,173,Quebec (Lauzon),46.833,-71.167,North America,Canada,CAN,13.532294848097598,20.0,1300770,34349561,1.29,1911,0.1,145,3.01,very low
189,192,Neuville,46.7,-71.567,North America,Canada,CAN,13.532294848097598,20.0,1300770,34349561,0.666,1961,-0.05,145,3.01,very low
190,193,Point Atkinson,49.333,-123.25,North America,Canada,CAN,13.532294848097598,20.0,1300770,34349561,2.251,1915,1.02,145,3.01,very low
191,195,"Saint John, N.B.",45.267,-66.067,North America,Canada,CAN,13.532294848097598,20.0,1300770,34349561,1.996,1929,2.26,145,3.01,very low
192,201,Deschaillons,46.567,-72.1,North America,Canada,CAN,13.532294848097598,20.0,1300770,34349561,-2.144,1960,-0.93,145,3.01,very low
193,392,Port Aux Basques,47.567,-59.133,North America,Canada,CAN,13.532294848097598,20.0,1300770,34349561,3.314,1959,2.68,145,3.01,very low
194,393,"St. John'S, Nfld.",47.567,-52.717,North America,Canada,CAN,13.532294848097598,20.0,1300770,34349561,1.836,1957,1.84,145,3.01,very low
195,427,Charlottetown,46.233,-63.117,North America,Canada,CAN,13.532294848097598,20.0,1300770,34349561,3.814,1938,3.08,145,3.01,very low
196,447,Churchill,58.767,-94.183,North America,Canada,CAN,13.532294848097598,20.0,1300770,34349561,-7.162,1940,-8.99,145,3.01,very low
197,829,Queen Charlotte City,53.25,-132.067,North America,Canada,CAN,13.532294848097598,20.0,1300770,34349561,1.655,1966,0.09,145,3.01,very low
198,984,Bella Bella,52.167,-128.13299999999998,North America,Canada,CAN,13.532294848097598,20.0,1300770,34349561,0.912,1962,-0.02,145,3.01,very low
199,999,St-Francois,47.0,-70.817,North America,Canada,CAN,13.532294848097598,20.0,1300770,34349561,1.821,1963,0.25,145,3.01,very low
200,1071,Port Hardy,50.717,-127.483,North America,Canada,CAN,13.532294848097598,20.0,1300770,34349561,0.43,1965,-0.54,145,3.01,very low
201,1152,Patricia Bay,48.65,-123.45,North America,Canada,CAN,13.532294848097598,20.0,1300770,34349561,1.916,1977,0.81,145,3.01,very low
202,1158,Yarmouth,43.833,-66.133,North America,Canada,CAN,13.532294848097598,20.0,1300770,34349561,4.244,1967,3.53,145,3.01,very low
203,1213,Riviere-Au-Renard,49.0,-64.383,North America,Canada,CAN,13.532294848097598,20.0,1300770,34349561,2.159,1969,0.57,145,3.01,very low
204,1242,Bamfield,48.85,-125.133,North America,Canada,CAN,13.532294848097598,20.0,1300770,34349561,0.221,1971,-0.08,145,3.01,very low
205,1244,St-Joseph-De-La-Rive,47.45,-70.367,North America,Canada,CAN,13.532294848097598,20.0,1300770,34349561,0.99,1980,-0.91,145,3.01,very low
206,1245,New Westminster,49.2,-122.917,North America,Canada,CAN,13.532294848097598,20.0,1300770,34349561,3.622,1970,-0.91,145,3.01,very low
207,1299,North Sydney,46.217,-60.25,North America,Canada,CAN,13.532294848097598,20.0,1300770,34349561,4.211,1970,3.44,145,3.01,very low
208,1321,Argentia,47.3,-53.983,North America,Canada,CAN,13.532294848097598,20.0,1300770,34349561,2.496,1972,2.3,145,3.01,very low
209,1322,Sept-Iles,50.2,-66.4,North America,Canada,CAN,13.532294848097598,20.0,1300770,34349561,0.01,1981,0.27,145,3.01,very low
210,1323,Campbell River,50.017,-125.233,North America,Canada,CAN,13.532294848097598,20.0,1300770,34349561,-0.359,1967,-1.7,145,3.01,very low
211,1349,Lower Escuminac,47.083,-64.883,North America,Canada,CAN,13.532294848097598,20.0,1300770,34349561,4.172,1973,2.81,145,3.01,very low
212,1597,Rimouski,48.483,-68.517,North America,Canada,CAN,13.532294848097598,20.0,1300770,34349561,0.414,1985,0.41,145,3.01,very low
213,111,Fremantle,-32.066,115.748,Oceania,Australia,AUS,16.3473020462161,12.0,2662710,22605732,4.769,1897,1.7,121,4.22,low
214,189,Port Hedland,-20.318,118.574,Oceania,Australia,AUS,16.3473020462161,12.0,2662710,22605732,4.756,1966,2.28,121,4.22,low
215,196,"Sydney, Fort Denison 2",-33.855,151.226,Oceania,Australia,AUS,16.3473020462161,12.0,2662710,22605732,1.611,1915,0.96,121,4.22,low
216,216,Port Pirie,-33.178000000000004,138.012,Oceania,Australia,AUS,16.3473020462161,12.0,2662710,22605732,3.931,1941,1.15,121,4.22,low
217,230,Port Lincoln,-34.716,135.87,Oceania,Australia,AUS,16.3473020462161,12.0,2662710,22605732,2.621,1966,1.89,121,4.22,low
218,448,Port Adelaide (Outer Harbor),-34.78,138.481,Oceania,Australia,AUS,16.3473020462161,12.0,2662710,22605732,3.587,1941,2.36,121,4.22,low
219,564,Mackay,-21.1,149.233,Oceania,Australia,AUS,16.3473020462161,12.0,2662710,22605732,3.466,1966,2.17,121,4.22,low
220,637,Townsville I,-19.25,146.833,Oceania,Australia,AUS,16.3473020462161,12.0,2662710,22605732,3.505,1959,1.94,121,4.22,low
221,822,Brisbane (West Inner Bar),-27.367,153.167,Oceania,Australia,AUS,16.3473020462161,12.0,2662710,22605732,3.268,1966,0.64,121,4.22,low
222,825,Gladstone,-23.854,151.314,Oceania,Australia,AUS,16.3473020462161,12.0,2662710,22605732,3.886,1978,3.11,121,4.22,low
223,834,Bunbury,-33.323,115.66,Oceania,Australia,AUS,16.3473020462161,12.0,2662710,22605732,3.028,1958,1.68,121,4.22,low
224,835,Karumba,-17.5,140.833,Oceania,Australia,AUS,16.3473020462161,12.0,2662710,22605732,3.508,1985,3.51,121,4.22,low
225,837,Newcastle V,-32.924,151.789,Oceania,Australia,AUS,16.3473020462161,12.0,2662710,22605732,2.303,1966,1.42,121,4.22,low
226,1069,Victor Harbour,-35.562,138.635,Oceania,Australia,AUS,16.3473020462161,12.0,2662710,22605732,2.129,1966,1.1,121,4.22,low
227,1115,Carnarvon,-24.899,113.651,Oceania,Australia,AUS,16.3473020462161,12.0,2662710,22605732,3.624,1967,2.31,121,4.22,low
228,1116,Wyndham,-15.453,128.101,Oceania,Australia,AUS,16.3473020462161,12.0,2662710,22605732,5.479,1985,5.48,121,4.22,low
229,1154,"Bundaberg, Burnett Heads",-24.767,152.38299999999995,Oceania,Australia,AUS,16.3473020462161,12.0,2662710,22605732,3.359,1966,1.55,121,4.22,low
230,1157,Weipa,-12.667,141.86700000000005,Oceania,Australia,AUS,16.3473020462161,12.0,2662710,22605732,3.468,1966,3.46,121,4.22,low
231,1246,Hay Point,-21.283,149.3,Oceania,Australia,AUS,16.3473020462161,12.0,2662710,22605732,3.708,1985,3.71,121,4.22,low
232,1328,Cape Lambert,-20.588,117.186,Oceania,Australia,AUS,16.3473020462161,12.0,2662710,22605732,4.47,1984,4.04,121,4.22,low
233,1420,Wallaroo Ii,-33.926,137.615,Oceania,Australia,AUS,16.3473020462161,12.0,2662710,22605732,1.67,1983,0.49,121,4.22,low
234,1549,King Bay,-20.624,116.749,Oceania,Australia,AUS,16.3473020462161,12.0,2662710,22605732,3.888,1983,4.71,121,4.22,low
235,1629,Mourilyan Harbour,-17.583,146.083,Oceania,Australia,AUS,16.3473020462161,12.0,2662710,22605732,4.156,1985,4.16,121,4.22,low
236,1630,Lucinda,-18.517,146.38299999999995,Oceania,Australia,AUS,16.3473020462161,12.0,2662710,22605732,3.966,1986,3.74,121,4.22,low
237,1631,Onslow,-21.65,115.132,Oceania,Australia,AUS,16.3473020462161,12.0,2662710,22605732,4.901,1986,4.99,121,4.22,low
238,2316,Port Stephens (Tomaree),-32.715,152.18200000000004,Oceania,Australia,AUS,16.3473020462161,12.0,2662710,22605732,2.63,1986,2.98,121,4.22,low
239,118,Klaipeda,55.7,21.133000000000006,Europe,Lithuania,LTU,4.27365723711993,104.0,164111,3307481,3.496,1898,1.48,148,2.92,very low
240,130,Aburatsubo,35.16,139.615,Asia,Japan,JPN,9.764393145108741,31.0,29241996,126497241,5.47,1930,3.64,17,12.99,very high
241,131,Ayukawa,38.297,141.505,Asia,Japan,JPN,9.764393145108741,31.0,29241996,126497241,7.18,1959,5.26,17,12.99,very high
242,132,Wajima,37.406,136.9,Asia,Japan,JPN,9.764393145108741,31.0,29241996,126497241,2.584,1930,-0.1,17,12.99,very high
243,133,Hosojima,32.429,131.66899999999998,Asia,Japan,JPN,9.764393145108741,31.0,29241996,126497241,2.315,1930,-0.13,17,12.99,very high
244,134,Kushimoto,33.476,135.773,Asia,Japan,JPN,9.764393145108741,31.0,29241996,126497241,7.04,1958,3.77,17,12.99,very high
245,407,Uchiura,35.017,138.89,Asia,Japan,JPN,9.764393145108741,31.0,29241996,126497241,3.24,1944,-0.28,17,12.99,very high
246,518,Kushiro,42.976000000000006,144.371,Asia,Japan,JPN,9.764393145108741,31.0,29241996,126497241,7.702,1947,8.88,17,12.99,very high
247,701,Kainan,34.144,135.191,Asia,Japan,JPN,9.764393145108741,31.0,29241996,126497241,0.056,1953,-1.55,17,12.99,very high
248,721,Asamushi,40.898,140.859,Asia,Japan,JPN,9.764393145108741,31.0,29241996,126497241,0.441,1955,0.93,17,12.99,very high
249,722,Yokosuka,35.28800000000001,139.651,Asia,Japan,JPN,9.764393145108741,31.0,29241996,126497241,5.645,1957,4.9,17,12.99,very high
250,753,Kashiwazaki,37.357,138.50799999999998,Asia,Japan,JPN,9.764393145108741,31.0,29241996,126497241,3.17,1956,1.15,17,12.99,very high
251,808,Shimizu-Minato,35.012,138.518,Asia,Japan,JPN,9.764393145108741,31.0,29241996,126497241,7.68,1958,5.73,17,12.99,very high
252,809,Komatsushima,34.009,134.588,Asia,Japan,JPN,9.764393145108741,31.0,29241996,126497241,3.448,1958,2.19,17,12.99,very high
253,810,Misumi,32.623000000000005,130.451,Asia,Japan,JPN,9.764393145108741,31.0,29241996,126497241,5.06,1957,2.46,17,12.99,very high
254,811,Sakai,35.548,133.243,Asia,Japan,JPN,9.764393145108741,31.0,29241996,126497241,5.196,1958,2.33,17,12.99,very high
255,812,Uno,34.489000000000004,133.94899999999998,Asia,Japan,JPN,9.764393145108741,31.0,29241996,126497241,4.888,1958,5.06,17,12.99,very high
256,813,Hakodate I,41.782,140.725,Asia,Japan,JPN,9.764393145108741,31.0,29241996,126497241,-2.243,1961,-0.79,17,12.99,very high
257,814,Aburatsu,31.577,131.409,Asia,Japan,JPN,9.764393145108741,31.0,29241996,126497241,4.181,1960,2.06,17,12.99,very high
258,815,Tosa Shimizu,32.779,132.959,Asia,Japan,JPN,9.764393145108741,31.0,29241996,126497241,4.69,1958,1.62,17,12.99,very high
259,816,Wakayama,34.222,135.14600000000002,Asia,Japan,JPN,9.764393145108741,31.0,29241996,126497241,0.616,1958,-0.39,17,12.99,very high
260,817,Tan-Nowa,34.339,135.178,Asia,Japan,JPN,9.764393145108741,31.0,29241996,126497241,3.665,1958,1.95,17,12.99,very high
261,1027,Oshoro Ii,43.209,140.858,Asia,Japan,JPN,9.764393145108741,31.0,29241996,126497241,0.794,1963,0.55,17,12.99,very high
262,1028,Hirosima,34.353,132.465,Asia,Japan,JPN,9.764393145108741,31.0,29241996,126497241,6.088,1964,4.61,17,12.99,very high
263,1062,Matsuyama Ii,33.859,132.71200000000002,Asia,Japan,JPN,9.764393145108741,31.0,29241996,126497241,1.812,1964,0.13,17,12.99,very high
264,1090,Uragami,33.558,135.89600000000002,Asia,Japan,JPN,9.764393145108741,31.0,29241996,126497241,4.046,1965,2.06,17,12.99,very high
265,1091,Okada,34.789,139.391,Asia,Japan,JPN,9.764393145108741,31.0,29241996,126497241,-0.858,1965,-1.04,17,12.99,very high
266,1093,Awa Sima,38.468,139.255,Asia,Japan,JPN,9.764393145108741,31.0,29241996,126497241,4.839,1968,3.74,17,12.99,very high
267,1094,Hakata,33.619,130.408,Asia,Japan,JPN,9.764393145108741,31.0,29241996,126497241,3.904,1966,2.03,17,12.99,very high
268,1095,Saigo,36.201,133.33100000000002,Asia,Japan,JPN,9.764393145108741,31.0,29241996,126497241,3.637,1965,1.96,17,12.99,very high
269,1096,Nisinoomote,30.735,130.99200000000002,Asia,Japan,JPN,9.764393145108741,31.0,29241996,126497241,3.28,1966,2.29,17,12.99,very high
270,1097,Odomari,31.024,130.689,Asia,Japan,JPN,9.764393145108741,31.0,29241996,126497241,3.844,1966,1.9,17,12.99,very high
271,1098,Sumoto,34.341,134.907,Asia,Japan,JPN,9.764393145108741,31.0,29241996,126497241,4.37,1965,2.93,17,12.99,very high
272,1100,Nagasaki,32.735,129.866,Asia,Japan,JPN,9.764393145108741,31.0,29241996,126497241,3.698,1965,2.52,17,12.99,very high
273,1101,Fukue,32.696,128.849,Asia,Japan,JPN,9.764393145108741,31.0,29241996,126497241,2.973,1965,1.38,17,12.99,very high
274,1102,Oura,32.977,130.221,Asia,Japan,JPN,9.764393145108741,31.0,29241996,126497241,3.66,1965,2.93,17,12.99,very high
275,1103,Wakkanai,45.408,141.685,Asia,Japan,JPN,9.764393145108741,31.0,29241996,126497241,3.122,1975,3.53,17,12.99,very high
276,1104,Abashiri,44.019,144.286,Asia,Japan,JPN,9.764393145108741,31.0,29241996,126497241,2.679,1965,1.29,17,12.99,very high
277,1105,Nakano Sima,29.842,129.84799999999998,Asia,Japan,JPN,9.764393145108741,31.0,29241996,126497241,4.073,1984,4.08,17,12.99,very high
278,1146,Owase,34.076,136.207,Asia,Japan,JPN,9.764393145108741,31.0,29241996,126497241,-0.462,1967,-1.31,17,12.99,very high
279,1147,Sasebo Ii,33.158,129.724,Asia,Japan,JPN,9.764393145108741,31.0,29241996,126497241,3.801,1967,2.07,17,12.99,very high
280,1148,Tajiri,35.594,134.316,Asia,Japan,JPN,9.764393145108741,31.0,29241996,126497241,3.916,1966,2.93,17,12.99,very high
281,1149,Miyako Ii,39.643,141.975,Asia,Japan,JPN,9.764393145108741,31.0,29241996,126497241,4.288,1967,3.21,17,12.99,very high
282,1150,Shirahama,33.684,135.375,Asia,Japan,JPN,9.764393145108741,31.0,29241996,126497241,2.539,1967,0.12,17,12.99,very high
283,1151,Naha,26.213,127.665,Asia,Japan,JPN,9.764393145108741,31.0,29241996,126497241,2.702,1967,2.13,17,12.99,very high
284,1190,Mikuni,36.255,136.149,Asia,Japan,JPN,9.764393145108741,31.0,29241996,126497241,6.023,1968,4.09,17,12.99,very high
285,1191,Katsuura,35.129,140.249,Asia,Japan,JPN,9.764393145108741,31.0,29241996,126497241,2.992,1968,2.24,17,12.99,very high
286,1209,Kure Iv,34.241,132.55,Asia,Japan,JPN,9.764393145108741,31.0,29241996,126497241,4.687,1968,3.46,17,12.99,very high
287,1210,Tokuyama Ii,34.041,131.803,Asia,Japan,JPN,9.764393145108741,31.0,29241996,126497241,5.193,1968,2.84,17,12.99,very high
288,1212,Uwajima Ii,33.227,132.55100000000002,Asia,Japan,JPN,9.764393145108741,31.0,29241996,126497241,1.465,1969,-0.07,17,12.99,very high
289,1263,Omaezaki Ii,34.608000000000004,138.222,Asia,Japan,JPN,9.764393145108741,31.0,29241996,126497241,8.813,1971,7.71,17,12.99,very high
290,1264,Oga,39.942,139.70600000000002,Asia,Japan,JPN,9.764393145108741,31.0,29241996,126497241,-0.493,1970,-1.56,17,12.99,very high
291,1265,Akune,32.018,130.191,Asia,Japan,JPN,9.764393145108741,31.0,29241996,126497241,2.944,1971,1.18,17,12.99,very high
292,1266,Hachinohe Ii,40.532,141.528,Asia,Japan,JPN,9.764393145108741,31.0,29241996,126497241,4.953,1971,2.69,17,12.99,very high
293,1293,Oita Ii,33.266,131.687,Asia,Japan,JPN,9.764393145108741,31.0,29241996,126497241,3.654,1972,1.43,17,12.99,very high
294,1318,Kariya,33.473,129.849,Asia,Japan,JPN,9.764393145108741,31.0,29241996,126497241,3.245,1972,1.87,17,12.99,very high
295,1320,Kure I,33.334,133.243,Asia,Japan,JPN,9.764393145108741,31.0,29241996,126497241,0.327,1973,-2.1,17,12.99,very high
296,1344,Ogi,37.815,138.281,Asia,Japan,JPN,9.764393145108741,31.0,29241996,126497241,1.281,1974,1.03,17,12.99,very high
297,1345,Soma,37.831,140.96200000000005,Asia,Japan,JPN,9.764393145108741,31.0,29241996,126497241,5.714,1974,4.71,17,12.99,very high
298,1364,Ofunato Ii,39.02,141.753,Asia,Japan,JPN,9.764393145108741,31.0,29241996,126497241,5.641,1974,4.71,17,12.99,very high
299,1386,Kuchinotsu,32.605,130.195,Asia,Japan,JPN,9.764393145108741,31.0,29241996,126497241,3.971,1975,3.15,17,12.99,very high
300,1387,Maizuru Ii,35.477,135.387,Asia,Japan,JPN,9.764393145108741,31.0,29241996,126497241,4.821,1975,4.2,17,12.99,very high
301,1388,Okinawa,26.179,127.824,Asia,Japan,JPN,9.764393145108741,31.0,29241996,126497241,1.827,1976,1.16,17,12.99,very high
302,1389,Toyama,36.762,137.225,Asia,Japan,JPN,9.764393145108741,31.0,29241996,126497241,4.486,1975,3.68,17,12.99,very high
303,1390,Murotomisaki,33.266,134.164,Asia,Japan,JPN,9.764393145108741,31.0,29241996,126497241,9.444,1976,8.03,17,12.99,very high
304,1391,Chichijima,27.083,142.183,Asia,Japan,JPN,9.764393145108741,31.0,29241996,126497241,2.962,1976,3.35,17,12.99,very high
305,1437,Tago,34.806999999999995,138.764,Asia,Japan,JPN,9.764393145108741,31.0,29241996,126497241,5.659,1981,5.15,17,12.99,very high
306,1438,Yaizu,34.871,138.327,Asia,Japan,JPN,9.764393145108741,31.0,29241996,126497241,5.559,1981,5.59,17,12.99,very high
307,1440,Kaminato Ii (Hatizyo Sima),33.13,139.805,Asia,Japan,JPN,9.764393145108741,31.0,29241996,126497241,0.47,1981,2.2,17,12.99,very high
308,1488,Nagoya Ii,35.091,136.881,Asia,Japan,JPN,9.764393145108741,31.0,29241996,126497241,-1.841,1980,-2.54,17,12.99,very high
309,1522,Nase Iii,28.5,129.5,Asia,Japan,JPN,9.764393145108741,31.0,29241996,126497241,2.208,1981,2.05,17,12.99,very high
310,1544,Choshi-Gyoko,35.744,140.858,Asia,Japan,JPN,9.764393145108741,31.0,29241996,126497241,4.035,1982,3.45,17,12.99,very high
311,1545,Tokyo Iii,35.649,139.77,Asia,Japan,JPN,9.764393145108741,31.0,29241996,126497241,1.991,1983,1.69,17,12.99,very high
312,1567,Kochi Iii,33.499,133.569,Asia,Japan,JPN,9.764393145108741,31.0,29241996,126497241,3.099,1984,3.25,17,12.99,very high
313,1585,Hamada Ii,34.897,132.066,Asia,Japan,JPN,9.764393145108741,31.0,29241996,126497241,5.042,1985,5.04,17,12.99,very high
314,1586,Izuhara Ii,34.198,129.292,Asia,Japan,JPN,9.764393145108741,31.0,29241996,126497241,2.962,1985,2.96,17,12.99,very high
315,1587,Tappi,41.243,140.381,Asia,Japan,JPN,9.764393145108741,31.0,29241996,126497241,0.268,1985,0.27,17,12.99,very high
316,221,Wellington Harbour,-41.284,174.78,Oceania,New Zealand,NZL,7.645052340109411,50.0,560959,4414509,3.572,1945,2.65,116,4.55,low
317,1065,Whangarei Harbour (Marsden Point),-35.757,174.35,Oceania,New Zealand,NZL,7.645052340109411,50.0,560959,4414509,3.014,1985,3.01,116,4.55,low
318,1590,Tauranga (Salisbury Wharf),-37.641,176.18099999999995,Oceania,New Zealand,NZL,7.645052340109411,50.0,560959,4414509,3.679,1985,3.68,116,4.55,low
319,394,Cebu,10.3,123.917,Asia,Philippines,PHL,1.0068386034488102,181.0,14121488,94852030,3.979,1948,0.98,3,26.7,very high
320,154,Trieste,45.647,13.758,Europe,Italy,ITA,5.723809985027049,84.0,5304525,60788694,3.474,1875,1.29,119,4.42,low
321,163,Balboa,8.967,-79.567,North America,Panama,PAN,2.72301765543793,135.0,306782,3571185,2.835,1908,1.5,65,7.26,high
322,174,Ko Lak,11.8,99.817,Asia,Thailand,THA,4.4938694843231,100.0,17309591,69518555,4.636,1940,1.32,89,6.19,middle
323,446,Ko Taphao Noi,7.832999999999998,98.433,Asia,Thailand,THA,4.4938694843231,100.0,17309591,69518555,6.057,1940,1.57,89,6.19,middle
324,543,Diamond Harbour,22.2,88.167,Asia,India,IND,1.59027282895444,164.0,84941245,1241491960,3.145,1948,4.01,77,6.64,middle
325,1270,Haldia,22.033,88.1,Asia,India,IND,1.59027282895444,164.0,84941245,1241491960,2.275,1971,2.7,77,6.64,middle
326,1589,Tanjung Gelang,3.975,103.43,Asia,Malaysia,MYS,8.02672706796303,45.0,6215003,28859154,3.133,1984,2.71,86,6.39,middle
327,1591,Pelabuhan Kelang,3.05,101.358,Asia,Malaysia,MYS,8.02672706796303,45.0,6215003,28859154,2.893,1984,2.3,86,6.39,middle
328,1592,Cendering,5.265,103.187,Asia,Malaysia,MYS,8.02672706796303,45.0,6215003,28859154,3.131,1985,3.42,86,6.39,middle
329,1593,Tanjung Keling,2.215,102.153,Asia,Malaysia,MYS,8.02672706796303,45.0,6215003,28859154,2.533,1985,2.53,86,6.39,middle
330,1594,Lumut,4.24,100.613,Asia,Malaysia,MYS,8.02672706796303,45.0,6215003,28859154,2.479,1985,2.48,86,6.39,middle
331,1595,Pulau Pinang,5.4220000000000015,100.347,Asia,Malaysia,MYS,8.02672706796303,45.0,6215003,28859154,3.437,1986,4.17,86,6.39,middle
332,352,Split - Gradska Luka,43.507,16.442,Europe,Croatia,HRV,4.1618666213626,108.0,115291,4395560,3.895,1955,1.11,125,3.97,low
333,353,Bakar,45.3,14.533,Europe,Croatia,HRV,4.1618666213626,108.0,115291,4395560,3.242,1930,1.19,125,3.97,low
334,685,Split Rt Marjana,43.508,16.392,Europe,Croatia,HRV,4.1618666213626,108.0,115291,4395560,-1.843,1953,-0.33,125,3.97,low
335,760,Dubrovnik,42.658,18.063,Europe,Croatia,HRV,4.1618666213626,108.0,115291,4395560,4.107,1956,1.65,125,3.97,low
336,761,Rovinj,45.083,13.628,Europe,Croatia,HRV,4.1618666213626,108.0,115291,4395560,2.392,1956,0.89,125,3.97,low
337,373,Thessaloniki,40.633,22.935,Europe,Greece,GRC,6.30685109479425,70.0,927234,11390031,5.894,1969,3.72,76,6.7,middle
338,408,Khios,38.372,26.141,Europe,Greece,GRC,6.30685109479425,70.0,927234,11390031,4.52,1975,3.66,76,6.7,middle
339,410,Preveza,38.959,20.757,Europe,Greece,GRC,6.30685109479425,70.0,927234,11390031,2.572,1969,-0.2,76,6.7,middle
340,1232,Soudhas,35.48699999999999,24.082,Europe,Greece,GRC,6.30685109479425,70.0,927234,11390031,3.076,1969,0.25,76,6.7,middle
341,1233,Leros,37.13,26.848000000000006,Europe,Greece,GRC,6.30685109479425,70.0,927234,11390031,1.044,1977,1.29,76,6.7,middle
342,1234,Siros,37.44,24.946,Europe,Greece,GRC,6.30685109479425,70.0,927234,11390031,-0.784,1969,-3.33,76,6.7,middle
343,1237,Khalkis North,38.472,23.593000000000004,Europe,Greece,GRC,6.30685109479425,70.0,927234,11390031,3.258,1969,0.59,76,6.7,middle
344,1238,Alexandroupolis,40.844,25.878,Europe,Greece,GRC,6.30685109479425,70.0,927234,11390031,3.974,1969,2.08,76,6.7,middle
345,1239,Levkas,38.835,20.712,Europe,Greece,GRC,6.30685109479425,70.0,927234,11390031,7.318,1970,5.76,76,6.7,middle
346,1240,Katakolon,37.645,21.32,Europe,Greece,GRC,6.30685109479425,70.0,927234,11390031,4.692,1969,2.83,76,6.7,middle
347,413,Oostende,51.233,2.917,Europe,Belgium,BEL,8.37163927479096,42.0,2264375,10754056,2.314,1937,1.73,143,3.07,very low
348,470,Zeebrugge,51.35,3.2,Europe,Belgium,BEL,8.37163927479096,42.0,2264375,10754056,3.22,1962,2.77,143,3.07,very low
349,489,Nieuwpoort,51.15,2.733,Europe,Belgium,BEL,8.37163927479096,42.0,2264375,10754056,1.929,1967,2.62,143,3.07,very low
350,431,Montevideo (Punta Lobos),-34.9,-56.25,South America,Uruguay,URY,2.23163943099248,143.0,329223,3380008,0.555,1938,0.83,124,4.03,low
351,483,Vigo,42.238,-8.731,Europe,Spain,ESP,5.08298252393364,91.0,3556459,46454895,1.317,1944,2.16,144,3.05,very low
352,484,La Coruna I,43.369,-8.398,Europe,Spain,ESP,5.08298252393364,91.0,3556459,46454895,3.061,1944,2.4,144,3.05,very low
353,485,Santander I,43.46100000000001,-3.791,Europe,Spain,ESP,5.08298252393364,91.0,3556459,46454895,3.126,1944,2.26,144,3.05,very low
354,488,Tarifa,36.009,-5.603,Europe,Spain,ESP,5.08298252393364,91.0,3556459,46454895,4.526,1944,1.06,144,3.05,very low
355,496,Malaga,36.713,-4.415,Europe,Spain,ESP,5.08298252393364,91.0,3556459,46454895,3.62,1944,0.71,144,3.05,very low
356,498,Ceuta,35.892,-5.316,Europe,Spain,ESP,5.08298252393364,91.0,3556459,46454895,0.491,1945,0.62,144,3.05,very low
357,985,Cadiz Iii,36.54,-6.2860000000000005,Europe,Spain,ESP,5.08298252393364,91.0,3556459,46454895,2.055,1961,3.71,144,3.05,very low
358,510,Antofagasta 2,-23.653,-70.404,South America,Chile,CHL,4.73213571157623,96.0,214863,17269525,-0.437,1946,-0.79,22,11.65,very high
359,1272,Easter Island-E,-27.155,-109.473,South America,Chile,CHL,4.73213571157623,96.0,214863,17269525,0.235,1981,-0.23,22,11.65,very high
360,2261,Iquique Ii,-20.204,-70.148,South America,Chile,CHL,4.73213571157623,96.0,214863,17269525,-0.87,1986,-0.96,22,11.65,very high
361,563,Gibara,21.108,-76.125,North America,Cuba,CUB,3.46222738735869,123.0,1014837,11253665,1.827,1976,2.0,90,6.13,middle
362,638,Reykjavik,64.15100000000001,-21.94,Europe,Iceland,ISL,6.08214316600981,75.0,36207,324366,1.289,1957,2.21,166,1.52,very low
363,723,Dalian,38.867,121.683,Asia,China,CHN,7.55091648469846,52.0,163381088,1347565324,3.541,1954,2.15,85,6.39,middle
364,933,Zhapo,21.583,111.817,Asia,China,CHN,7.55091648469846,52.0,163381088,1347565324,2.577,1959,2.14,85,6.39,middle
365,934,Kanmen,28.083,121.283,Asia,China,CHN,7.55091648469846,52.0,163381088,1347565324,3.37,1959,2.24,85,6.39,middle
366,724,Sembawang,1.467,103.833,Asia,Singapore,SGP,9.363847389650472,34.0,1558272,5187933,2.361,1954,-0.85,159,2.27,very low
367,1248,Sultan Shoal,1.233,103.65,Asia,Singapore,SGP,9.363847389650472,34.0,1558272,5187933,3.531,1972,2.99,159,2.27,very low
368,819,Mar Del Plata (Naval Base),-38.033,-57.517,South America,Argentina,ARG,4.46229797972199,101.0,4139178,40764561,2.499,1958,0.91,129,3.56,low
369,832,Palermo,-34.567,-58.4,South America,Argentina,ARG,4.46229797972199,101.0,4139178,40764561,0.289,1960,1.61,129,3.56,low
370,1032,Ilha Fiscal,-22.897,-43.167,South America,Brazil,BRA,2.4658702351765203,140.0,13525900,196655014,0.352,1965,2.73,123,4.09,low
371,1327,Suva-A,-18.136,178.423,Oceania,Fiji,FJI,1.94076914253135,150.0,107090,868406,7.603,1973,6.49,16,13.15,very high
372,1371,Christmas Island Ii,1.983,-157.483,Oceania,Kiribati,KIR,0.5743200913915091,203.0,65881,101093,0.938,1974,0.98,164,1.78,very low
373,1645,Baltra-B,-0.433,-90.283,South America,Ecuador,ECU,2.7792875845906098,134.0,1955846,14666055,1.584,1986,1.16,58,7.53,high
