id,location,latitude,longitude,country,continent,c02_emissions,coastal_population2010_sum,total_population2010_sum,trend_1985_2015,start_year,trend_longest,_id,1985,1986,1987,1988,1989,1990,1991,1992,1993,1994,1995,1996,1997,1998,1999,2000,2001,2002,2003,2004,2005,2006,2007,2008,2009,2010,2011,2012,2013,2014,2015
1,브레스트,48.383,-4.495,FRA,europe,4.57,2983590.0,63125894.0,2.38,1807.0,2.38,1.0,0.0,-1.0,4.0,9.0,15.0,16.0,15.0,8.0,5.0,7.0,13.0,24.0,35.0,38.0,37.0,41.0,45.0,50.0,55.0,56.0,44.0,40.0,34.0,36.0,41.0,58.0,59.0,63.0,65.0,77.0,70.0
61,마르세유,43.278999999999996,5.354,FRA,europe,4.57,2983590.0,63125894.0,3.53,1885.0,3.53,61.0,0.0,5.0,9.0,8.0,8.0,9.0,13.0,1.0,3.0,6.0,9.0,19.0,33.0,27.0,34.0,40.0,33.0,36.0,48.0,54.0,55.0,56.0,53.0,56.0,70.0,113.0,109.0,119.0,126.0,135.0,100.0
453,르 아브르,49.482,0.106,FRA,europe,4.57,2983590.0,63125894.0,1.98,1959.0,1.98,453.0,0.0,-8.0,-1.0,3.0,15.0,10.0,5.0,-11.0,-19.0,-20.0,-13.0,-7.0,2.0,1.0,6.0,11.0,26.0,40.0,47.0,46.0,35.0,30.0,26.0,26.0,27.0,33.0,33.0,33.0,34.0,45.0,49.0
467,셰르부르,49.651,-1.636,FRA,europe,4.57,2983590.0,63125894.0,1.91,1975.0,1.91,467.0,0.0,6.0,4.0,4.0,5.0,1.0,-9.0,-19.0,-26.0,-22.0,-10.0,3.0,15.0,22.0,17.0,16.0,23.0,30.0,31.0,34.0,25.0,22.0,16.0,19.0,23.0,34.0,34.0,36.0,35.0,43.0,40.0
468,됭케르크,51.048,2.367,FRA,europe,4.57,2983590.0,63125894.0,,1957.0,,468.0,0.0,-4.0,14.0,38.0,23.0,21.0,18.0,-28.0,-66.0,-54.0,-50.0,-29.0,-10.0,-17.0,-12.0,-12.0,-8.0,15.0,21.0,20.0,15.0,4.0,5.0,10.0,8.0,9.0,6.0,1.0,0.0,7.0,12.0
469,생 장 드 뤼즈,43.395,-1.682,FRA,europe,4.57,2983590.0,63125894.0,,1966.0,,469.0,0.0,3.0,5.0,4.0,-1.0,3.0,10.0,5.0,13.0,30.0,39.0,40.0,50.0,47.0,50.0,47.0,41.25,35.5,29.75,24.0,8.0,9.0,5.0,3.0,3.0,15.0,17.0,24.0,39.0,61.0,52.0
471,블로뉴,50.728,1.577,FRA,europe,4.57,2983590.0,63125894.0,,,,,0.0,-4.0,-12.0,-6.0,-3.0,-5.0,-17.0,26.0,20.0,33.0,54.0,199.0,140.0,98.0,98.0,109.0,91.0,68.0,66.0,61.0,33.0,28.0,25.0,43.0,-12.0,-4.0,0.0,3.0,-19.0,47.0,51.0
474,디에프,49.928999999999995,1.084,FRA,europe,4.57,2983590.0,63125894.0,,1954.0,,474.0,0.0,-6.0,17.0,21.0,4.0,11.0,11.0,-17.0,-46.0,-29.0,-40.0,-40.0,-37.0,-34.0,-45.0,-29.0,7.0,55.0,55.0,52.0,49.0,46.0,46.0,44.0,55.0,66.0,77.0,80.0,81.0,92.0,95.0
1247,뽀흐 뚜디,47.644,-3.446,FRA,europe,4.57,2983590.0,63125894.0,2.97,1976.0,2.97,1247.0,0.0,-5.0,-2.0,-2.0,-1.0,-8.0,-9.0,-18.0,-20.0,-8.0,2.0,15.0,29.0,31.0,27.0,38.0,43.0,46.0,51.0,53.0,45.0,49.0,47.0,50.0,51.0,63.0,54.0,50.0,49.0,59.0,48.0
1294,르 꽁께,48.358999999999995,-4.7810000000000015,FRA,europe,4.57,2983590.0,63125894.0,3.54,1971.0,3.54,1294.0,0.0,-14.0,-14.0,-12.0,-9.0,-12.0,-11.0,-20.0,-20.0,-24.0,-12.0,4.0,26.0,33.0,46.0,49.0,46.0,55.0,57.0,56.0,46.0,50.0,34.0,35.0,39.0,54.0,54.0,62.0,67.0,81.0,77.0
1347,호스꼬프,48.718,-3.966,FRA,europe,4.57,2983590.0,63125894.0,1.99,1975.0,1.99,1347.0,0.0,-2.0,0.0,-3.0,-11.0,-15.0,-22.0,-35.0,-36.0,-40.0,-27.0,-13.0,0.0,1.0,7.0,9.0,11.0,6.0,14.0,17.0,5.0,6.0,7.0,5.0,11.0,21.0,17.0,21.0,21.0,30.0,27.0
1468,니스,43.69600000000001,7.2860000000000005,FRA,europe,4.57,2983590.0,63125894.0,2.83,1978.0,2.83,1468.0,0.0,0.0,3.0,-1.0,11.0,24.0,34.0,42.0,57.0,57.0,55.0,57.0,59.0,60.0,44.0,38.0,41.0,44.0,40.0,45.0,46.0,42.0,39.0,51.0,65.0,89.0,98.0,106.0,105.0,109.0,95.0
1469,뽀흐 벙드흐,42.52,3.1069999999999998,FRA,europe,4.57,2983590.0,63125894.0,,,,,0.0,3.0,11.0,11.0,11.0,10.0,10.0,4.0,5.0,9.0,11.0,27.0,35.0,40.0,47.0,67.0,49.0,53.0,57.0,61.0,64.0,67.0,53.0,57.0,68.0,86.0,88.0,100.0,105.0,109.0,95.0
1801,부꼬,43.527,-1.515,FRA,europe,4.57,2983590.0,63125894.0,2.99,1969.0,2.99,1801.0,0.0,-2.0,1.0,8.0,9.0,4.0,-5.0,-3.0,-19.0,-13.0,-4.0,23.0,20.0,36.0,56.0,70.0,74.0,70.0,74.0,70.0,54.0,42.0,31.0,21.0,28.0,47.0,49.0,55.0,70.0,85.0,86.0
3,쉬어니스,51.44600000000001,0.743,GBR,europe,6.5,6662984.0,62417431.0,,1968.0,,3.0,0.0,0.0,-4.0,-8.0,-4.0,-10.0,-24.0,-29.0,-41.0,-54.0,-57.0,-51.0,-46.0,-44.0,-40.0,-18.0,21.0,43.0,48.0,41.0,39.0,32.0,32.0,30.0,38.0,42.0,47.0,53.0,52.0,27.5,3.0
5,홀리헤드,53.31399999999999,-4.62,GBR,europe,6.5,6662984.0,62417431.0,,,,,0.0,-5.0,-8.0,-7.0,4.0,9.0,3.0,4.0,1.0,-19.0,-30.0,-10.0,-5.0,-5.0,3.0,17.0,27.0,39.0,35.0,37.0,30.0,40.0,34.0,33.0,36.0,48.0,50.0,67.0,71.0,81.0,77.0
95,노스 쉴즈,55.007,-1.44,GBR,europe,6.5,6662984.0,62417431.0,2.6,1896.0,2.6,95.0,0.0,-4.0,-9.0,-11.0,5.0,16.0,10.0,11.0,4.0,2.0,-5.0,-1.0,2.0,14.0,17.0,23.0,36.0,47.0,51.0,60.0,66.0,72.0,70.0,69.0,59.0,53.0,48.0,44.0,40.0,46.0,50.0
202,뉴린,50.103,-5.5429999999999975,GBR,europe,6.5,6662984.0,62417431.0,2.81,1916.0,2.81,202.0,0.0,-2.0,-2.0,-2.0,3.0,3.0,2.0,-9.0,-17.0,-20.0,-14.0,-2.0,11.0,15.0,14.0,12.0,8.0,23.0,36.0,42.0,40.0,48.0,37.0,39.0,48.0,69.0,62.0,62.0,61.0,67.0,54.0
255,도버,51.114,1.3230000000000002,GBR,europe,6.5,6662984.0,62417431.0,,,,,0.0,-9.0,-12.0,-13.0,-2.0,10.0,4.0,4.0,0.0,0.0,1.0,17.0,22.0,28.0,29.0,24.0,23.0,28.0,31.0,33.0,34.0,32.0,38.0,37.0,39.0,45.0,43.0,26.0,22.0,15.0,70.0
286,이밍햄,53.63,-0.187,GBR,europe,6.5,6662984.0,62417431.0,-1.04,1960.0,-1.04,286.0,0.0,-5.0,-14.0,-20.0,-4.0,4.0,-6.0,-11.0,-16.0,-24.0,-27.0,-20.0,-14.0,-3.0,2.0,0.0,-8.0,-17.0,-28.0,-37.0,-38.0,-23.0,-5.0,6.0,12.0,20.0,10.0,-7.0,-33.0,-58.0,
314,스토너웨이,58.208,-6.388999999999999,GBR,europe,6.5,6662984.0,62417431.0,2.64,1977.0,2.64,314.0,0.0,-4.0,-16.0,19.0,29.0,38.0,36.0,39.0,22.0,7.0,-8.0,-2.0,5.0,13.0,19.0,27.0,28.0,38.0,51.0,61.0,57.0,70.0,67.0,72.0,77.0,80.0,68.0,66.0,60.0,61.0,68.0
350,포츠머스,50.802,-1.111,GBR,europe,6.5,6662984.0,62417431.0,,,,,0.0,-7.0,-19.0,-16.0,-20.0,-27.0,-39.0,-48.0,-64.0,-61.0,-57.0,-49.0,-40.0,-38.0,-30.0,-24.0,-6.0,12.0,22.0,13.0,2.0,-5.0,-14.0,-14.0,-4.0,9.0,10.0,8.0,20.0,32.0,33.0
361,애버딘 1,57.144,-2.077,GBR,europe,6.5,6662984.0,62417431.0,1.24,1932.0,1.24,361.0,0.0,10.0,15.0,21.0,42.0,52.0,47.0,50.0,35.0,28.0,16.0,16.0,17.0,33.0,35.0,40.0,51.0,60.0,65.0,68.0,68.0,79.0,81.0,84.0,84.0,79.0,70.0,62.0,49.0,50.0,46.0
754,로웨스터프,52.473,1.75,GBR,europe,6.5,6662984.0,62417431.0,3.48,1956.0,3.48,754.0,0.0,-3.0,2.0,6.0,20.0,32.0,28.0,27.0,23.0,21.0,22.0,22.0,26.0,32.0,38.0,37.0,58.0,65.0,72.0,76.0,83.0,82.0,90.0,88.0,85.0,88.0,90.0,85.0,87.0,92.0,95.0
755,밀포트,55.75,-4.9060000000000015,GBR,europe,6.5,6662984.0,62417431.0,1.25,1986.0,1.25,755.0,0.0,-1.0,-3.0,5.0,11.0,11.0,6.0,5.0,-5.0,-7.0,-12.0,-10.0,-8.0,-7.0,-10.0,-2.0,-4.0,11.0,20.0,11.0,4.0,13.0,-4.0,-3.0,14.0,17.0,23.0,27.0,23.0,27.0,39.0
830,러윅,60.153999999999996,-1.14,GBR,europe,6.5,6662984.0,62417431.0,,1957.0,,830.0,0.0,2.0,-6.0,-7.0,2.0,10.0,-3.0,-5.0,-10.0,-15.0,-28.0,-25.0,-24.0,-17.0,-10.0,-15.0,-36.0,-43.0,-27.0,-27.0,-14.0,23.0,30.0,23.0,26.0,23.0,47.0,39.0,37.0,40.0,54.0
936,헤이샴,54.032,-2.92,GBR,europe,6.5,6662984.0,62417431.0,,1962.0,,936.0,0.0,-5.0,-11.0,-10.0,-8.0,10.0,-4.0,-12.0,-23.0,-29.0,-34.0,-33.0,-25.0,-20.0,-21.0,-31.0,-4.0,-0.17,3.67,7.5,11.33,15.17,19.0,58.0,53.0,26.0,39.0,45.0,32.0,40.0,52.0
982,데본포트,50.368,-4.185,GBR,europe,6.5,6662984.0,62417431.0,,,,,0.0,-18.0,0.0,18.0,48.0,62.0,73.0,66.0,56.0,46.0,46.0,51.0,58.0,58.0,55.0,58.0,57.0,56.0,55.0,53.0,39.0,41.0,37.0,40.0,49.0,60.0,57.0,63.0,66.0,73.0,71.0
1109,윅,58.441,-3.0860000000000003,GBR,europe,6.5,6662984.0,62417431.0,1.97,1965.0,1.97,1109.0,0.0,-11.0,-30.0,-34.0,-18.0,-3.0,-2.0,1.0,-7.0,-16.0,-38.0,-43.0,-36.0,-22.0,-14.0,2.0,14.0,23.0,29.0,30.0,25.0,33.0,26.0,20.0,20.0,7.0,10.0,7.0,3.0,6.0,28.0
1112,울라풀,57.895,-5.1579999999999995,GBR,europe,6.5,6662984.0,62417431.0,1.68,1983.0,1.68,1112.0,0.0,-17.0,-26.0,-27.0,-4.0,20.0,19.0,22.0,30.0,47.0,57.0,69.0,72.0,63.0,36.0,17.0,8.0,9.0,15.0,16.0,13.0,27.0,24.0,24.0,32.0,30.0,34.0,31.0,32.0,37.0,54.0
1215,포트패트릭,54.843,-5.12,GBR,europe,6.5,6662984.0,62417431.0,4.07,1968.0,4.07,1215.0,0.0,-3.0,-17.0,-18.0,-23.0,-23.0,-26.0,-17.0,-20.0,-7.0,-3.0,-1.0,6.0,11.0,11.0,21.0,32.0,43.0,46.0,48.0,37.0,53.0,46.0,55.0,65.0,70.0,59.0,,,,
1505,휘트비,54.49,-0.615,GBR,europe,6.5,6662984.0,62417431.0,,1981.0,,1505.0,0.0,0.0,-9.0,-18.0,-8.0,7.0,4.0,20.0,16.0,35.0,29.0,30.0,34.0,49.0,42.0,55.0,76.0,88.0,95.0,100.0,118.0,138.0,162.0,181.0,197.0,209.0,205.0,199.0,198.0,205.0,191.0
7,쿡스하펜 2,53.867,8.717,DEU,europe,8.89,4430201.0,82162512.0,3.53,1843.0,3.53,7.0,0.0,-16.0,-24.0,-29.0,-13.0,16.0,23.0,28.0,9.0,17.0,11.0,-10.0,-11.0,16.0,20.0,20.0,53.0,63.0,54.0,55.0,50.0,50.0,68.0,79.0,67.0,62.0,66.0,50.0,33.0,35.0,59.0
8,비스마르 2,53.898999999999994,11.458,DEU,europe,8.89,4430201.0,82162512.0,1.48,1849.0,1.48,8.0,0.0,-11.0,-1.0,0.0,25.0,34.0,29.0,28.0,18.0,-2.0,3.0,1.0,1.0,11.0,14.0,0.0,10.0,16.0,10.0,15.0,22.0,17.0,31.0,42.0,42.0,49.0,59.0,53.0,50.0,45.0,45.0
11,바르네뮌데 2,54.17,12.103,DEU,europe,8.89,4430201.0,82162512.0,1.88,1856.0,1.88,11.0,0.0,-13.0,-5.0,-9.0,18.0,28.0,20.0,19.0,9.0,-13.0,-14.0,-17.0,-14.0,1.0,9.0,5.0,25.0,34.0,28.0,36.0,41.0,36.0,51.0,59.0,55.0,58.0,63.0,51.0,43.0,34.0,35.0
397,자스니츠,54.511,13.642999999999999,DEU,europe,8.89,4430201.0,82162512.0,2.34,1936.0,2.34,397.0,0.0,-14.0,-16.0,-37.0,-32.0,-33.0,-40.0,-53.5,-67.0,-59.0,-34.0,-59.0,-57.0,-46.0,-44.0,-49.0,-21.0,-14.0,-21.0,-10.0,-3.0,-6.0,19.0,36.0,31.0,27.0,34.0,22.0,7.0,-5.0,-2.0
1036,암룸(비트뒨),54.617,8.383,DEU,europe,8.89,4430201.0,82162512.0,3.0,1963.0,3.0,1036.0,0.0,-15.0,-37.0,-29.0,-8.0,26.0,17.0,25.0,4.0,2.0,-20.0,-26.0,-30.0,-14.0,-6.0,1.0,37.0,60.0,62.0,63.0,56.0,59.0,61.0,66.0,54.0,42.0,39.0,22.0,-6.0,-10.0,10.0
1037,보르쿰섬(피셔발제),53.558,6.7479999999999976,DEU,europe,8.89,4430201.0,82162512.0,2.87,1963.0,2.87,1037.0,0.0,-10.0,-13.0,-14.0,4.0,20.0,20.0,21.0,5.0,6.0,-1.0,-15.0,-14.0,0.0,1.0,1.0,31.0,41.0,36.0,39.0,42.0,44.0,57.0,67.0,63.0,58.0,60.0,50.0,39.0,42.0,59.0
1448,코제로브,54.06,14.001,DEU,europe,8.89,4430201.0,82162512.0,1.35,1980.0,1.35,1448.0,0.0,-19.0,-12.0,-22.0,4.0,11.0,26.0,41.0,7.0,-36.0,-1.0,-13.0,-12.0,7.0,9.0,-5.0,7.0,12.0,0.0,7.0,10.0,5.0,23.0,33.0,24.0,23.0,33.0,27.0,23.0,18.0,28.0
9,마슬루이스,51.918,4.25,NLD,europe,9.92,11967821.0,16664746.0,1.48,1848.0,1.48,9.0,0.0,-5.0,-3.0,5.0,12.0,23.0,12.0,9.0,-5.0,-2.0,0.0,-3.0,-11.0,-5.0,-5.0,-8.0,16.0,31.0,24.0,23.0,20.0,14.0,22.0,31.0,28.0,32.0,34.0,26.0,21.0,27.0,33.0
20,블리싱언,51.442,3.596,NLD,europe,9.92,11967821.0,16664746.0,3.0,1862.0,3.0,20.0,0.0,-11.0,-15.0,-12.0,-9.0,-3.0,-9.0,-7.0,-16.0,-13.0,-11.0,-11.0,-12.0,0.0,5.0,6.0,28.0,40.0,36.0,40.0,47.0,45.0,56.0,63.0,60.0,56.0,57.0,48.0,41.0,46.0,50.0
22,훅 반 홀란드,51.978,4.12,NLD,europe,9.92,11967821.0,16664746.0,2.45,1864.0,2.45,22.0,0.0,-9.0,-14.0,-10.0,-4.0,7.0,-1.0,-2.0,-13.0,-12.0,-11.0,-13.0,-13.0,-1.0,5.0,7.0,31.0,44.0,38.0,37.0,36.0,30.0,36.0,42.0,39.0,40.0,43.0,36.0,31.0,37.0,43.0
23,덴 헬데르,52.964,4.745,NLD,europe,9.92,11967821.0,16664746.0,1.56,1865.0,1.56,23.0,0.0,-7.0,-12.0,-9.0,-4.0,10.0,3.0,8.0,-6.0,-2.0,-8.0,-14.0,-21.0,-8.0,-6.0,-4.0,20.0,32.0,25.0,26.0,23.0,20.0,28.0,34.0,27.0,22.0,26.0,18.0,9.0,14.0,27.0
24,델프제일,53.326,6.933,NLD,europe,9.92,11967821.0,16664746.0,2.8,1865.0,2.8,24.0,0.0,-18.0,-29.0,-32.0,-23.0,-7.0,-8.0,-1.0,-13.0,-10.0,-14.0,-23.0,-26.0,-11.0,-4.0,-2.0,31.0,44.0,35.0,33.0,26.0,17.0,26.0,32.0,25.0,22.0,31.0,21.0,14.0,23.0,45.0
25,하를링언,53.176,5.409,NLD,europe,9.92,11967821.0,16664746.0,2.82,1865.0,2.82,25.0,0.0,-13.0,-25.0,-27.0,-23.0,-6.0,-17.0,-13.0,-31.0,-27.0,-36.0,-46.0,-49.0,-32.0,-26.0,-22.0,10.0,23.0,13.0,14.0,10.0,10.0,23.0,35.0,27.0,22.0,28.0,20.0,8.0,17.0,39.0
32,에이마위던,52.461999999999996,4.555,NLD,europe,9.92,11967821.0,16664746.0,2.69,1872.0,2.69,32.0,0.0,-8.0,-11.0,-10.0,-4.0,9.0,4.0,8.0,-2.0,1.0,-1.0,-5.0,-6.0,9.0,15.0,20.0,46.0,60.0,55.0,55.0,53.0,49.0,57.0,62.0,54.0,48.0,47.0,36.0,25.0,33.0,45.0
236,베스트-테르스헬링,53.363,5.22,NLD,europe,9.92,11967821.0,16664746.0,2.46,1921.0,2.46,236.0,0.0,-4.0,-13.0,-11.0,-2.0,15.0,5.0,9.0,-6.0,-6.0,-14.0,-21.0,-29.0,-19.0,-18.0,-19.0,3.0,10.0,3.0,4.0,5.0,10.0,27.0,42.0,42.0,39.0,44.0,36.0,25.0,31.0,48.0
10,샌프란시스코,37.806999999999995,-122.465,USA,north-america,16.49,24431214.0,313085381.0,2.19,1855.0,2.19,10.0,0.0,13.0,1.0,-40.0,-50.0,-46.0,-55.0,-43.0,-23.0,-21.0,-5.0,1.0,2.0,7.0,5.0,-9.0,-14.0,-27.0,-40.0,-29.0,-18.0,-2.0,-12.0,-16.0,-17.0,-20.0,-29.0,-18.0,-17.0,-4.0,12.0
12,뉴욕(배터리 시티),40.7,-74.013,USA,north-america,16.49,24431214.0,313085381.0,4.54,1856.0,4.54,12.0,0.0,10.0,23.0,7.0,-6.0,-6.0,-3.0,-3.0,12.0,22.0,30.0,46.0,61.0,71.0,77.0,84.0,75.0,58.0,49.0,50.0,61.0,67.0,70.0,78.0,92.0,101.0,113.0,132.0,132.0,131.0,116.0
112,퍼난디나 비치,30.671999999999997,-81.465,USA,north-america,16.49,24431214.0,313085381.0,2.15,1898.0,2.15,112.0,0.0,19.0,27.0,12.0,4.0,2.0,13.0,24.0,38.0,67.0,79.0,47.0,47.0,44.0,39.0,34.0,57.0,55.0,55.0,41.0,50.0,44.0,47.0,48.0,56.0,43.0,42.0,43.0,53.0,68.0,93.0
127,시애틀,47.602,-122.338,USA,north-america,16.49,24431214.0,313085381.0,2.58,1899.0,2.58,127.0,0.0,2.0,-6.0,-36.0,-48.0,-38.0,-42.0,-34.0,-22.0,-12.0,-2.0,5.0,12.0,23.0,25.0,16.0,8.0,-8.0,-14.0,-12.0,-3.0,14.0,13.0,2.0,-4.0,2.0,-6.0,6.0,2.0,20.0,26.0
135,필라델피아(피어 9N),39.933,-75.142,USA,north-america,16.49,24431214.0,313085381.0,5.2,1901.0,5.2,135.0,0.0,14.0,28.0,9.0,-1.0,2.0,3.0,4.0,25.0,39.0,43.0,69.0,78.0,87.0,85.0,91.0,67.0,55.0,53.0,62.0,81.0,100.0,109.0,107.0,117.0,118.0,137.0,152.0,152.0,149.0,137.0
148,볼티모어,39.266999999999996,-76.578,USA,north-america,16.49,24431214.0,313085381.0,4.44,1903.0,4.44,148.0,0.0,11.0,17.0,3.0,-9.0,-7.0,-1.0,3.0,19.0,27.0,30.0,44.0,51.0,62.0,69.0,67.0,55.0,45.0,34.0,37.0,56.0,65.0,69.0,72.0,82.0,84.0,100.0,118.0,123.0,124.0,119.0
155,호놀루루,21.307,-157.86700000000005,USA,north-america,16.49,24431214.0,313085381.0,1.09,1905.0,1.09,155.0,0.0,-24.0,-24.0,-9.0,-18.0,-32.0,-23.0,-11.0,-22.0,-18.0,7.0,20.0,21.0,11.0,13.0,-4.0,-15.0,-23.0,-3.0,7.0,17.0,30.0,37.0,31.0,15.0,10.0,-1.0,-4.0,-6.0,5.0,11.0
158,샌디에이고(검역소),32.713,-117.17299999999999,USA,north-america,16.49,24431214.0,313085381.0,2.83,1906.0,2.83,158.0,0.0,3.0,2.0,-24.0,-37.0,-33.0,-29.0,-18.0,1.0,10.0,10.0,5.0,11.0,6.0,-7.0,-15.0,-17.0,-38.0,-40.0,-23.0,-13.0,-2.0,-2.0,0.0,2.0,3.0,2.0,14.0,19.0,34.0,60.0
161,갤버스턴 2,29.31,-94.79299999999999,USA,north-america,16.49,24431214.0,313085381.0,5.6,1909.0,5.6,161.0,0.0,14.0,17.0,1.0,-1.0,10.0,25.0,41.0,61.0,73.0,80.0,63.0,63.0,75.0,77.0,67.0,80.0,91.0,88.0,94.0,105.0,95.0,97.0,98.0,105.0,114.0,126.0,132.0,146.0,146.0,162.0
180,아틀란틱 시티,39.355,-74.418,USA,north-america,16.49,24431214.0,313085381.0,4.91,1912.0,4.91,180.0,0.0,10.0,25.0,10.0,0.0,12.0,29.0,35.0,57.0,63.0,69.0,73.0,77.0,83.0,97.0,106.0,99.0,99.0,88.0,87.0,103.0,111.0,107.0,113.0,127.0,137.0,148.0,165.0,166.0,163.0,148.0
183,포틀랜드(메인 주),43.657,-70.247,USA,north-america,16.49,24431214.0,313085381.0,2.64,1912.0,2.64,183.0,0.0,-5.0,3.0,-9.0,-20.0,-26.0,-20.0,-21.0,-17.0,-14.0,-6.0,0.0,6.0,15.0,20.0,20.0,10.0,0.0,-9.0,-4.0,11.0,22.0,24.0,26.0,36.0,49.0,59.0,78.0,89.0,88.0,61.0
188,키 웨스트,24.555,-81.807,USA,north-america,16.49,24431214.0,313085381.0,3.37,1913.0,3.37,188.0,0.0,11.0,14.0,13.0,8.0,5.0,9.0,14.0,22.0,35.0,47.0,31.0,27.0,24.0,31.0,31.0,38.0,42.0,43.0,34.0,35.0,41.0,46.0,56.0,63.0,64.0,68.0,74.0,81.0,91.0,109.0
224,루이스(브레이크워터 항),38.782,-75.12,USA,north-america,16.49,24431214.0,313085381.0,5.09,1919.0,5.09,224.0,0.0,10.0,24.0,7.0,-4.0,-9.0,-6.0,-8.0,7.0,8.0,19.0,32.0,38.0,51.0,67.0,70.0,63.0,56.0,48.0,48.0,66.0,77.0,81.0,83.0,98.0,104.0,114.0,132.0,137.0,135.0,125.0
225,케치칸,55.332,-131.625,USA,north-america,16.49,24431214.0,313085381.0,-0.84,1919.0,-0.84,225.0,0.0,-9.0,2.0,-15.0,-37.0,-28.0,-29.0,-27.0,-31.0,-17.0,-16.0,-22.0,-24.0,-22.0,-25.0,-28.0,-26.0,-46.0,-46.0,-48.0,-36.0,-34.0,-20.0,-26.0,-31.0,-32.0,-35.0,-38.0,-54.0,-55.0,-64.0
234,찰스턴 1,32.782,-79.925,USA,north-america,16.49,24431214.0,313085381.0,3.98,1922.0,3.98,234.0,0.0,17.0,22.0,8.0,-1.0,-4.0,3.0,11.0,26.0,38.0,59.0,47.0,49.0,47.0,61.0,54.0,61.0,59.0,59.0,42.0,45.0,46.0,50.0,54.0,68.0,63.0,67.0,74.0,85.0,100.0,123.0
235,보스턴,42.353,-71.053,USA,north-america,16.49,24431214.0,313085381.0,4.25,1921.0,4.25,235.0,0.0,3.0,12.0,0.0,-11.0,-19.0,-13.0,-13.0,-3.0,-5.0,4.0,14.0,24.0,35.0,49.0,52.0,43.0,36.0,29.0,32.0,48.0,61.0,67.0,73.0,85.0,98.0,107.0,119.0,126.0,126.0,107.0
245,로스 엔젤레스,33.72,-118.272,USA,north-america,16.49,24431214.0,313085381.0,2.3,1924.0,2.3,245.0,0.0,2.0,0.0,-27.0,-41.0,-38.0,-36.0,-24.0,-3.0,10.0,15.0,13.0,17.0,13.0,-1.0,-8.0,-7.0,-25.0,-29.0,-13.0,-5.0,0.0,-2.0,0.0,2.0,0.0,-2.0,6.0,6.0,16.0,39.0
246,펜사콜라,30.403000000000002,-87.21,USA,north-america,16.49,24431214.0,313085381.0,3.8,1924.0,3.8,246.0,0.0,12.0,14.0,-1.0,-11.0,-15.0,-14.0,-9.0,-1.0,10.0,15.0,11.0,12.0,24.0,31.0,27.0,27.0,29.0,34.0,23.0,38.0,37.0,38.0,33.0,53.0,51.0,57.0,72.0,81.0,81.0,89.0
256,라 호이야(스크립스 피어),32.867,-117.257,USA,north-america,16.49,24431214.0,313085381.0,2.75,1925.0,2.75,256.0,0.0,3.0,3.0,-16.0,-23.0,-12.0,-6.0,6.0,19.0,21.0,16.0,10.0,16.0,16.0,8.0,5.0,3.0,-19.0,-23.0,-7.0,2.0,7.0,13.0,13.0,11.0,6.0,11.0,19.0,25.0,46.0,77.0
265,아스토리아(텅 포인트),46.207,-123.76799999999999,USA,north-america,16.49,24431214.0,313085381.0,1.86,1925.0,1.86,265.0,0.0,-2.0,-24.0,-65.0,-87.0,-74.0,-78.0,-72.0,-59.0,-50.0,-37.0,-21.0,6.0,20.0,28.0,10.0,-20.0,-54.0,-66.0,-73.0,-68.0,-43.0,-45.0,-53.0,-55.0,-47.0,-49.0,-26.0,-31.0,-14.0,-11.0
266,슈어드,60.12,-149.42700000000005,USA,north-america,16.49,24431214.0,313085381.0,-4.29,1964.0,-4.29,266.0,0.0,-9.0,12.0,12.0,-9.0,-9.0,-16.0,-19.0,-37.0,-27.0,-24.0,-37.0,-52.0,-52.0,-61.0,-67.0,-54.0,-66.0,-68.0,-75.0,-70.0,-75.0,-83.0,-94.0,-109.0,-112.0,-130.0,-128.0,-145.0,-128.0,-133.0
299,스웰스 포인트(햄프턴 로드),36.946999999999996,-76.33,USA,north-america,16.49,24431214.0,313085381.0,6.38,1928.0,6.38,299.0,0.0,13.0,24.0,4.0,-7.0,-12.0,-7.0,-2.0,16.0,18.0,30.0,45.0,55.0,76.0,97.0,104.0,94.0,79.0,69.0,70.0,90.0,102.0,113.0,113.0,126.0,130.0,139.0,156.0,165.0,167.0,159.0
300,힐로(하와이 섬),19.73,-155.055,USA,north-america,16.49,24431214.0,313085381.0,1.76,1927.0,1.76,300.0,0.0,-17.0,-12.0,-7.0,-14.0,-21.0,-13.0,-7.0,-3.0,-5.0,10.0,23.0,21.0,8.0,11.0,-5.0,-11.0,-14.0,1.0,22.0,45.0,51.0,56.0,51.0,30.0,26.0,20.0,10.0,10.0,22.0,28.0
311,아나폴리스(해군사관학교),38.983000000000004,-76.48,USA,north-america,16.49,24431214.0,313085381.0,4.93,1929.0,4.93,311.0,0.0,12.0,21.0,6.0,-6.0,-7.0,-5.0,-3.0,10.0,14.0,21.0,39.0,47.0,59.0,69.0,73.0,65.0,53.0,44.0,50.0,72.0,76.0,75.0,75.0,81.0,79.0,94.0,118.0,129.0,136.0,136.0
332,이스트포트,44.903,-66.982,USA,north-america,16.49,24431214.0,313085381.0,2.83,1930.0,2.83,332.0,0.0,0.0,6.0,-3.0,-13.0,-26.0,-24.0,-25.0,-23.0,-23.0,-8.0,1.0,10.0,18.0,25.0,25.0,17.0,9.0,5.0,7.0,16.0,25.0,29.0,30.0,42.0,57.0,69.0,81.0,92.0,92.0,74.0
351,뉴포트,41.505,-71.327,USA,north-america,16.49,24431214.0,313085381.0,3.8,1931.0,3.8,351.0,0.0,7.0,18.0,5.0,-7.0,-14.0,-11.0,-12.0,-1.0,3.0,12.0,22.0,30.0,41.0,53.0,56.0,51.0,44.0,33.0,32.0,46.0,54.0,56.0,61.0,72.0,83.0,91.0,107.0,112.0,112.0,94.0
360,워싱턴 DC,38.87300000000001,-77.02199999999998,USA,north-america,16.49,24431214.0,313085381.0,4.48,1931.0,4.48,360.0,0.0,17.0,26.0,7.0,-9.0,-16.0,-10.0,-9.0,15.0,25.0,34.0,64.0,74.0,90.0,94.0,94.0,65.0,48.0,38.0,39.0,60.0,69.0,77.0,72.0,84.0,83.0,101.0,117.0,121.0,126.0,121.0
366,샌디 훅,40.467,-74.008,USA,north-america,16.49,24431214.0,313085381.0,5.62,1933.0,5.62,366.0,0.0,12.0,25.0,10.0,0.0,-4.0,-5.0,-7.0,9.0,18.0,29.0,47.0,57.0,68.0,73.0,77.0,69.0,63.0,55.0,59.0,78.0,89.0,93.0,97.0,111.0,119.0,131.0,145.0,153.0,153.0,138.0
367,우즈 홀,41.523,-70.672,USA,north-america,16.49,24431214.0,313085381.0,4.24,1933.0,4.24,367.0,0.0,7.0,21.0,11.0,-1.0,-11.0,-16.0,-21.0,-16.0,-15.0,-9.0,9.0,20.0,33.0,46.0,53.0,49.0,43.0,32.0,33.0,47.0,55.0,57.0,70.0,82.0,94.0,102.0,117.0,118.0,118.0,101.0
377,산타 모니카(뮤니시펄 피어),34.008,-118.5,USA,north-america,16.49,24431214.0,313085381.0,2.47,1933.0,2.47,377.0,0.0,0.0,-6.0,-26.0,-24.0,-26.0,-31.0,-15.0,-2.0,8.0,22.0,27.0,25.0,27.0,13.0,5.0,2.0,-19.0,-23.0,-4.0,5.0,12.0,12.0,14.0,15.0,11.0,7.0,16.0,16.0,27.0,51.0
378,크레센트 시티,41.745,-124.182,USA,north-america,16.49,24431214.0,313085381.0,-0.71,1933.0,-0.71,378.0,0.0,4.0,-10.0,-50.0,-59.0,-55.0,-59.0,-40.0,-19.0,-13.0,1.0,3.0,-7.0,-8.0,-1.0,-17.0,-29.0,-42.0,-49.0,-56.0,-46.0,-32.0,-40.0,-52.0,-56.0,-60.0,-74.0,-65.0,-75.0,-66.0,-61.0
384,프라이데이 하버(해양연구소),48.547,-123.01,USA,north-america,16.49,24431214.0,313085381.0,2.12,1934.0,2.12,384.0,0.0,0.0,-9.0,-40.0,-54.0,-45.0,-50.0,-42.0,-30.0,-19.0,-8.0,-4.0,2.0,12.0,12.0,-1.0,-9.0,-28.0,-35.0,-32.0,-21.0,-5.0,-5.0,-14.0,-18.0,-12.0,-17.0,-3.0,-5.0,10.0,13.0
385,네아 베이,48.367,-124.61200000000001,USA,north-america,16.49,24431214.0,313085381.0,-1.2,1935.0,-1.2,385.0,0.0,-4.0,-15.0,-51.0,-67.0,-59.0,-67.0,-62.0,-54.0,-46.0,-36.0,-34.0,-28.0,-23.0,-29.0,-47.0,-58.0,-85.0,-94.0,-93.0,-86.0,-74.0,-76.0,-89.0,-95.0,-90.0,-98.0,-86.0,-94.0,-82.0,-86.0
395,포트 풀라스키,32.033,-80.902,USA,north-america,16.49,24431214.0,313085381.0,3.98,1935.0,3.98,395.0,0.0,18.0,23.0,8.0,1.0,-3.0,1.0,8.0,20.0,30.0,52.0,42.0,48.0,50.0,67.0,55.0,62.0,60.0,57.0,41.0,53.0,52.0,58.0,62.0,76.0,67.0,72.0,76.0,91.0,106.0,129.0
396,윌밍턴,34.227,-77.953,USA,north-america,16.49,24431214.0,313085381.0,3.2,1936.0,3.2,396.0,0.0,12.0,17.0,0.0,-9.0,-11.0,-2.0,4.0,21.0,24.0,42.0,43.0,44.0,50.0,68.0,63.0,55.0,51.0,47.0,28.0,26.0,33.0,32.0,25.0,39.0,41.0,38.0,51.0,61.0,77.0,96.0
405,주노,58.298,-134.412,USA,north-america,16.49,24431214.0,313085381.0,-14.41,1936.0,-14.41,405.0,0.0,-22.0,-15.0,-33.0,-62.0,-65.0,-80.0,-94.0,-116.0,-120.0,-135.0,-164.0,-189.0,-206.0,-223.0,-238.0,-240.0,-263.0,-277.0,-301.0,-307.0,-323.0,-337.0,-352.0,-359.0,-368.0,-381.0,-386.0,-413.0,-424.0,-440.0
412,솔로몬 섬(생물학 연구소),38.317,-76.452,USA,north-america,16.49,24431214.0,313085381.0,5.46,1938.0,5.46,412.0,0.0,17.0,31.0,18.0,11.0,9.0,10.0,14.0,28.0,30.0,35.0,50.0,54.0,66.0,77.0,79.0,70.0,60.0,51.0,55.0,75.0,87.0,96.0,99.0,110.0,113.0,126.0,141.0,149.0,162.0,165.0
426,싯카,57.052,-135.342,USA,north-america,16.49,24431214.0,313085381.0,-2.47,1938.0,-2.47,426.0,0.0,-8.0,4.0,-9.0,-33.0,-29.0,-37.0,-40.0,-47.0,-36.0,-34.0,-39.0,-41.0,-39.0,-39.0,-40.0,-32.0,-47.0,-48.0,-50.0,-41.0,-36.0,-27.0,-33.0,-43.0,-50.0,-71.0,-84.0,-115.0,-117.0,-126.0
428,시더 키 2,29.135,-83.03200000000002,USA,north-america,16.49,24431214.0,313085381.0,,1939.0,,428.0,0.0,12.0,10.0,2.0,-1.0,5.0,13.0,27.0,39.0,49.0,56.0,61.0,59.0,63.0,69.0,52.0,27.0,22.0,30.0,24.0,36.0,46.0,49.0,48.0,57.0,61.0,69.0,92.0,98.0,107.0,121.0
429,뉴 런던,41.36,-72.09,USA,north-america,16.49,24431214.0,313085381.0,4.46,1939.0,4.46,429.0,0.0,6.0,16.0,3.0,-9.0,-11.0,-6.0,-4.0,7.0,11.0,19.0,33.0,44.0,58.0,71.0,74.0,66.0,57.0,46.0,45.0,60.0,70.0,76.0,82.0,97.0,106.0,117.0,129.0,130.0,127.0,107.0
430,프로비던스(스테이트 피어),41.806999999999995,-71.4,USA,north-america,16.49,24431214.0,313085381.0,3.76,1939.0,3.76,430.0,0.0,6.0,11.0,-1.0,-17.0,-22.0,-19.0,-12.0,2.0,8.0,15.0,22.0,31.0,42.0,54.0,55.0,52.0,41.0,31.0,29.0,44.0,53.0,56.0,63.0,75.0,85.0,94.0,109.0,110.0,107.0,87.0
437,앨러미다 해군기지,37.772,-122.29799999999999,USA,north-america,16.49,24431214.0,313085381.0,0.93,1940.0,0.93,437.0,0.0,12.0,-1.0,-46.0,-59.0,-59.0,-70.0,-60.0,-39.0,-37.0,-17.0,-8.0,-3.0,3.0,0.0,-18.0,-28.0,-46.0,-61.0,-47.0,-37.0,-21.0,-30.0,-36.0,-39.0,-43.0,-50.0,-40.0,-40.0,-30.0,-16.0
445,야쿠탓,59.548,-139.733,USA,north-america,16.49,24431214.0,313085381.0,-13.28,1940.0,-13.28,445.0,0.0,-15.0,-1.0,-17.0,-50.0,-57.0,-77.0,-98.0,-113.0,-105.0,-107.0,-117.0,-125.0,-138.0,-151.0,-166.0,-167.0,-195.0,-207.0,-225.0,-231.0,-246.0,-261.0,-282.0,-309.0,-328.0,-358.0,-372.0,-405.0,-407.0,-421.0
487,스위퍼 후미,51.863,-176.632,USA,north-america,16.49,24431214.0,313085381.0,,,,,0.0,1.0,13.0,19.0,14.0,11.0,9.0,3.0,-4.0,-5.0,2.0,-5.0,-1.0,-3.0,-8.0,-14.0,-20.0,-37.0,-49.0,-45.0,-43.0,-49.0,-51.0,-61.0,-68.0,-77.0,-73.0,-83.0,-87.0,-79.0,-69.0
495,스캐그웨이,59.45,-135.327,USA,north-america,16.49,24431214.0,313085381.0,-20.45,1945.0,-20.45,495.0,0.0,4.0,36.0,34.0,4.0,-7.0,-27.0,-51.0,-79.0,-91.0,-92.0,-148.0,-180.0,-210.0,-227.0,-237.0,-228.0,-262.0,-285.0,-314.0,-328.0,-353.0,-371.0,-387.0,-409.0,-427.0,-451.0,-469.0,-506.0,-520.0,-538.0
497,포트 이사벨,26.06,-97.215,USA,north-america,16.49,24431214.0,313085381.0,5.54,1945.0,5.54,497.0,0.0,7.0,7.0,-6.0,1.0,-8.0,0.0,15.0,28.0,43.0,57.0,57.0,64.0,78.0,88.0,87.0,92.0,101.0,101.0,104.0,115.0,112.0,115.0,121.0,126.0,127.0,134.0,129.0,128.0,125.0,131.0
508,포트 산 루이스,35.177,-120.76,USA,north-america,16.49,24431214.0,313085381.0,1.22,1946.0,1.22,508.0,0.0,2.0,-2.0,-25.0,-36.0,-37.0,-37.0,-26.0,-11.0,-6.0,0.0,-6.0,-4.0,-8.0,-18.0,-24.0,-21.0,-39.0,-43.0,-30.0,-22.0,-17.0,-21.0,-22.0,-22.0,-29.0,-32.0,-23.0,-23.0,-11.0,14.0
519,몬타우크,41.048,-71.96,USA,north-america,16.49,24431214.0,313085381.0,5.09,1948.0,5.09,519.0,0.0,7.0,19.0,7.0,-4.0,-10.0,-8.0,-6.0,5.0,16.0,30.0,45.0,55.0,68.0,75.0,82.0,81.0,71.0,60.0,70.0,85.0,97.0,103.0,111.0,118.0,125.0,128.0,143.0,149.0,147.0,131.0
520,세인트 피터즈버그,27.76,-82.62700000000002,USA,north-america,16.49,24431214.0,313085381.0,3.31,1947.0,3.31,520.0,0.0,12.0,20.0,14.0,15.0,14.0,16.0,15.0,19.0,19.0,26.0,18.0,21.0,25.0,32.0,29.0,28.0,29.0,35.0,33.0,40.0,49.0,54.0,52.0,59.0,59.0,63.0,78.0,87.0,93.0,107.0
521,카홀루이 하버(마우이 섬),20.895,-156.477,USA,north-america,16.49,24431214.0,313085381.0,1.52,1951.0,1.52,521.0,0.0,-10.0,-4.0,15.0,9.0,-4.0,5.0,13.0,5.0,7.0,31.0,46.0,45.0,36.0,35.0,18.0,8.0,1.0,20.0,37.0,53.0,64.0,71.0,63.0,43.0,36.0,28.0,21.0,19.0,33.0,43.0
525,바 하버(프렌치 만),44.391999999999996,-68.205,USA,north-america,16.49,24431214.0,313085381.0,2.76,1948.0,2.76,525.0,0.0,-2.0,7.0,-3.0,-13.0,-21.0,-18.0,-17.0,-10.0,-3.0,8.0,13.0,19.0,19.0,26.0,29.0,24.0,14.0,13.0,11.0,17.0,23.0,25.0,29.0,40.0,53.0,62.0,74.0,81.0,82.0,65.0
526,그랜드 아일,29.263,-89.95700000000002,USA,north-america,16.49,24431214.0,313085381.0,7.6,1947.0,7.6,526.0,0.0,18.0,23.0,11.0,3.0,8.0,22.0,36.0,55.0,73.0,81.0,73.0,76.0,87.0,93.0,88.0,92.0,102.0,104.0,108.0,122.0,125.0,127.0,130.0,138.0,146.0,160.0,177.0,195.0,202.0,214.0
538,록포트,28.022,-97.04700000000001,USA,north-america,16.49,24431214.0,313085381.0,8.3,1948.0,8.3,538.0,0.0,9.0,13.0,-5.0,-15.0,-13.0,-3.0,12.0,30.0,48.0,65.0,61.0,74.0,97.0,113.0,112.0,127.0,140.0,141.0,150.0,166.0,163.0,168.0,174.0,174.0,179.0,188.0,185.0,191.0,196.0,205.0
566,코도바,60.558,-145.752,USA,north-america,16.49,24431214.0,313085381.0,0.95,1965.0,0.95,566.0,0.0,-3.0,22.0,28.0,13.0,24.0,26.0,27.0,16.0,37.0,44.0,35.0,33.0,39.0,33.0,33.0,52.0,41.0,44.0,42.0,52.0,52.0,52.0,46.0,36.0,33.0,19.0,22.0,6.0,18.0,18.0
567,코디악 섬,57.732,-152.512,USA,north-america,16.49,24431214.0,313085381.0,-9.37,1985.0,-9.37,567.0,0.0,-5.0,0.0,-6.0,-45.0,-59.0,-80.0,-98.0,-117.0,-116.0,-116.0,-127.0,-132.0,-134.0,-145.0,-158.0,-154.0,-176.0,-183.0,-188.0,-189.0,-197.0,-208.0,-228.0,-249.0,-257.0,-280.0,-287.0,-307.0,-299.0,-302.0
636,킵토피크 비치,37.165,-75.988,USA,north-america,16.49,24431214.0,313085381.0,4.25,1952.0,4.25,636.0,0.0,10.0,26.0,8.0,0.0,-9.0,-8.0,-10.0,8.0,13.0,28.0,43.0,53.0,65.0,78.0,78.0,67.0,54.0,44.0,41.0,58.0,68.0,72.0,73.0,85.0,88.0,94.0,108.0,114.0,115.0,110.0
756,나윌리윌리 베이(카우아이 섬),21.95300000000001,-159.355,USA,north-america,16.49,24431214.0,313085381.0,1.44,1955.0,1.44,756.0,0.0,-22.0,-29.0,-26.0,-31.0,-43.0,-34.0,-13.0,-17.0,-19.0,-6.0,7.0,6.0,-8.0,-5.0,-16.0,-33.0,-39.0,-19.0,-12.0,-3.0,17.0,24.0,25.0,16.0,9.0,-2.0,-3.0,-4.0,10.0,21.0
757,어널래스카,53.88,-166.537,USA,north-america,16.49,24431214.0,313085381.0,-2.5,1956.0,-2.5,757.0,0.0,-5.0,-2.0,-11.0,-33.0,-43.0,-48.0,-56.0,-68.0,-64.0,-52.0,-64.0,-63.0,-65.0,-76.0,-85.0,-81.0,-91.0,-95.0,-86.0,-80.0,-83.0,-89.0,-98.0,-107.0,-113.0,-115.0,-122.0,-129.0,-113.0,-107.0
786,리디 포인트,39.558,-75.57300000000002,USA,north-america,16.49,24431214.0,313085381.0,4.03,1985.0,4.03,786.0,0.0,16.0,22.0,10.0,7.0,5.0,4.0,6.0,20.0,30.0,34.0,52.0,58.0,72.0,70.0,88.0,75.0,65.0,56.0,63.0,68.0,77.0,80.0,80.0,92.0,94.0,106.0,123.0,125.0,120.0,111.0
823,모쿠오로에 섬,21.432,-157.79,USA,north-america,16.49,24431214.0,313085381.0,1.33,1958.0,1.33,823.0,0.0,-39.0,-46.0,-33.0,-40.0,-51.0,-40.0,-26.0,-33.0,-28.0,-8.0,3.0,5.0,-4.0,-7.0,-24.0,-35.0,-43.0,-24.0,-8.0,5.0,19.0,26.0,21.0,4.0,1.0,-10.0,-13.0,-17.0,-6.0,-2.0
828,갤버스턴 1,29.285,-94.788,USA,north-america,16.49,24431214.0,313085381.0,4.64,1958.0,4.64,828.0,0.0,19.0,27.0,20.0,22.0,36.0,51.0,66.0,80.0,90.0,94.0,79.0,76.0,89.0,96.0,90.0,99.0,114.0,112.0,116.0,128.0,124.0,126.0,133.0,133.0,134.0,133.0,,,,
1067,앵커리지,61.238,-149.89,USA,north-america,16.49,24431214.0,313085381.0,,,,,0.0,-2.0,20.0,27.0,9.0,16.0,20.0,18.0,18.0,30.0,35.0,19.0,10.0,3.0,-6.0,-17.0,-4.0,-16.0,-16.0,-16.0,-9.0,-18.0,-23.0,-35.0,-47.0,-51.0,-49.0,-49.0,-65.0,-50.0,-46.0
1068,브리지포트,41.173,-73.182,USA,north-america,16.49,24431214.0,313085381.0,3.7,1965.0,3.7,1068.0,0.0,10.0,21.0,3.0,-9.0,-14.0,-11.0,-9.0,5.0,12.0,21.0,31.0,37.0,48.0,56.0,58.0,50.0,42.0,31.0,31.0,45.0,54.0,52.0,52.0,59.0,69.0,76.0,97.0,106.0,109.0,97.0
1070,셀도비아,59.44,-151.72,USA,north-america,16.49,24431214.0,313085381.0,-8.89,1966.0,-8.89,1070.0,0.0,-19.0,-6.0,-15.0,-47.0,-56.0,-70.0,-89.0,-116.0,-113.0,-112.0,-136.0,-147.0,-149.0,-162.0,-177.0,-167.0,-185.0,-193.0,-198.0,-197.0,-204.0,-218.0,-236.0,-257.0,-272.0,-291.0,-292.0,-309.0,-293.0,-292.0
1106,포트 마이어스,26.647,-81.87,USA,north-america,16.49,24431214.0,313085381.0,3.85,1966.0,3.85,1106.0,0.0,16.0,10.0,-10.0,-20.0,-28.0,-29.0,-29.0,-23.0,-15.0,14.0,17.0,4.0,15.0,28.0,3.0,-2.0,18.0,21.0,19.0,32.0,41.0,38.0,36.0,42.0,36.0,38.0,55.0,67.0,74.0,88.0
1107,네이플스,26.131999999999998,-81.807,USA,north-america,16.49,24431214.0,313085381.0,3.88,1966.0,3.88,1107.0,0.0,12.0,27.0,36.0,32.0,31.0,34.0,34.0,31.0,41.0,56.0,55.0,60.0,61.0,71.0,63.0,63.0,63.0,67.0,61.0,68.0,75.0,79.0,80.0,88.0,86.0,88.0,101.0,109.0,117.0,134.0
1111,난터켓 섬,41.285,-70.097,USA,north-america,16.49,24431214.0,313085381.0,4.32,1965.0,4.32,1111.0,0.0,6.0,19.0,9.0,-2.0,-8.0,-4.0,-4.0,4.0,8.0,17.0,24.0,31.0,40.0,49.0,54.0,50.0,43.0,36.0,37.0,48.0,56.0,60.0,67.0,81.0,96.0,106.0,120.0,129.0,129.0,113.0
1153,케이프 메이,38.968,-74.96,USA,north-america,16.49,24431214.0,313085381.0,5.77,1966.0,5.77,1153.0,0.0,9.0,22.0,3.0,-4.0,-10.0,-5.0,-3.0,15.0,20.0,34.0,50.0,59.0,70.0,84.0,87.0,80.0,72.0,64.0,66.0,82.0,94.0,99.0,105.0,121.0,130.0,138.0,155.0,160.0,157.0,144.0
1156,도핀 아일랜드,30.25,-88.075,USA,north-america,16.49,24431214.0,313085381.0,,1971.0,,1156.0,0.0,5.0,0.0,-17.0,-24.0,-19.0,-19.0,-13.0,-4.0,8.0,14.0,3.0,8.0,13.0,11.0,-2.0,48.0,45.0,58.0,52.0,52.0,37.0,31.0,20.0,34.0,39.0,47.0,68.0,83.0,80.0,90.0
1193,아팔라치코라,29.726999999999997,-84.98200000000001,USA,north-america,16.49,24431214.0,313085381.0,3.2,1968.0,3.2,1193.0,0.0,13.0,15.0,-1.0,-15.0,-12.0,-9.0,-9.0,2.0,20.0,23.0,14.0,14.0,25.0,21.0,15.0,16.0,17.0,17.0,15.0,31.0,34.0,33.0,22.0,35.0,32.0,36.0,56.0,74.0,72.0,80.0
1196,사우스 비치,44.625,-124.042,USA,north-america,16.49,24431214.0,313085381.0,1.98,1967.0,1.98,1196.0,0.0,1.0,-5.0,-40.0,-51.0,-41.0,-49.0,-40.0,-20.0,-9.0,7.0,21.0,32.0,39.0,36.0,23.0,11.0,-9.0,-15.0,-8.0,2.0,18.0,15.0,5.0,1.0,8.0,1.0,21.0,15.0,31.0,38.0
1269,찰스턴 2,43.345,-124.322,USA,north-america,16.49,24431214.0,313085381.0,1.79,1971.0,1.79,1269.0,0.0,-1.0,-9.0,-46.0,-61.0,-59.0,-56.0,-40.0,-17.0,-4.0,18.0,21.0,20.0,24.0,19.0,4.0,-8.0,-25.0,-30.0,-21.0,-12.0,3.0,-2.0,-14.0,-19.0,-14.0,-24.0,-11.0,-17.0,-2.0,2.0
1295,캠브리지 2,38.573,-76.068,USA,north-america,16.49,24431214.0,313085381.0,5.05,1971.0,5.05,1295.0,0.0,12.0,22.0,7.0,-1.0,-1.0,5.0,7.0,23.0,28.0,36.0,50.0,63.0,77.0,90.0,95.0,88.0,72.0,61.0,59.0,73.0,81.0,88.0,92.0,103.0,109.0,122.0,140.0,146.0,147.0,138.0
1325,포트 타운센드,48.111999999999995,-122.757,USA,north-america,16.49,24431214.0,313085381.0,2.65,1972.0,2.65,1325.0,0.0,0.0,-7.0,-38.0,-51.0,-42.0,-46.0,-37.0,-23.0,-11.0,4.0,11.0,19.0,28.0,28.0,15.0,7.0,-13.0,-20.0,-16.0,-5.0,9.0,7.0,-2.0,-6.0,2.0,-3.0,15.0,13.0,29.0,31.0
1352,몬터레이,36.605,-121.887,USA,north-america,16.49,24431214.0,313085381.0,1.45,1974.0,1.45,1352.0,0.0,7.0,5.0,-23.0,-31.0,-29.0,-30.0,-20.0,-4.0,0.0,6.0,2.0,-1.0,-3.0,-13.0,-20.0,-21.0,-32.0,-36.0,-22.0,-12.0,-3.0,-8.0,-10.0,-11.0,-14.0,-19.0,-12.0,-12.0,2.0,21.0
1353,발데즈,61.125,-146.362,USA,north-america,16.49,24431214.0,313085381.0,-7.33,1975.0,-7.33,1353.0,0.0,-8.0,13.0,14.0,-4.0,0.0,-4.0,-12.0,-28.0,-21.0,-19.0,-37.0,-45.0,-49.0,-58.0,-68.0,-59.0,-79.0,-87.0,-98.0,-99.0,-110.0,-121.0,-139.0,-156.0,-166.0,-185.0,-190.0,-210.0,-205.0,-210.0
1354,토크 포인트(윌리파 베이),46.707,-123.96700000000001,USA,north-america,16.49,24431214.0,313085381.0,0.7,1979.0,0.7,1354.0,0.0,1.0,-10.0,-40.0,-54.0,-36.0,-42.0,-32.0,-16.0,1.0,18.0,29.0,43.0,55.0,51.0,33.0,24.0,-4.0,-14.0,-10.0,-1.0,10.0,8.0,-4.0,-9.0,-15.0,-27.0,-16.0,-30.0,-32.0,-33.0
1394,포인트 레예스,37.995,-122.977,USA,north-america,16.49,24431214.0,313085381.0,2.2,1975.0,2.2,1394.0,0.0,9.0,2.0,-33.0,-42.0,-44.0,-45.0,-28.0,-8.0,0.0,13.0,12.0,5.0,5.0,-3.0,-12.0,-15.0,-24.0,-29.0,-13.0,-1.0,12.0,3.0,-1.0,-5.0,-10.0,-16.0,-3.0,-1.0,16.0,35.0
1444,스프링메이드 피어,33.655,-78.918,USA,north-america,16.49,24431214.0,313085381.0,1.52,1978.0,1.52,1444.0,0.0,14.0,14.0,8.0,12.0,12.0,44.0,50.0,63.0,47.0,42.0,6.0,1.0,-6.0,1.0,0.0,10.0,8.0,5.0,-10.0,-8.0,-13.0,-9.0,-6.0,9.0,-4.0,2.0,12.0,26.0,39.0,69.0
1633,체리 포인트,48.863,-122.757,USA,north-america,16.49,24431214.0,313085381.0,0.74,1985.0,0.74,1633.0,0.0,38.0,50.0,43.0,38.0,49.0,46.0,57.0,67.0,73.0,80.0,76.0,78.0,88.0,91.0,80.0,76.0,58.0,51.0,54.0,64.0,77.0,73.0,58.0,49.0,51.0,44.0,58.0,55.0,69.0,71.0
1634,샌드 포인트(포포스 섬),55.336999999999996,-160.502,USA,north-america,16.49,24431214.0,313085381.0,1.77,1985.0,1.77,1634.0,0.0,43.0,67.0,80.0,61.0,61.0,55.0,46.0,34.0,46.0,65.0,54.0,60.0,69.0,64.0,56.0,73.0,68.0,73.0,90.0,95.0,94.0,90.0,77.0,67.0,74.0,69.0,73.0,66.0,85.0,95.0
1635,체서피크 베이 브릿지,36.967,-76.113,USA,north-america,16.49,24431214.0,313085381.0,6.05,1985.0,6.05,1635.0,0.0,-3.0,8.0,-5.0,-7.0,-14.0,-8.0,-6.0,15.0,21.0,34.0,46.0,56.0,71.0,85.0,90.0,84.0,72.0,63.0,65.0,83.0,94.0,101.0,102.0,115.0,119.0,127.0,146.0,155.0,158.0,151.0
1636,덕 피어,36.183,-75.747,USA,north-america,16.49,24431214.0,313085381.0,4.87,1985.0,4.87,1636.0,0.0,18.0,35.0,19.0,15.0,12.0,19.0,17.0,36.0,38.0,47.0,49.0,57.0,69.0,85.0,86.0,85.0,78.0,70.0,70.0,90.0,96.0,98.0,98.0,114.0,120.0,126.0,142.0,149.0,147.0,137.0
1637,베르겐 포인트(스태튼 아일랜드),40.637,-74.142,USA,north-america,16.49,24431214.0,313085381.0,5.08,1985.0,5.08,1637.0,0.0,7.0,16.0,8.0,3.0,0.0,-4.0,-17.0,-16.0,-19.0,28.0,67.0,71.0,83.0,83.0,88.0,77.0,66.0,55.0,54.0,69.0,83.0,95.0,101.0,120.0,127.0,139.0,152.0,157.0,149.0,130.0
1638,클리어워터 비치,27.978,-82.83200000000002,USA,north-america,16.49,24431214.0,313085381.0,,,,,0.0,0.0,-6.0,-15.0,-16.0,-16.0,-19.0,-20.0,-8.0,4.0,-6.0,-16.0,-5.0,5.0,17.0,15.0,17.0,21.0,25.0,22.0,32.0,38.0,39.0,39.0,46.0,49.0,55.0,73.0,83.0,91.0,109.0
1639,노스 스피트(훔볼트 만),40.766999999999996,-124.21700000000001,USA,north-america,16.49,24431214.0,313085381.0,5.39,1985.0,5.39,1639.0,0.0,35.0,45.0,36.0,33.0,40.0,35.0,50.0,76.0,89.0,108.0,120.0,123.0,128.0,123.0,117.0,114.0,105.0,102.0,119.0,131.0,145.0,140.0,132.0,131.0,136.0,133.0,150.0,153.0,174.0,189.0
1640,포트 오르포드,42.738,-124.49799999999999,USA,north-america,16.49,24431214.0,313085381.0,1.48,1985.0,1.48,1640.0,0.0,36.0,43.0,31.0,25.0,26.0,21.0,36.0,58.0,72.0,96.0,101.0,101.0,104.0,117.0,114.0,130.0,108.0,93.0,70.0,73.0,79.0,77.0,65.0,61.0,63.0,48.0,53.0,50.0,65.0,72.0
1641,파나마시티(세인트 앤드류 만),30.151999999999997,-85.667,USA,north-america,16.49,24431214.0,313085381.0,3.22,1985.0,3.22,1641.0,0.0,2.0,-6.0,-15.0,-21.0,-20.0,-17.0,-10.0,-5.0,7.0,9.0,0.0,1.0,5.0,7.0,4.0,3.0,1.0,12.0,9.0,19.0,23.0,24.0,19.0,32.0,31.0,36.0,48.0,60.0,61.0,71.0
2127,포트 엔젤레스(워싱턴 주),48.125,-123.44,USA,north-america,16.49,24431214.0,313085381.0,1.05,1976.0,1.05,2127.0,0.0,-1.0,-9.0,-41.0,-53.0,-42.0,-47.0,-38.0,-22.0,-11.0,-3.0,4.0,10.0,15.0,13.0,0.0,-10.0,-34.0,-43.0,-45.0,-36.0,-22.0,-22.0,-33.0,-38.0,-27.0,-34.0,-20.0,-26.0,-11.0,-13.0
2295,보퍼트(노스캐롤라이나 주),34.72,-76.67,USA,north-america,16.49,24431214.0,313085381.0,3.58,1973.0,3.58,2295.0,0.0,16.0,25.0,12.0,4.0,-1.0,1.0,9.0,23.0,29.0,41.0,39.0,41.0,45.0,58.0,57.0,56.0,51.0,45.0,33.0,42.0,48.0,51.0,54.0,69.0,67.0,73.0,86.0,94.0,105.0,114.0
2324,루이세타(버지니아 주),37.995,-76.465,USA,north-america,16.49,24431214.0,313085381.0,,,,,0.0,11.0,20.0,2.0,-8.0,-10.0,-3.0,1.0,22.0,23.0,30.0,42.0,54.0,69.0,89.0,97.0,92.0,81.0,73.0,74.0,95.0,107.0,116.0,118.0,131.0,135.0,148.0,166.0,173.0,174.0,165.0
2330,포트 시카고(캘리포니아 주),38.055,-122.04,USA,north-america,16.49,24431214.0,313085381.0,,,,,0.0,15.0,-7.0,-68.0,-84.0,-85.0,-103.0,-94.0,-69.0,-65.0,-35.0,-22.0,-13.0,1.0,1.0,-19.0,-29.0,-45.0,-66.0,-50.0,-35.0,-6.0,-10.0,-12.0,-18.0,-23.0,-34.0,-23.0,-25.0,-17.0,-6.0
14,헬싱키,60.153999999999996,24.956,FIN,europe,8.66,260454.0,5384770.0,-2.58,1879.0,-2.58,14.0,0.0,-20.0,-33.0,-57.0,-24.0,9.0,7.0,28.0,14.0,-17.0,-32.0,-67.0,-82.0,-70.0,-68.0,-76.0,-44.0,-53.0,-72.0,-66.0,-71.0,-75.0,-43.0,-19.0,-39.0,-66.0,-53.0,-68.0,-97.0,-108.0,-67.0
57,바사,63.082,21.570999999999998,FIN,europe,8.66,260454.0,5384770.0,-7.04,1884.0,-7.04,57.0,0.0,-18.0,-37.0,-62.0,-31.0,-3.0,-13.0,1.0,-15.0,-51.0,-73.0,-101.0,-121.0,-117.0,-123.0,-155.0,-137.0,-147.0,-174.0,-161.0,-149.0,-154.0,-128.0,-113.0,-138.0,-173.0,-164.0,-184.0,-216.0,-228.0,-188.0
71,항코,59.823,22.976999999999997,FIN,europe,8.66,260454.0,5384770.0,-3.85,1889.0,-3.85,71.0,0.0,-12.0,-18.0,-32.0,7.0,47.0,37.0,53.0,37.0,-1.0,-23.0,-54.0,-69.0,-76.0,-83.0,-124.0,-42.0,-36.67,-31.33,-26.0,-37.0,-56.0,-27.0,-21.0,-41.0,-65.0,-54.0,-69.0,-98.0,-109.0,-72.0
79,오울루,65.04,25.41800000000001,FIN,europe,8.66,260454.0,5384770.0,-6.22,1889.0,-6.22,79.0,0.0,-14.0,-42.0,-69.0,-33.0,-2.0,-1.0,19.0,5.0,-34.0,-52.0,-98.0,-123.0,-120.0,-122.0,-128.0,-106.0,-116.0,-134.0,-131.0,-136.0,-138.0,-107.0,-93.0,-119.0,-161.0,-150.0,-173.0,-204.0,-214.0,-167.0
172,맨투르토,61.593999999999994,21.463,FIN,europe,8.66,260454.0,5384770.0,-5.14,1911.0,-5.14,172.0,0.0,-20.0,-38.0,-59.0,-39.0,-11.0,-16.0,-1.0,-20.0,-44.0,-65.0,-101.0,-119.0,-110.0,-111.0,-116.0,-91.0,-98.0,-122.0,-122.0,-132.0,-137.0,-111.0,-91.0,-114.0,-144.0,-134.0,-152.0,-183.0,-195.0,-157.0
194,피에타사리,63.708999999999996,22.69,FIN,europe,8.66,260454.0,5384770.0,-6.86,1915.0,-6.86,194.0,0.0,-16.0,-39.0,-65.0,-38.0,-9.0,-21.0,-9.0,-23.0,-59.0,-80.0,-114.0,-134.0,-131.0,-134.0,-139.0,-117.0,-126.0,-148.0,-147.0,-156.0,-160.0,-132.0,-118.0,-145.0,-184.0,-175.0,-195.0,-225.0,-236.0,-192.0
229,케미,65.673,24.515,FIN,europe,8.66,260454.0,5384770.0,-5.74,1920.0,-5.74,229.0,0.0,-13.0,-40.0,-66.0,-40.0,-9.0,-16.0,-1.0,-14.0,-44.0,-64.0,-100.0,-121.0,-118.0,-120.0,-124.0,-102.0,-112.0,-132.0,-131.0,-137.0,-140.0,-108.0,-95.0,-122.0,-166.0,-154.0,-176.0,-205.0,-215.0,-167.0
239,투르쿠,60.428000000000004,22.101,FIN,europe,8.66,260454.0,5384770.0,-4.24,1922.0,-4.24,239.0,0.0,-19.0,-39.0,-61.0,-13.0,12.0,7.0,22.0,6.0,-26.0,-47.0,-81.0,-93.0,-81.0,-80.0,-83.0,-55.0,-63.0,-85.0,-82.0,-89.0,-95.0,-65.0,-45.0,-66.0,-92.0,-82.0,-98.0,-127.0,-137.0,-100.0
240,라헤,64.666,24.406999999999996,FIN,europe,8.66,260454.0,5384770.0,-7.36,1923.0,-7.36,240.0,0.0,-13.0,-44.0,-67.0,-37.0,-10.0,-15.0,1.0,-15.0,-53.0,-74.0,-110.0,-134.0,-132.0,-137.0,-143.0,-123.0,-132.0,-152.0,-151.0,-161.0,-165.0,-138.0,-126.0,-152.0,-193.0,-183.0,-203.0,-232.0,-241.0,-194.0
285,카스키넨,62.343999999999994,21.215,FIN,europe,8.66,260454.0,5384770.0,-6.44,1927.0,-6.44,285.0,0.0,-21.0,-45.0,-61.0,-32.0,-2.0,-9.0,7.0,-17.0,-52.0,-74.0,-110.0,-129.0,-120.0,-121.0,-126.0,-102.0,-110.0,-135.0,-136.0,-146.0,-152.0,-125.0,-107.0,-132.0,-165.0,-155.0,-173.0,-205.0,-216.0,-177.0
315,하미나,60.563,27.179000000000002,FIN,europe,8.66,260454.0,5384770.0,-1.63,1929.0,-1.63,315.0,0.0,-19.0,-34.0,-58.0,-20.0,15.0,14.0,37.0,21.0,-12.0,-32.0,-70.0,-84.0,-68.0,-65.0,-60.0,-27.0,-35.0,-54.0,-47.0,-54.0,-56.0,-21.0,5.0,-16.0,-48.0,-32.0,-48.0,-77.0,-87.0,-39.0
376,라우마,61.13399999999999,21.426,FIN,europe,8.66,260454.0,5384770.0,-5.07,1933.0,-5.07,376.0,0.0,-20.0,-37.0,-56.0,-26.0,3.0,-4.0,10.0,-7.0,-39.0,-61.0,-95.0,-110.0,-100.0,-101.0,-105.0,-80.0,-87.0,-109.0,-108.0,-117.0,-122.0,-94.0,-76.0,-98.0,-127.0,-117.0,-134.0,-164.0,-175.0,-138.0
33,오스카보리,59.678000000000004,10.605,NOR,europe,9.27,294257.0,4924848.0,-1.89,1954.0,-1.89,33.0,0.0,-14.0,-40.0,-39.0,-7.0,28.0,25.0,34.0,8.0,-18.0,-52.0,-74.0,-83.0,-70.0,-63.0,-55.0,-35.0,-35.0,-48.0,-52.0,-62.0,-59.0,-49.0,-38.0,-47.0,-70.0,-60.0,-69.0,-88.0,-90.0,-61.0
45,카벨보그,68.21300000000001,14.482000000000001,NOR,europe,9.27,294257.0,4924848.0,-0.62,1948.0,-0.62,45.0,0.0,6.0,-13.0,1.0,31.0,45.0,35.0,42.0,-1.0,-34.0,-47.0,-61.0,-69.0,-63.0,-56.0,-62.0,-52.0,-49.0,-49.0,-51.0,-43.0,-37.0,-30.0,-29.0,-34.0,-58.0,-52.0,-64.0,-67.0,-70.0,-38.0
47,스타방에르,58.974,5.73,NOR,europe,9.27,294257.0,4924848.0,0.97,1919.0,0.97,47.0,0.0,2.0,-5.0,-2.0,12.0,24.0,16.0,17.0,4.0,-4.0,-18.0,-26.0,-27.0,-15.0,-8.0,3.0,17.0,28.0,26.0,25.0,19.0,24.0,21.0,28.0,26.0,20.0,23.0,19.0,7.0,11.0,25.0
58,베르겐,60.398,5.32,NOR,europe,9.27,294257.0,4924848.0,1.16,1916.0,1.16,58.0,0.0,-5.0,-11.0,-7.0,14.0,36.0,32.0,35.0,22.0,13.0,-1.0,-8.0,-11.0,-1.0,4.0,15.0,27.0,35.0,29.0,26.0,18.0,22.0,22.0,31.0,31.0,23.0,29.0,25.0,12.0,14.0,29.0
62,오슬로,59.909,10.735,NOR,europe,9.27,294257.0,4924848.0,-1.01,1886.0,-1.01,62.0,0.0,-17.0,-42.0,-57.0,-28.0,-9.0,11.0,25.0,13.0,-7.0,-26.0,-72.0,-82.0,-74.0,-67.0,-58.0,-39.0,-40.0,-47.0,-52.0,-62.0,-59.0,-46.0,-36.0,-45.0,-69.0,-60.0,-71.0,-92.0,-94.0,-64.0
302,트레그데,58.006,7.555,NOR,europe,9.27,294257.0,4924848.0,1.28,1928.0,1.28,302.0,0.0,-7.0,-21.0,-27.0,-18.0,-2.0,-3.0,0.0,-9.0,-11.0,-18.0,-24.0,-22.0,-13.0,-10.0,-3.0,10.0,17.0,14.0,15.0,9.0,13.0,17.0,25.0,22.0,17.0,16.0,8.0,-4.0,-4.0,4.0
312,나르비크,68.428,17.426,NOR,europe,9.27,294257.0,4924848.0,-1.27,1932.0,-1.27,312.0,0.0,2.0,-26.0,-47.0,8.0,37.0,40.0,65.0,59.0,11.0,-3.0,-18.0,-28.0,-26.0,-22.0,-31.0,-25.0,-26.0,-24.0,-30.0,-22.0,-18.0,-11.0,-15.0,-22.0,-48.0,-47.0,-66.0,-70.0,-79.0,-51.0
313,하임스조,63.425,9.102,NOR,europe,9.27,294257.0,4924848.0,-0.04,1928.0,-0.04,313.0,0.0,1.0,-13.0,-19.0,8.0,24.0,20.0,29.0,15.0,-3.0,-17.0,-31.0,-35.0,-26.0,-23.0,-24.0,-11.0,-7.0,-12.0,-12.0,-8.0,-5.0,-4.0,2.0,-1.0,-17.0,-10.0,-19.0,-27.0,-29.0,-4.0
425,안데스,69.32600000000001,16.135,NOR,europe,9.27,294257.0,4924848.0,-0.68,1982.0,-0.68,425.0,0.0,-22.0,-33.0,-75.0,-100.0,-110.0,33.0,-40.0,-83.0,-96.0,-102.0,-149.0,-154.0,-148.0,-141.0,-143.0,-132.0,-128.0,-124.0,-126.0,-119.0,-113.0,-106.0,-107.0,-113.0,-132.0,-127.0,-137.0,-135.0,-137.0,-106.0
486,말로이,61.934,5.113,NOR,europe,9.27,294257.0,4924848.0,1.56,1944.0,1.56,486.0,0.0,4.0,-10.0,-9.0,17.0,36.0,26.0,34.0,24.0,11.0,-7.0,-14.0,-17.0,-7.0,1.0,8.0,22.0,31.0,28.0,26.0,25.0,32.0,32.0,42.0,43.0,34.0,41.0,36.0,26.0,27.0,48.0
509,알레순트,62.468999999999994,6.152,NOR,europe,9.27,294257.0,4924848.0,0.45,1945.0,0.45,509.0,0.0,13.0,-5.0,-11.0,15.0,36.0,27.0,38.0,25.0,10.0,-8.0,-20.0,-25.0,-14.0,-8.0,-1.0,14.0,22.0,19.0,17.0,14.0,20.0,21.0,28.0,27.0,15.0,18.0,8.0,-5.0,-8.0,11.0
524,바르되,70.375,31.104,NOR,europe,9.27,294257.0,4924848.0,0.22,1984.0,0.22,524.0,0.0,0.0,4.0,24.0,40.0,71.0,81.0,94.0,81.0,75.0,58.0,51.0,46.0,37.0,37.0,34.0,39.0,40.0,66.0,70.0,75.0,75.0,82.0,73.0,67.0,51.0,48.0,33.0,27.0,26.0,49.0
562,보되,67.288,14.390999999999998,NOR,europe,9.27,294257.0,4924848.0,0.48,1950.0,0.48,562.0,0.0,6.0,-30.0,-61.0,-19.0,22.0,24.0,60.0,45.0,25.0,6.0,-10.0,-18.0,-14.0,-9.0,-15.0,-4.0,-5.0,-8.0,-13.0,-8.0,-5.0,-1.0,-1.0,-8.0,-32.0,-26.0,-38.0,-40.0,-45.0,-10.0
680,트롬쇠,69.64699999999999,18.961,NOR,europe,9.27,294257.0,4924848.0,0.68,1953.0,0.68,680.0,0.0,0.0,-10.0,-4.0,32.0,73.0,74.0,85.0,62.0,32.0,19.0,8.0,2.0,5.0,11.0,7.0,15.0,17.0,22.0,19.0,24.0,28.0,36.0,31.0,27.0,15.0,18.0,4.0,6.0,-1.0,18.0
681,하르스타,68.801,16.548,NOR,europe,9.27,294257.0,4924848.0,0.22,1953.0,0.22,681.0,0.0,-1.0,-20.0,-19.0,15.0,65.0,69.0,88.0,68.0,42.0,2.0,-9.0,-16.0,-12.0,-6.0,-10.0,0.0,3.0,6.0,4.0,10.0,14.0,21.0,19.0,14.0,-6.0,-3.0,-15.0,-16.0,-20.0,8.0
682,크리스티안순,63.114,7.734,NOR,europe,9.27,294257.0,4924848.0,0.44,1953.0,0.44,682.0,0.0,-16.0,-28.0,-30.0,3.0,23.0,29.0,34.0,15.0,-11.0,-31.0,-45.0,-49.0,-38.0,-31.0,-28.0,-15.0,-9.0,-12.0,-13.0,-12.0,-6.0,-6.0,0.0,-3.0,-15.0,-8.0,-14.0,-22.0,-22.0,2.0
758,함메르페스트,70.665,23.683000000000003,NOR,europe,9.27,294257.0,4924848.0,1.06,1957.0,1.06,758.0,0.0,12.0,-4.0,-13.0,12.0,28.0,35.0,59.0,52.0,36.0,29.0,17.0,7.0,4.0,5.0,1.0,10.0,17.0,36.0,36.0,43.0,48.0,53.0,41.0,37.0,19.0,21.0,10.0,14.0,11.0,38.0
1113,헬게루아,58.995,9.856,NOR,europe,9.27,294257.0,4924848.0,-0.7,1984.0,-0.7,1113.0,0.0,0.0,-18.0,-23.0,-3.0,15.0,4.0,8.0,-4.0,-18.0,-35.0,-50.0,-55.0,-47.0,-42.0,-34.0,-17.0,-14.0,-21.0,-23.0,-31.0,-29.0,-19.0,-11.0,-22.0,-39.0,-33.0,-41.0,-55.0,-50.0,-28.0
1241,로르비크,64.859,11.23,NOR,europe,9.27,294257.0,4924848.0,-0.99,1970.0,-0.99,1241.0,0.0,0.0,-16.0,-16.0,11.0,31.0,28.0,36.0,15.0,-8.0,-23.0,-38.0,-44.0,-37.0,-31.0,-35.0,-20.0,-20.0,-25.0,-28.0,-24.0,-23.0,-20.0,-18.0,-24.0,-44.0,-37.0,-45.0,-50.0,-54.0,-25.0
41,포티,42.167,41.683,GEO,asia,2.41,176485.0,4329026.0,8.65,1874.0,8.65,41.0,0.0,-2.0,7.0,39.0,70.0,88.0,103.0,97.0,97.0,120.0,147.0,157.0,193.0,219.0,241.0,252.0,259.0,259.0,254.0,246.0,255.0,267.0,246.0,229.0,218.0,236.0,245.0,255.0,288.0,303.0,286.0
51,바투미,41.633,41.7,GEO,asia,2.41,176485.0,4329026.0,,,,,0.0,-6.0,1.0,30.0,44.0,77.0,108.0,129.0,151.0,184.0,206.0,212.0,223.0,220.0,223.0,221.0,159.33,97.67,36.0,26.0,62.0,84.0,103.0,131.0,158.0,160.0,162.0,150.0,129.0,109.0,94.0
69,올랑드 북곶,57.36600000000001,17.097,SWE,europe,4.48,678429.0,9440747.0,-1.09,1887.0,-1.09,69.0,0.0,-18.0,-23.0,-39.0,-12.0,14.0,8.0,19.0,6.0,-19.0,-33.0,-49.0,-57.0,-43.0,-41.0,-45.0,-25.0,-26.0,-41.0,-36.0,-39.0,-45.0,-20.0,-2.0,-20.0,-34.0,-28.0,-41.0,-65.0,-73.0,-49.0
70,쿵스홀름스포트,56.105,15.589,SWE,europe,4.48,678429.0,9440747.0,0.23,1887.0,0.23,70.0,0.0,-16.0,-17.0,-28.0,-1.0,22.0,19.0,29.0,15.0,-6.0,-16.0,-35.0,-43.0,-30.0,-29.0,-35.0,-10.0,-7.0,-21.0,-14.0,-16.0,-21.0,4.0,21.0,10.0,3.0,12.0,0.0,-17.0,-24.0,-6.0
78,스톡홀름,59.324,18.082,SWE,europe,4.48,678429.0,9440747.0,-2.9,1889.0,-2.9,78.0,0.0,-19.0,-28.0,-47.0,-20.0,7.0,-1.0,9.0,-8.0,-39.0,-59.0,-89.0,-101.0,-87.0,-87.0,-91.0,-65.0,-71.0,-91.0,-86.0,-93.0,-98.0,-69.0,-50.0,-70.0,-89.0,-81.0,-94.0,-123.0,-133.0,-104.0
88,라탄,63.986000000000004,20.895,SWE,europe,4.48,678429.0,9440747.0,-7.23,1892.0,-7.23,88.0,0.0,-18.0,-42.0,-68.0,-35.0,-3.0,-14.0,-1.0,-17.0,-61.0,-92.0,-133.0,-156.0,-152.0,-154.0,-154.0,-129.0,-140.0,-167.0,-168.0,-182.0,-187.0,-160.0,-146.0,-172.0,-209.0,-200.0,-219.0,-251.0,-263.0,-223.0
179,스모겐,58.354,11.218,SWE,europe,4.48,678429.0,9440747.0,0.2,1911.0,0.2,179.0,0.0,-6.0,-17.0,-13.0,11.0,18.0,-17.0,-14.0,-27.0,-35.0,-32.0,-20.0,-26.0,-21.0,-27.0,-26.0,-6.0,-1.0,-4.0,-1.0,-7.0,-5.0,4.0,11.0,4.0,-11.0,-5.0,-15.0,-31.0,-33.0,-16.0
203,푸루오그란드,64.916,21.230999999999998,SWE,europe,4.48,678429.0,9440747.0,-5.78,1916.0,-5.78,203.0,0.0,-17.0,-42.0,-70.0,-40.0,-8.0,-19.0,-11.0,-24.0,-67.0,-88.0,-126.0,-145.0,-141.0,-142.0,-150.0,-126.0,-132.0,-154.0,-150.0,-159.0,-162.0,-135.0,-121.0,-150.0,-189.0,-178.0,-197.0,-226.0,-235.0,-192.0
330,클락스함,55.522,12.894,SWE,europe,4.48,678429.0,9440747.0,0.38,1930.0,0.38,330.0,0.0,-14.0,-17.0,-21.0,5.0,11.0,20.0,21.0,4.0,-21.0,-15.0,-32.0,-27.0,-12.0,-8.0,-14.0,8.0,13.0,5.0,13.0,16.0,14.0,34.0,39.0,22.0,10.0,9.0,-8.0,-20.0,-25.0,-14.0
1211,스피까나,62.363,17.531,SWE,europe,4.48,678429.0,9440747.0,-5.9,1969.0,-5.9,1211.0,0.0,-21.0,-40.0,-63.0,-41.0,-18.0,-31.0,-24.0,-47.0,-79.0,-99.0,-134.0,-153.0,-141.0,-145.0,-152.0,-127.0,-130.0,-151.0,-150.0,-158.0,-162.0,-136.0,-123.0,-146.0,-177.0,-172.0,-194.0,-227.0,-240.0,-207.0
1236,예테보리,57.685,11.790999999999999,SWE,europe,4.48,678429.0,9440747.0,0.57,1969.0,0.57,1236.0,0.0,-10.0,-25.0,-36.0,-15.0,5.0,1.0,6.0,-6.0,-21.0,-36.0,-48.0,-48.0,-38.0,-34.0,-30.0,-12.0,-11.0,-15.0,-13.0,-17.0,-15.0,-5.0,5.0,-5.0,-20.0,-10.0,-15.0,-29.0,-29.0,-4.0
2101,칼릭스,65.697,23.096,SWE,europe,4.48,678429.0,9440747.0,-5.22,1975.0,-5.22,2101.0,0.0,-17.0,-48.0,-73.0,-39.0,-11.0,-17.0,3.0,-12.0,-51.0,-69.0,-115.0,-139.0,-137.0,-141.0,-141.0,-111.0,-121.0,-145.0,-143.0,-151.0,-152.0,-120.0,-105.0,-132.0,-175.0,-165.0,-187.0,-216.0,-225.0,-178.0
2103,포스마크,60.409,18.211,SWE,europe,4.48,678429.0,9440747.0,-4.52,1976.0,-4.52,2103.0,0.0,-20.0,-33.0,-54.0,-29.0,-2.0,-11.0,1.0,-18.0,-52.0,-76.0,-111.0,-133.0,-121.0,-119.0,-122.0,-93.0,-93.0,-114.0,-113.0,-122.0,-129.0,-105.0,-89.0,-110.0,-132.0,-124.0,-141.0,-172.0,-185.0,-158.0
2104,마르비켄,58.553999999999995,16.837,SWE,europe,4.48,678429.0,9440747.0,-2.37,1965.0,-2.37,2104.0,0.0,-19.0,-27.0,-38.0,-14.0,13.0,9.0,23.0,6.0,-16.0,-33.0,-61.0,-74.0,-65.0,-67.0,-73.0,-48.0,-53.0,-71.0,-67.0,-73.0,-78.0,-52.0,-33.0,-51.0,-66.0,-59.0,-73.0,-99.0,-106.0,-79.0
2105,비스뷔,57.638999999999996,18.284000000000002,SWE,europe,4.48,678429.0,9440747.0,-1.13,1916.0,-1.13,2105.0,0.0,-15.0,-21.0,-38.0,-7.0,18.0,15.0,27.0,11.0,-16.0,-30.0,-57.0,-67.0,-54.0,-52.0,-57.0,-28.0,-30.0,-42.0,-39.0,-43.0,-48.0,-24.0,-11.0,-26.0,-43.0,-37.0,-48.0,-67.0,-73.0,-43.0
2106,오스카르스함,57.275,16.477999999999998,SWE,europe,4.48,678429.0,9440747.0,-0.32,1961.0,-0.32,2106.0,0.0,-16.0,-18.0,-32.0,-5.0,19.0,14.0,23.0,9.0,-16.0,-32.0,-58.0,-68.0,-55.0,-55.0,-63.0,-35.0,-31.0,-43.0,-33.0,-31.0,-35.0,-10.0,8.0,-6.0,-15.0,-6.0,-19.0,-41.0,-51.0,-29.0
2107,심리스함,55.558,14.357999999999999,SWE,europe,4.48,678429.0,9440747.0,0.68,1983.0,0.68,2107.0,0.0,1.0,8.0,5.0,31.0,51.0,45.0,50.0,35.0,14.0,7.0,-8.0,-12.0,2.0,4.0,0.0,24.0,28.0,17.0,25.0,24.0,19.0,41.0,56.0,46.0,44.0,50.0,40.0,25.0,19.0,29.0
2110,비켄,56.141999999999996,12.579,SWE,europe,4.48,678429.0,9440747.0,0.96,1977.0,0.96,2110.0,0.0,-13.0,-18.0,-25.0,2.0,21.0,21.0,30.0,21.0,-2.0,-14.0,-30.0,-33.0,-22.0,-13.0,-14.0,8.0,10.0,4.0,9.0,9.0,8.0,25.0,35.0,25.0,18.0,28.0,18.0,6.0,2.0,16.0
2111,링할스,57.25,12.113,SWE,europe,4.48,678429.0,9440747.0,-0.19,1968.0,-0.19,2111.0,0.0,-10.0,-23.0,-30.0,-7.0,15.0,14.0,22.0,10.0,-2.0,-17.0,-35.0,-39.0,-31.0,-31.0,-31.0,-13.0,-14.0,-22.0,-22.0,-25.0,-24.0,-8.0,5.0,-3.0,-15.0,-6.0,-16.0,-33.0,-35.0,-15.0
2112,스텐웅순드,58.093,11.833,SWE,europe,4.48,678429.0,9440747.0,-1.16,1966.0,-1.16,2112.0,0.0,-8.0,-23.0,-31.0,-10.0,10.0,3.0,5.0,-19.0,-38.0,-55.0,-74.0,-79.0,-60.0,-52.0,-46.0,-25.0,-23.0,-30.0,-39.0,-51.0,-52.0,-43.0,-37.0,-44.0,-59.0,-49.0,-57.0,-72.0,-70.0,-44.0
2113,쿵스비크,58.997,11.127,SWE,europe,4.48,678429.0,9440747.0,-1.18,1974.0,-1.18,2113.0,0.0,-8.0,-25.0,-34.0,-13.0,5.0,-1.0,3.0,-14.0,-36.0,-57.0,-78.0,-85.0,-76.0,-70.0,-61.0,-41.0,-39.0,-45.0,-47.0,-53.0,-50.0,-39.0,-29.0,-37.0,-57.0,-49.0,-60.0,-78.0,-80.0,-56.0
76,오르후스,56.147,10.224,DNK,europe,5.94,1492575.0,5572594.0,2.63,1889.0,2.63,76.0,0.0,1.0,-5.0,-8.0,17.0,43.0,34.0,40.0,29.0,9.0,1.0,-3.0,-2.0,7.0,17.0,17.0,35.0,44.0,44.0,48.0,54.0,55.0,65.0,74.0,70.0,66.0,67.0,58.0,,,
80,에스비에르,55.46100000000001,8.441,DNK,europe,5.94,1492575.0,5572594.0,2.68,1889.0,2.68,80.0,0.0,-12.0,-31.0,-30.0,-8.0,27.0,32.0,43.0,22.0,24.0,-4.0,-29.0,-33.0,-16.0,-14.0,-3.0,29.0,33.0,22.0,23.0,13.0,21.0,38.0,58.0,47.0,34.0,45.0,38.0,,,
81,프레데리시아,55.56100000000001,9.754,DNK,europe,5.94,1492575.0,5572594.0,2.01,1890.0,2.01,81.0,0.0,-10.0,-13.0,-14.0,7.0,14.0,10.0,15.0,8.0,-6.0,-4.0,-7.0,-7.0,2.0,6.0,1.0,16.0,29.0,27.0,31.0,35.0,31.0,38.0,46.0,45.0,47.0,51.0,40.0,,,
82,쾨벤하운,55.705,12.6,DNK,europe,5.94,1492575.0,5572594.0,1.81,1889.0,1.81,82.0,0.0,-13.0,-21.0,-30.0,-7.0,6.0,-13.0,8.0,0.0,-17.0,-21.0,-16.0,-24.0,-8.0,-3.0,-2.0,28.0,34.0,24.0,40.0,41.0,26.0,35.0,44.0,21.0,-12.0,14.0,-2.0,,,
89,히르트샬,57.596000000000004,9.964,DNK,europe,5.94,1492575.0,5572594.0,-0.21,1892.0,-0.21,89.0,0.0,-16.0,-5.0,5.0,9.0,29.0,21.0,23.0,5.0,-8.0,-24.0,-37.0,-38.0,-28.0,-25.0,-22.0,-2.0,0.0,-1.0,0.0,-5.0,1.0,11.0,16.0,8.0,-5.0,0.0,-9.0,,,
91,프레데릭스하운,57.43600000000001,10.549000000000001,DNK,europe,5.94,1492575.0,5572594.0,-0.98,1894.0,-0.98,91.0,0.0,-9.0,-17.0,-19.0,1.0,9.0,1.0,0.0,-15.0,-31.0,-39.0,-45.0,-42.0,-21.0,-13.0,-13.0,0.0,0.0,-17.0,-21.0,-25.0,-22.0,-8.0,3.0,-8.0,-17.0,-21.0,-43.0,,,
98,슬립스하운,55.288000000000004,10.828,DNK,europe,5.94,1492575.0,5572594.0,2.14,1896.0,2.14,98.0,0.0,-9.0,-11.0,-12.0,9.0,21.0,21.0,19.0,5.0,-13.0,-13.0,-27.0,-22.0,1.0,8.0,1.0,24.0,32.0,22.0,28.0,31.0,28.0,38.0,47.0,44.0,42.0,50.0,39.0,,,
113,코르소르,55.332,11.142000000000001,DNK,europe,5.94,1492575.0,5572594.0,1.92,1897.0,1.92,113.0,0.0,-17.0,-55.0,-55.0,-32.0,-14.0,-10.0,-3.0,-7.0,-16.0,-17.0,-20.0,-15.0,-1.0,5.0,2.0,17.0,19.0,8.0,5.0,1.0,-8.0,4.0,13.0,12.0,15.0,25.0,14.0,,,
119,혼백,56.091,12.458,DNK,europe,5.94,1492575.0,5572594.0,2.67,1891.0,2.67,119.0,0.0,-14.0,-20.0,-27.0,-1.0,2.0,-1.0,4.0,-10.0,-28.0,-36.0,-49.0,-50.0,-35.0,-30.0,-31.0,-1.0,9.0,13.0,27.0,35.0,33.0,43.0,47.0,27.0,20.0,32.0,28.0,,,
120,게세르,54.573,11.925999999999998,DNK,europe,5.94,1492575.0,5572594.0,2.39,1892.0,2.39,120.0,0.0,-10.0,-2.0,-7.0,13.0,22.0,12.0,15.0,8.0,-9.0,-6.0,-7.0,-8.0,7.0,12.0,0.0,15.0,16.0,4.0,12.0,17.0,0.0,22.0,42.0,42.0,51.0,68.0,64.0,,,
703,한스홀름,57.119,8.596,DNK,europe,5.94,1492575.0,5572594.0,2.61,1953.0,2.61,703.0,0.0,-2.0,-11.0,-13.0,14.0,47.0,27.0,27.0,8.0,0.0,-25.0,-22.0,-18.0,1.0,9.0,13.0,39.0,43.0,41.0,42.0,43.0,47.0,62.0,75.0,72.0,60.0,66.0,57.0,,,
762,뢰드비하운,54.65600000000001,11.349,DNK,europe,5.94,1492575.0,5572594.0,1.16,1955.0,1.16,762.0,0.0,-14.0,-3.0,-30.0,-58.0,-63.0,-87.0,-108.0,-113.0,-126.0,-117.0,-107.0,-101.0,-85.0,-77.0,-90.0,-72.0,-57.0,-64.0,-59.0,-47.0,-67.0,-74.0,-75.0,-81.0,-81.0,-67.0,-57.0,,,
1197,퓐샤브,54.995,9.987,DNK,europe,5.94,1492575.0,5572594.0,1.78,1968.0,1.78,1197.0,0.0,-6.0,2.0,4.0,26.0,41.0,34.0,34.0,26.0,11.0,13.0,14.0,16.0,23.0,22.0,6.0,12.0,17.0,15.0,24.0,36.0,39.0,49.0,53.0,52.0,71.0,75.0,71.0,,,
96,핼리팩스,44.667,-63.583,CAN,north-america,15.11,1300770.0,34349561.0,,1896.0,,96.0,0.0,-6.0,3.0,1.0,3.0,0.0,7.0,6.0,6.0,2.0,8.0,15.0,28.0,37.0,45.0,49.0,44.0,34.0,22.0,28.0,32.0,40.0,42.0,54.0,60.0,79.0,90.0,106.0,121.0,115.0,
126,트루아-리비에르,46.333,-72.55,CAN,north-america,15.11,1300770.0,34349561.0,-7.87,1925.0,-7.87,126.0,0.0,2.0,12.0,-64.0,-146.0,-156.0,-220.0,-232.0,-152.0,-99.0,-159.0,-107.0,-33.0,-66.0,-150.0,-149.0,-308.0,-424.0,-512.0,-450.0,-433.0,-302.0,-307.0,-199.0,-174.0,-224.0,-231.0,-253.0,-309.0,-309.0,-283.0
137,포트-생-프헝쑤와,46.266999999999996,-72.617,CAN,north-america,15.11,1300770.0,34349561.0,,1964.0,,137.0,0.0,20.0,18.0,-60.0,-147.0,-162.0,-225.0,-222.0,-137.0,-78.0,-84.0,-66.0,0.0,-92.0,-260.0,-428.0,-741.0,-611.0,-613.0,-553.0,-552.0,-342.0,-360.0,-228.0,-176.0,-184.0,-187.0,-209.0,-264.0,-264.0,-241.0
144,바티스껑,46.5,-72.25,CAN,north-america,15.11,1300770.0,34349561.0,-4.14,1961.0,-4.14,144.0,0.0,9.0,12.0,-56.0,-38.0,-35.0,-32.0,-32.0,36.0,81.0,42.0,27.0,79.0,52.0,4.0,-3.0,-129.0,-218.0,-284.0,-255.0,-236.0,-127.0,-133.0,-49.0,-21.0,-51.0,-47.0,-55.0,-95.0,-95.0,-83.0
165,토피노,49.15,-125.917,CAN,north-america,15.11,1300770.0,34349561.0,0.66,1910.0,0.66,165.0,0.0,-6.0,-3.0,-36.0,-69.0,-62.0,-72.0,-81.0,-78.0,-76.0,-65.0,-56.0,-49.0,-38.0,-33.0,-47.0,-60.0,-84.0,-92.0,-91.0,-83.0,-69.0,-68.0,-81.0,-84.0,-77.0,-84.0,-73.0,-80.0,-70.0,-72.0
166,빅토리아,48.417,-123.367,CAN,north-america,15.11,1300770.0,34349561.0,1.72,1910.0,1.72,166.0,0.0,-14.0,-32.0,-65.0,-74.0,-60.0,-66.0,-56.0,-45.0,-42.0,-36.0,-29.0,-23.0,-19.0,-18.0,-30.0,-40.0,-60.0,-61.0,-60.0,-50.0,-36.0,-37.0,-47.0,-46.0,-39.0,-44.0,-30.0,-34.0,-25.0,-23.0
167,프린스 루퍼트,54.317,-130.333,CAN,north-america,15.11,1300770.0,34349561.0,2.04,1909.0,2.04,167.0,0.0,-12.0,-7.0,-30.0,-50.0,-38.0,-35.0,-26.0,-19.0,-8.0,-3.0,-6.0,-7.0,-4.0,0.0,-3.0,1.0,-16.0,-16.0,-15.0,-1.0,4.0,17.0,10.0,7.0,10.0,12.0,13.0,-2.0,7.0,3.0
173,퀘벡(로종),46.833,-71.167,CAN,north-america,15.11,1300770.0,34349561.0,1.29,1911.0,1.29,173.0,0.0,-12.0,-10.0,-33.0,-67.0,-60.0,-63.0,-60.0,-44.0,-17.0,-15.0,8.0,26.0,29.0,18.0,9.0,-23.0,-48.0,-79.0,-75.0,-68.0,-45.0,-47.0,-26.0,-17.0,-9.0,-4.0,4.0,,,
175,밴쿠버,49.283,-123.117,CAN,north-america,15.11,1300770.0,34349561.0,,,,,0.0,-1.0,-11.0,-44.0,-60.0,-49.0,-52.0,-43.0,-32.0,-20.0,-11.0,-5.0,1.0,13.0,14.0,3.0,-7.0,-24.0,-35.0,-35.0,-25.0,-11.0,-11.0,-17.0,-25.0,-16.0,-14.0,3.0,3.0,22.0,24.0
192,뇌빌르,46.7,-71.567,CAN,north-america,15.11,1300770.0,34349561.0,0.67,1961.0,0.67,192.0,0.0,-11.0,-13.0,-46.0,-94.0,-100.0,-110.0,-102.0,-84.0,-59.0,-62.0,-41.0,-19.0,-14.0,-29.0,-35.0,-90.0,-126.0,-163.0,-149.0,-142.0,-98.0,-102.0,-72.0,-61.0,-59.0,-50.0,-41.0,-48.0,-43.0,-54.0
193,포인트 앳킨슨,49.333,-123.25,CAN,north-america,15.11,1300770.0,34349561.0,2.25,1915.0,2.25,193.0,0.0,-8.0,-23.0,-60.0,-74.0,-63.0,-62.0,-49.0,-37.0,-26.0,-17.0,-12.0,-17.0,-9.0,-7.0,-19.0,-29.0,-37.0,-41.0,-41.0,-31.0,-17.0,-14.0,-24.0,-29.0,-23.0,-27.0,-16.0,-19.0,-4.0,-1.0
195,세인트 존,45.266999999999996,-66.067,CAN,north-america,15.11,1300770.0,34349561.0,2.0,1929.0,2.0,195.0,0.0,-1.0,1.0,0.0,-9.0,-4.0,-6.0,-4.0,4.0,22.0,24.0,37.0,58.0,78.0,100.0,92.0,71.0,41.0,13.0,-15.0,1.0,22.0,31.0,35.0,56.0,61.0,62.0,74.0,73.0,73.0,49.0
201,데샤이용,46.567,-72.1,CAN,north-america,15.11,1300770.0,34349561.0,-2.14,1960.0,-2.14,201.0,0.0,-5.0,3.0,-53.0,-114.0,-113.0,-158.0,-159.0,-106.0,-62.0,-89.0,-39.0,13.0,3.0,-45.0,-48.0,-155.0,-229.0,-293.0,-254.0,-243.0,-154.0,-161.0,-91.0,-72.0,-93.0,-96.0,-102.0,-134.0,-132.0,-129.0
392,포르 오 바스크,47.567,-59.133,CAN,north-america,15.11,1300770.0,34349561.0,3.31,1959.0,3.31,392.0,0.0,-3.0,-1.0,-5.0,-5.0,-10.0,-9.0,-5.0,-7.0,-7.0,-4.0,2.0,7.0,11.0,13.0,16.0,18.0,17.0,23.0,24.0,28.0,31.0,31.0,35.0,50.0,67.0,79.0,90.0,98.0,99.0,87.0
393,세인트 존스,47.567,-52.717,CAN,north-america,15.11,1300770.0,34349561.0,1.84,1957.0,1.84,393.0,0.0,7.0,23.0,24.0,10.0,-3.0,5.0,-2.0,-4.0,9.0,22.0,25.0,36.0,44.0,39.0,33.0,27.0,22.0,40.0,53.0,51.0,35.0,66.0,48.0,49.0,71.0,93.0,64.0,76.0,68.0,53.0
427,샬럿타운,46.233000000000004,-63.117,CAN,north-america,15.11,1300770.0,34349561.0,3.81,1938.0,3.81,427.0,0.0,-8.0,-10.0,-14.0,-18.0,-21.0,-10.0,-9.0,-8.0,0.0,5.0,13.0,30.0,41.0,48.0,58.0,56.0,51.0,48.0,41.0,36.0,32.0,32.0,36.0,55.0,82.0,99.0,106.0,113.0,109.0,93.0
447,처칠,58.766999999999996,-94.18299999999999,CAN,north-america,15.11,1300770.0,34349561.0,-7.16,1940.0,-7.16,447.0,0.0,-2.0,-31.0,-41.0,-79.0,-108.0,-92.0,-89.0,-107.0,-117.0,-124.0,-156.0,-150.0,-146.0,-148.0,-149.0,-156.0,-166.0,-171.0,-185.0,-192.0,-186.0,-193.0,-203.0,-195.0,-186.0,-201.0,-202.0,-204.0,-214.0,-260.0
829,퀸 샬로트 시티,53.25,-132.067,CAN,north-america,15.11,1300770.0,34349561.0,1.66,1966.0,1.66,829.0,0.0,-8.0,-6.0,-32.0,-49.0,-39.0,-43.0,-35.0,-25.0,-15.0,-14.0,-13.0,-15.0,-10.0,-14.0,-17.0,-16.0,-29.0,-30.0,-24.0,-11.0,-2.0,2.0,-11.0,-20.0,-19.0,-28.0,-24.0,-28.0,-9.0,-1.0
984,벨라 벨라,52.167,-128.13299999999998,CAN,north-america,15.11,1300770.0,34349561.0,0.91,1962.0,0.91,984.0,0.0,-5.0,-5.0,-32.0,-49.0,-39.0,-51.0,-50.0,-48.0,-41.0,-34.0,-27.0,-18.0,-8.0,-7.0,-17.0,-21.0,-46.0,-50.0,-50.0,-36.0,-28.0,-20.0,-29.0,-34.0,-29.0,-29.0,-24.0,-34.0,-21.0,-25.0
999,셍-프헝쑤와,47.0,-70.817,CAN,north-america,15.11,1300770.0,34349561.0,1.82,1963.0,1.82,999.0,0.0,-17.0,-17.0,-36.0,-66.0,-67.0,-67.0,-67.0,-61.0,-49.0,-43.0,-26.0,-9.0,3.0,11.0,10.0,-9.0,-30.0,-55.0,-57.0,-54.0,-41.0,-40.0,-21.0,5.0,18.0,25.0,33.0,26.0,8.0,-14.0
1071,포트 하디,50.717,-127.48299999999999,CAN,north-america,15.11,1300770.0,34349561.0,0.43,1965.0,0.43,1071.0,0.0,-7.0,-4.0,-30.0,-46.0,-38.0,-44.0,-39.0,-31.0,-24.0,-15.0,-4.0,2.0,6.0,2.0,-11.0,-28.0,-52.0,-55.0,-53.0,-38.0,-28.0,-22.0,-31.0,-36.0,-31.0,-35.0,-29.0,-40.0,-27.0,-31.0
1152,페트리시아 베이,48.65,-123.45,CAN,north-america,15.11,1300770.0,34349561.0,1.92,1977.0,1.92,1152.0,0.0,-12.0,-28.0,-60.0,-72.0,-58.0,-60.0,-51.0,-40.0,-29.0,-21.0,-19.0,-17.0,-7.0,-9.0,-22.0,-31.0,-47.0,-53.0,-51.0,-40.0,-24.0,-24.0,-35.0,-41.0,-36.0,-41.0,-29.0,-33.0,-17.0,-13.0
1158,야머스,43.833,-66.133,CAN,north-america,15.11,1300770.0,34349561.0,4.24,1967.0,4.24,1158.0,0.0,10.0,24.0,14.0,11.0,6.0,7.0,-2.0,2.0,3.0,12.0,23.0,34.0,44.0,53.0,56.0,51.0,46.0,44.0,51.0,51.0,50.0,55.0,62.0,71.0,96.0,114.0,124.0,130.0,130.0,116.0
1213,히비에흐-오-흐노,49.0,-64.383,CAN,north-america,15.11,1300770.0,34349561.0,2.16,1969.0,2.16,1213.0,0.0,-12.0,-6.0,-8.0,-7.0,-10.0,-5.0,-4.0,-5.0,3.0,11.0,22.0,33.0,39.0,38.0,45.0,48.0,42.0,42.0,52.0,51.0,49.0,50.0,53.0,54.0,70.0,77.0,85.0,90.0,88.0,66.0
1242,뱀필드,48.85,-125.133,CAN,north-america,15.11,1300770.0,34349561.0,0.22,1971.0,0.22,1242.0,0.0,-4.0,-16.0,-50.0,-62.0,-52.0,-59.0,-52.0,-44.0,-38.0,-28.0,-23.0,-18.0,-9.0,-9.0,-25.0,-35.0,-54.0,-61.0,-59.0,-48.0,-33.0,-34.0,-49.0,-59.0,-58.0,-68.0,-57.0,-65.0,-49.0,-48.0
1244,셍-조세프-드-라-히브,47.45,-70.367,CAN,north-america,15.11,1300770.0,34349561.0,0.99,1980.0,0.99,1244.0,0.0,-17.0,-33.0,-51.0,-78.0,-79.0,-79.0,-79.0,-101.0,-118.0,-122.0,-126.0,-136.0,-114.0,-83.0,-71.0,-68.0,-56.0,-65.0,-64.0,-62.0,-54.0,-52.0,-31.0,-23.0,-12.0,-9.0,-7.0,-18.0,-34.0,-65.0
1245,뉴 웨스트민스터,49.2,-122.917,CAN,north-america,15.11,1300770.0,34349561.0,3.62,1970.0,3.62,1245.0,0.0,-8.0,-28.0,-62.0,-81.0,-54.0,-53.0,-68.0,-71.0,-64.0,-71.0,-87.0,-25.0,-12.0,17.0,9.0,6.0,-25.0,-22.0,-41.0,-24.0,-5.0,4.0,4.0,-3.0,-8.0,8.0,19.0,13.0,37.0,46.0
1299,노스 시드니,46.217,-60.25,CAN,north-america,15.11,1300770.0,34349561.0,4.21,1970.0,4.21,1299.0,0.0,-4.0,8.0,10.0,8.0,-1.0,6.0,9.0,8.0,12.0,23.0,29.0,42.0,50.0,58.0,57.0,58.0,53.0,54.0,55.0,67.0,69.0,76.0,79.0,91.0,107.0,123.0,125.0,140.0,137.0,121.0
1321,아르겐샤,47.3,-53.983000000000004,CAN,north-america,15.11,1300770.0,34349561.0,2.5,1972.0,2.5,1321.0,0.0,7.0,25.0,36.0,38.0,26.0,30.0,30.0,20.0,21.0,25.0,30.0,38.0,42.0,45.0,48.0,51.0,48.0,61.0,67.0,68.0,62.0,70.0,60.0,68.0,88.0,102.0,101.0,115.0,110.0,99.0
1322,세뜨-일르,50.2,-66.4,CAN,north-america,15.11,1300770.0,34349561.0,0.01,1981.0,0.01,1322.0,0.0,0.0,7.0,-2.0,-12.0,-31.0,-42.0,-55.0,-49.0,-29.0,3.0,19.0,49.0,52.0,45.0,27.0,24.0,6.0,5.0,-1.0,0.0,3.0,6.0,2.0,6.0,21.0,21.0,17.0,21.0,15.0,-11.0
1323,캠벨리버,50.016999999999996,-125.23299999999999,CAN,north-america,15.11,1300770.0,34349561.0,-0.36,1967.0,-0.36,1323.0,0.0,-2.0,-16.0,-51.0,-68.0,-59.0,-67.0,-62.0,-59.0,-55.0,-55.0,-50.0,-40.0,-27.0,-28.0,-44.0,-59.0,-87.0,-97.0,-97.0,-87.0,-73.0,-66.0,-70.0,-72.0,-61.0,-61.0,-56.0,-70.0,-67.0,-79.0
1349,로우어 에스쿠미낙,47.083,-64.883,CAN,north-america,15.11,1300770.0,34349561.0,4.17,1973.0,4.17,1349.0,0.0,-17.0,-14.0,-16.0,-24.0,-30.0,-19.0,-18.0,-16.0,-7.0,6.0,12.0,30.0,40.0,42.0,46.0,43.0,29.0,21.0,25.0,28.0,36.0,44.0,52.0,61.0,82.0,90.0,95.0,104.0,106.0,87.0
1392,포트 알프레드,48.333,-70.867,CAN,north-america,15.11,1300770.0,34349561.0,,,,,0.0,-19.0,-21.0,-46.0,-60.0,-65.0,-54.0,-57.0,-47.0,-30.0,-17.0,-3.0,8.0,7.0,-1.0,-6.0,-18.0,-37.0,-55.0,-55.0,-49.0,-48.0,-48.0,-33.0,-29.0,-23.0,-21.0,2.0,-25.0,,
1597,히무스끼,48.483000000000004,-68.517,CAN,north-america,15.11,1300770.0,34349561.0,0.41,1985.0,0.41,1597.0,0.0,-7.0,0.0,7.0,1.0,-5.0,-5.0,-11.0,-19.0,-20.0,4.0,24.0,27.0,31.0,37.0,16.0,0.0,-8.0,-15.0,-15.0,-11.0,-5.0,-2.0,3.0,5.0,17.0,24.0,30.0,32.0,36.0,16.0
111,프리맨틀,-32.056,115.73899999999999,AUS,oceania,15.4,2662710.0,22605732.0,4.77,1897.0,4.77,111.0,0.0,-6.0,-9.0,0.0,3.0,-5.0,-3.0,6.0,-20.0,-39.0,-30.0,-6.0,-5.0,14.0,52.0,73.0,65.0,67.0,67.0,40.0,22.0,16.0,29.0,52.0,65.0,72.0,107.0,131.0,138.0,141.0,139.0
189,포트 헤들랜드,-20.317999999999998,118.574,AUS,oceania,15.4,2662710.0,22605732.0,4.76,1966.0,4.76,189.0,0.0,-12.0,-20.0,-2.0,10.0,9.0,6.0,5.0,-20.0,-44.0,-41.0,-17.0,-9.0,15.0,53.0,83.0,91.0,98.0,90.0,69.0,47.0,41.0,59.0,85.0,98.0,116.0,136.0,162.0,171.0,167.0,145.0
196,시드니(포트 데니슨 2),-33.855,151.226,AUS,oceania,15.4,2662710.0,22605732.0,1.61,1915.0,1.61,196.0,0.0,-1.0,2.0,14.0,17.0,24.0,25.0,32.0,22.0,12.0,0.0,-3.0,-14.0,-5.0,0.0,9.0,23.0,35.0,34.0,33.0,31.0,18.0,20.0,22.0,27.0,30.0,41.0,43.0,56.0,63.0,66.0
216,포트 피리,-33.178000000000004,138.012,AUS,oceania,15.4,2662710.0,22605732.0,3.93,1941.0,3.93,216.0,0.0,-9.0,-16.0,-4.0,-1.0,2.0,2.0,10.0,-12.0,-25.0,-35.0,-30.0,-46.0,-36.0,-17.0,12.0,26.0,59.0,67.0,62.0,56.0,46.0,54.0,68.0,84.0,79.0,91.0,94.0,104.0,99.0,98.0
230,포트 링컨,-34.716,135.87,AUS,oceania,15.4,2662710.0,22605732.0,2.62,1966.0,2.62,230.0,0.0,-10.0,-12.0,-1.0,-12.0,-20.0,-14.0,-2.0,-15.0,-10.0,1.0,10.0,2.0,9.0,31.0,44.0,45.0,57.0,59.0,42.0,35.0,22.0,27.0,43.0,54.0,48.0,62.0,66.0,70.0,64.0,57.0
448,포트 애들레이드(외항),-34.78,138.481,AUS,oceania,15.4,2662710.0,22605732.0,3.59,1941.0,3.59,448.0,0.0,-10.0,-14.0,-3.0,-5.0,-2.0,-2.0,5.0,-14.0,-22.0,-29.0,-17.0,-26.0,-19.0,-8.0,15.0,17.0,34.0,39.0,44.0,38.0,22.0,31.0,46.0,55.0,54.0,73.0,83.0,90.0,86.0,79.0
564,매카이,-21.1,149.233,AUS,oceania,15.4,2662710.0,22605732.0,3.47,1966.0,3.47,564.0,0.0,10.0,-8.0,-5.0,-1.0,1.0,5.0,19.0,20.0,19.0,13.0,3.0,5.0,10.0,21.0,39.0,47.0,51.0,52.0,40.0,34.0,29.0,30.0,30.0,35.0,55.0,77.0,86.0,102.0,111.0,100.0
637,타운스빌 1,-19.25,146.833,AUS,oceania,15.4,2662710.0,22605732.0,3.5,1959.0,3.5,637.0,0.0,-8.0,-6.0,4.0,15.0,23.0,31.0,31.0,17.0,10.0,10.0,5.0,8.0,24.0,31.0,40.0,44.0,46.0,36.0,23.0,13.0,13.0,21.0,24.0,41.0,67.0,85.0,94.0,110.0,117.0,107.0
822,브리즈번(웨스트 이너 바),-27.366999999999997,153.167,AUS,oceania,15.4,2662710.0,22605732.0,3.27,1966.0,3.27,822.0,0.0,-16.0,-12.0,-11.0,-19.0,-11.0,5.0,8.0,-2.0,-10.0,-17.0,-22.0,-30.0,-23.0,-10.0,-2.0,10.0,21.0,25.0,19.0,21.0,14.0,18.0,22.0,29.0,38.0,57.0,65.0,78.0,81.0,82.0
825,글래드스톤,-23.854,151.314,AUS,oceania,15.4,2662710.0,22605732.0,3.89,1978.0,3.89,825.0,0.0,-7.0,-12.0,-1.0,13.0,34.0,55.0,67.0,58.0,53.0,50.0,35.0,31.0,45.0,56.0,56.0,64.0,64.0,61.0,50.0,54.0,49.0,48.0,51.0,58.0,77.0,97.0,112.0,126.0,136.0,129.0
834,번버리,-33.323,115.66,AUS,oceania,15.4,2662710.0,22605732.0,3.03,1958.0,3.03,834.0,0.0,-8.0,5.0,19.0,25.0,16.0,22.0,11.0,-19.0,-38.0,-30.0,-13.0,-16.0,2.0,34.0,53.0,48.0,53.0,53.0,28.0,7.0,-5.0,6.0,24.0,33.0,37.0,74.0,94.0,102.0,106.0,103.0
835,카룸바,-17.5,140.833,AUS,oceania,15.4,2662710.0,22605732.0,3.51,1985.0,3.51,835.0,0.0,21.0,-8.0,0.0,18.0,9.0,-24.0,-10.0,-5.0,-48.0,-37.0,-6.0,-34.0,-38.0,5.0,27.0,40.0,65.0,88.0,73.0,50.0,34.0,39.0,36.0,66.0,88.0,119.0,133.0,128.0,103.0,70.0
837,뉴캐슬 5,-32.924,151.789,AUS,oceania,15.4,2662710.0,22605732.0,2.3,1966.0,2.3,837.0,0.0,-3.0,-3.0,12.0,30.0,39.0,38.0,50.0,37.0,24.0,13.0,17.0,7.0,22.0,33.0,45.0,61.0,72.0,67.0,61.0,55.0,42.0,44.0,51.0,56.0,58.0,67.0,70.0,83.0,90.0,96.0
953,케언스,-16.917,145.783,AUS,oceania,15.4,2662710.0,22605732.0,,,,,0.0,51.0,114.0,131.0,133.0,155.0,160.0,161.0,150.0,153.0,150.0,141.0,137.0,151.0,159.0,164.0,172.0,178.0,170.0,159.0,149.0,148.0,156.0,156.0,169.0,195.0,207.0,212.0,222.0,220.0,193.0
1069,빅터 하버,-35.562,138.635,AUS,oceania,15.4,2662710.0,22605732.0,2.13,1966.0,2.13,1069.0,0.0,-15.0,-19.0,5.0,22.0,40.0,44.0,56.0,39.0,24.0,14.0,28.0,18.0,23.0,31.0,48.0,41.0,60.0,61.0,55.0,46.0,30.0,32.0,44.0,58.0,57.0,82.0,91.0,103.0,99.0,88.0
1115,카나본,-24.899,113.65100000000001,AUS,oceania,15.4,2662710.0,22605732.0,3.62,1967.0,3.62,1115.0,0.0,4.0,18.0,18.0,-10.0,-22.0,-52.0,-62.0,-74.0,-82.0,-78.0,-52.0,-47.0,-23.0,15.0,41.0,45.0,48.0,39.0,8.0,-20.0,-32.0,-21.0,8.0,25.0,43.0,79.0,103.0,105.0,103.0,91.0
1116,윈덤,-15.453,128.101,AUS,oceania,15.4,2662710.0,22605732.0,5.48,1985.0,5.48,1116.0,0.0,-2.0,-19.0,-14.0,-10.0,-24.0,-31.0,-32.0,-49.0,-71.0,-54.0,-37.0,-27.0,-4.0,38.0,76.0,99.0,99.0,94.0,81.0,53.0,32.0,49.0,76.0,85.0,99.0,133.0,145.0,148.0,144.0,117.0
1154,번다버그(버넷 헤드),-24.767,152.38299999999995,AUS,oceania,15.4,2662710.0,22605732.0,3.36,1966.0,3.36,1154.0,0.0,-8.0,-10.0,-3.0,7.0,12.0,25.0,38.0,30.0,20.0,18.0,14.0,6.0,17.0,25.0,29.0,32.0,33.0,30.0,22.0,20.0,12.0,16.0,14.0,19.0,39.0,58.0,65.0,84.0,107.0,109.0
1157,웨이파,-12.667,141.86700000000005,AUS,oceania,15.4,2662710.0,22605732.0,3.47,1966.0,3.47,1157.0,0.0,13.0,-6.0,4.0,32.0,42.0,1.0,8.0,-20.0,-58.0,-77.0,-33.0,-42.0,-19.0,17.0,46.0,52.0,64.0,59.0,37.0,13.0,2.0,12.0,37.0,59.0,83.0,106.0,121.0,122.0,114.0,87.0
1246,헤이 포인트,-21.283,149.3,AUS,oceania,15.4,2662710.0,22605732.0,3.71,1985.0,3.71,1246.0,0.0,15.0,-4.0,1.0,-19.0,-27.0,-13.0,0.0,-1.0,23.0,37.0,22.0,18.0,24.0,30.0,29.0,28.0,30.0,28.0,14.0,8.0,2.0,2.0,8.0,24.0,53.0,82.0,96.0,111.0,119.0,108.0
1328,케이브 램버트,-20.588,117.186,AUS,oceania,15.4,2662710.0,22605732.0,4.47,1984.0,4.47,1328.0,0.0,-3.0,-19.0,3.0,7.0,1.0,-7.0,-7.0,-28.0,-68.0,-76.0,-52.0,-42.0,-20.0,30.0,71.0,80.0,87.0,75.0,55.0,32.0,16.0,30.0,58.0,71.0,90.0,118.0,135.0,146.0,142.0,120.0
1420,왈라우 2,-33.926,137.615,AUS,oceania,15.4,2662710.0,22605732.0,1.67,1983.0,1.67,1420.0,0.0,-10.0,-25.0,-34.0,-40.0,-37.0,-40.0,-32.0,-47.0,-49.0,-49.0,-37.0,-53.0,-58.0,-58.0,-46.0,-47.0,-33.0,-29.0,-28.0,-36.0,-57.0,-50.0,-32.0,-21.0,-17.0,1.0,15.0,24.0,15.0,4.0
1549,킹 만,-20.624000000000002,116.749,AUS,oceania,15.4,2662710.0,22605732.0,3.89,1983.0,3.89,1549.0,0.0,1.0,11.0,27.0,32.0,27.0,20.0,18.0,-7.0,-27.0,-24.0,2.0,10.0,35.0,71.0,101.0,109.0,116.0,104.0,80.0,54.0,43.0,56.0,61.0,74.0,90.0,92.0,93.0,124.0,120.0,102.0
1629,모릴얀 하버,-17.583,146.083,AUS,oceania,15.4,2662710.0,22605732.0,4.16,1985.0,4.16,1629.0,0.0,11.0,17.0,38.0,43.0,63.0,78.0,86.0,78.0,81.0,81.0,83.0,87.0,106.0,116.0,126.0,124.0,119.0,106.0,94.0,81.0,82.0,87.0,88.0,100.0,124.0,143.0,157.0,175.0,182.0,170.0
1630,루신다,-18.517,146.38299999999995,AUS,oceania,15.4,2662710.0,22605732.0,3.97,1986.0,3.97,1630.0,0.0,45.0,56.0,75.0,83.0,110.0,122.0,119.0,112.0,110.0,106.0,97.0,108.0,129.0,141.0,151.0,161.0,161.0,146.0,137.0,131.0,128.0,134.0,139.0,154.0,175.0,184.0,193.0,204.0,206.0,196.0
1631,온슬로,-21.65,115.132,AUS,oceania,15.4,2662710.0,22605732.0,4.9,1986.0,4.9,1631.0,0.0,36.0,27.0,52.0,72.0,85.0,77.0,78.0,55.0,37.0,41.0,67.0,77.0,100.0,132.0,160.0,167.0,172.0,161.0,135.0,109.0,99.0,113.0,144.0,160.0,182.0,209.0,228.0,236.0,236.0,218.0
2316,포트 스테판스(토마리),-32.715,152.18200000000004,AUS,oceania,15.4,2662710.0,22605732.0,2.63,1986.0,2.63,2316.0,0.0,-4.0,-5.0,-3.0,3.0,9.0,11.0,13.0,-1.0,-16.0,-31.0,-33.0,-44.0,-16.0,0.0,17.0,36.0,51.0,40.0,34.0,29.0,15.0,15.0,19.0,26.0,29.0,43.0,51.0,68.0,67.0,
118,클라이페다,55.7,21.133000000000006,LTU,europe,4.38,164111.0,3307481.0,3.5,1898.0,3.5,118.0,0.0,-14.0,-15.0,-32.0,10.0,38.0,39.0,52.0,50.0,20.0,10.0,-20.0,-13.0,16.0,30.0,29.0,65.0,55.0,46.0,65.0,60.0,54.0,88.0,93.0,63.0,58.0,76.0,,,,
130,아부라쓰,35.16,139.615,JPN,asia,9.54,29241996.0,126497241.0,5.47,1930.0,5.47,130.0,0.0,-5.0,3.0,6.0,11.0,27.0,41.0,46.0,47.0,54.0,57.0,51.0,49.0,54.0,65.0,74.0,85.0,96.0,107.0,115.0,115.0,115.0,118.0,122.0,121.0,131.0,147.0,156.0,163.0,159.0,153.0
131,아유카와,38.297,141.505,JPN,asia,9.54,29241996.0,126497241.0,7.18,1959.0,7.18,131.0,0.0,-2.0,3.0,-4.0,-7.0,-3.0,3.0,6.0,13.0,24.0,32.0,33.0,42.0,48.0,56.0,62.0,66.0,68.0,69.0,71.0,75.0,88.0,104.0,118.0,131.0,146.0,151.0,150.0,,,
132,와지마,37.406,136.9,JPN,asia,9.54,29241996.0,126497241.0,2.58,1930.0,2.58,132.0,0.0,-8.0,-3.0,-6.0,0.0,5.0,9.0,13.0,18.0,22.0,26.0,26.0,26.0,29.0,39.0,40.0,51.0,63.0,58.0,62.0,60.0,57.0,56.0,55.0,51.0,62.0,63.0,68.0,79.0,76.0,65.0
133,호소지마,32.429,131.66899999999998,JPN,asia,9.54,29241996.0,126497241.0,2.32,1930.0,2.32,133.0,0.0,11.0,14.0,13.0,25.0,24.0,23.0,29.0,33.0,34.0,39.0,35.0,34.0,39.0,42.0,43.0,52.0,59.0,63.0,63.0,60.0,63.0,59.0,53.0,51.0,64.0,65.0,78.0,82.0,85.0,84.0
134,구시모토,33.476,135.773,JPN,asia,9.54,29241996.0,126497241.0,7.04,1958.0,7.04,134.0,0.0,-2.0,6.0,15.0,40.0,47.0,54.0,70.0,78.0,80.0,97.0,99.0,95.0,108.0,114.0,109.0,113.0,129.0,137.0,142.0,146.0,164.0,165.0,161.0,162.0,183.0,187.0,202.0,209.0,218.0,217.0
359,메라,34.919000000000004,139.825,JPN,asia,9.54,29241996.0,126497241.0,,,,,0.0,-5.0,3.0,0.0,-2.0,10.0,22.0,23.0,24.0,34.0,40.0,34.0,34.0,42.0,57.0,66.0,83.0,92.0,101.0,101.0,98.0,91.0,94.0,97.0,98.0,108.0,123.0,134.0,144.0,144.0,140.0
407,우치우라,35.016999999999996,138.89,JPN,asia,9.54,29241996.0,126497241.0,3.24,1944.0,3.24,407.0,0.0,-11.0,-6.0,-12.0,-10.0,8.0,16.0,12.0,9.0,16.0,10.0,2.0,-5.0,0.0,8.0,15.0,28.0,38.0,44.0,53.0,50.0,40.0,39.0,38.0,25.0,33.0,54.0,67.0,80.0,79.0,77.0
518,구시로,42.976000000000006,144.371,JPN,asia,9.54,29241996.0,126497241.0,7.7,1947.0,7.7,518.0,0.0,2.0,11.0,13.0,15.0,18.0,24.0,31.0,51.0,74.0,103.0,122.0,146.0,153.0,163.0,171.0,177.0,183.0,190.0,197.0,202.0,206.0,204.0,204.0,202.0,200.0,200.0,201.0,211.0,218.0,219.0
635,오나하마,36.938,140.892,JPN,asia,9.54,29241996.0,126497241.0,,,,,0.0,-10.0,-16.0,-30.0,-42.0,-48.0,-51.0,-55.0,-56.0,-51.0,-49.0,-54.0,-53.0,-55.0,-53.0,-54.0,-56.0,-60.0,-67.0,-76.0,-80.0,-84.0,-84.0,-86.0,-86.0,-84.0,-84.0,-87.0,,,
701,가이난,34.144,135.191,JPN,asia,9.54,29241996.0,126497241.0,0.06,1953.0,0.06,701.0,0.0,-9.0,-10.0,-14.0,3.0,3.0,1.0,9.0,12.0,7.0,14.0,11.0,2.0,11.0,14.0,6.0,3.0,10.0,12.0,13.0,9.0,17.0,7.0,-8.0,-23.0,-10.0,-11.0,3.0,5.0,13.0,7.0
721,아사무시,40.898,140.859,JPN,asia,9.54,29241996.0,126497241.0,0.44,1955.0,0.44,721.0,0.0,-10.0,-6.0,-15.0,-16.0,-11.0,-12.0,-9.0,-4.0,1.0,6.0,8.0,7.0,9.0,16.0,19.0,20.0,21.0,21.0,25.0,25.0,31.0,31.0,31.0,25.0,28.0,19.0,14.0,15.0,4.0,-17.0
722,요코스카,35.28800000000001,139.651,JPN,asia,9.54,29241996.0,126497241.0,5.64,1957.0,5.64,722.0,0.0,-1.0,6.0,6.0,10.0,28.0,43.0,50.0,52.0,61.0,62.0,54.0,52.0,59.0,72.0,83.0,102.0,112.0,120.0,128.0,125.0,118.0,123.0,126.0,123.0,134.0,152.0,161.0,169.0,166.0,160.0
752,네즈가세키,38.563,139.546,JPN,asia,9.54,29241996.0,126497241.0,,,,,0.0,-10.0,-5.0,-14.0,-12.0,-6.0,-6.0,-6.0,-1.0,4.0,8.0,8.0,10.0,13.0,22.0,28.0,36.0,43.0,39.0,43.0,40.0,37.0,36.0,33.0,25.0,32.0,33.0,37.0,52.0,54.0,50.0
753,가시와자키,37.357,138.50799999999998,JPN,asia,9.54,29241996.0,126497241.0,3.17,1956.0,3.17,753.0,0.0,-11.0,-3.0,-13.0,-11.0,-1.0,2.0,2.0,8.0,14.0,11.0,9.0,10.0,17.0,26.0,35.0,47.0,55.0,59.0,63.0,62.0,60.0,63.0,68.0,69.0,84.0,89.0,92.0,96.0,86.0,65.0
808,시미즈-미나토,35.012,138.518,JPN,asia,9.54,29241996.0,126497241.0,7.68,1958.0,7.68,808.0,0.0,-4.0,6.0,2.0,8.0,31.0,44.0,42.0,46.0,56.0,57.0,53.0,51.0,63.0,79.0,91.0,110.0,126.0,136.0,151.0,151.0,143.0,146.0,146.0,135.0,147.0,172.0,190.0,205.0,207.0,210.0
809,고마쓰시마,34.009,134.588,JPN,asia,9.54,29241996.0,126497241.0,3.45,1958.0,3.45,809.0,0.0,-4.0,2.0,4.0,26.0,35.0,40.0,54.0,61.0,62.0,70.0,68.0,64.0,77.0,83.0,80.0,83.0,93.0,97.0,102.0,101.0,111.0,102.0,88.0,71.0,86.0,88.0,104.0,112.0,125.0,125.0
810,미스미,32.623000000000005,130.451,JPN,asia,9.54,29241996.0,126497241.0,5.06,1957.0,5.06,810.0,0.0,-4.0,5.0,6.0,20.0,29.0,40.0,47.0,56.0,59.0,60.0,61.0,61.0,69.0,77.0,86.0,95.0,103.0,103.0,103.0,100.0,102.0,104.0,104.0,102.0,115.0,116.0,129.0,,,
811,사카이,35.548,133.243,JPN,asia,9.54,29241996.0,126497241.0,5.2,1958.0,5.2,811.0,0.0,-9.0,-6.0,-16.0,-6.0,2.0,8.0,14.0,21.0,27.0,29.0,29.0,33.0,45.0,55.0,63.0,76.0,84.0,87.0,92.0,87.0,88.0,89.0,87.0,85.0,100.0,106.0,119.0,135.0,139.0,136.0
812,우노,34.489000000000004,133.94899999999998,JPN,asia,9.54,29241996.0,126497241.0,4.89,1958.0,4.89,812.0,0.0,-3.0,4.0,9.0,35.0,50.0,63.0,82.0,90.0,95.0,100.0,90.0,82.0,93.0,95.0,94.0,100.0,108.0,111.0,116.0,116.0,127.0,122.0,111.0,99.0,115.0,120.0,141.0,155.0,169.0,173.0
813,하코다테 1,41.782,140.725,JPN,asia,9.54,29241996.0,126497241.0,-2.24,1961.0,-2.24,813.0,0.0,-7.0,-6.0,-13.0,-15.0,-12.0,-10.0,-11.0,-7.0,-5.0,-4.0,-10.0,-10.0,-19.0,-23.0,-30.0,-36.0,-41.0,-41.0,-36.0,-33.0,-31.0,-30.0,-31.0,-36.0,-34.0,-37.0,-42.0,-43.0,-56.0,-76.0
814,아부라쓰보,31.576999999999998,131.409,JPN,asia,9.54,29241996.0,126497241.0,4.18,1960.0,4.18,814.0,0.0,-4.0,0.0,1.0,16.0,26.0,32.0,45.0,51.0,55.0,59.0,58.0,56.0,67.0,72.0,77.0,88.0,99.0,102.0,102.0,99.0,99.0,92.0,87.0,85.0,98.0,101.0,117.0,122.0,129.0,130.0
815,도사 시미즈,32.779,132.959,JPN,asia,9.54,29241996.0,126497241.0,4.69,1958.0,4.69,815.0,0.0,-4.0,1.0,0.0,12.0,14.0,16.0,26.0,33.0,36.0,49.0,51.0,50.0,63.0,71.0,72.0,80.0,93.0,101.0,105.0,101.0,108.0,103.0,98.0,92.0,109.0,108.0,119.0,118.0,125.0,127.0
816,와카야마,34.222,135.14600000000002,JPN,asia,9.54,29241996.0,126497241.0,0.62,1958.0,0.62,816.0,0.0,-8.0,-6.0,-8.0,11.0,16.0,19.0,31.0,38.0,36.0,44.0,38.0,27.0,32.0,31.0,20.0,18.0,25.0,28.0,29.0,26.0,34.0,23.0,9.0,-6.0,10.0,10.0,27.0,32.0,42.0,39.0
817,단노와,34.339,135.178,JPN,asia,9.54,29241996.0,126497241.0,3.66,1958.0,3.66,817.0,0.0,-6.0,0.0,4.0,17.0,23.0,27.0,37.0,44.0,47.0,57.0,55.0,49.0,61.0,67.0,63.0,66.0,77.0,81.0,85.0,87.0,98.0,91.0,78.0,66.0,81.0,84.0,102.0,111.0,122.0,121.0
1026,오니사키,34.904,136.82399999999998,JPN,asia,9.54,29241996.0,126497241.0,,,,,0.0,-9.0,-7.0,-19.0,-18.0,-7.0,-7.0,-15.0,-21.0,-25.0,-40.0,-55.0,-72.0,-68.0,-64.0,-59.0,-46.0,-41.0,-42.0,-32.0,-41.0,-59.0,-62.0,-69.0,-92.0,-91.0,-81.0,-78.0,-76.0,-83.0,-84.0
1027,오쇼로 2,43.208999999999996,140.858,JPN,asia,9.54,29241996.0,126497241.0,0.79,1963.0,0.79,1027.0,0.0,-7.0,0.0,-4.0,-2.0,4.0,5.0,1.0,4.0,7.0,8.0,3.0,2.0,-3.0,-1.0,-1.0,-1.0,3.0,5.0,12.0,14.0,17.0,15.0,15.0,8.0,12.0,15.0,16.0,27.0,25.0,18.0
1028,히로시마,34.353,132.465,JPN,asia,9.54,29241996.0,126497241.0,6.09,1964.0,6.09,1028.0,0.0,-4.0,11.0,13.0,33.0,37.0,42.0,44.0,52.0,57.0,70.0,69.0,75.0,90.0,101.0,107.0,121.0,130.0,134.0,134.0,136.0,143.0,137.0,129.0,126.0,141.0,145.0,162.0,172.0,181.0,181.0
1060,미야케 시마,34.067,139.481,JPN,asia,9.54,29241996.0,126497241.0,,,,,0.0,4.0,56.0,50.0,55.0,78.0,55.0,12.0,1.0,10.0,-24.0,-24.0,-64.0,-83.0,-112.0,-85.0,16.0,180.0,323.0,476.0,555.0,543.0,496.0,448.0,370.0,364.0,399.0,411.0,406.0,412.0,372.0
1062,마쓰야마 2,33.859,132.71200000000002,JPN,asia,9.54,29241996.0,126497241.0,1.81,1964.0,1.81,1062.0,0.0,-12.0,-9.0,-9.0,3.0,9.0,11.0,16.0,18.0,18.0,15.0,3.0,-7.0,-3.0,-3.0,0.0,15.0,30.0,44.0,51.0,52.0,55.0,48.0,32.0,23.0,32.0,33.0,43.0,47.0,51.0,47.0
1089,마이사카,34.681999999999995,137.609,JPN,asia,9.54,29241996.0,126497241.0,,,,,0.0,-4.0,7.0,2.0,4.0,23.0,28.0,19.0,13.0,18.0,9.0,-2.0,-10.0,3.0,15.0,28.0,47.0,54.0,52.0,56.0,38.0,14.0,7.0,-2.0,-22.0,-18.0,-2.0,8.0,20.0,17.0,18.0
1090,우라가미,33.558,135.89600000000002,JPN,asia,9.54,29241996.0,126497241.0,4.05,1965.0,4.05,1090.0,0.0,-3.0,7.0,8.0,13.0,24.0,26.0,24.0,19.0,19.0,14.0,8.0,-2.0,6.0,15.0,27.0,47.0,57.0,60.0,72.0,68.0,54.0,63.0,68.0,61.0,68.0,85.0,95.0,105.0,104.0,111.0
1091,오카다,34.789,139.391,JPN,asia,9.54,29241996.0,126497241.0,-0.86,1965.0,-0.86,1091.0,0.0,-5.0,4.0,4.0,5.0,23.0,24.0,10.0,-9.0,-14.0,-25.0,-38.0,-50.0,-48.0,-44.0,-41.0,-29.0,-23.0,-18.0,-15.0,-21.0,-37.0,-34.0,-38.0,-47.0,-46.0,-29.0,-19.0,-11.0,-17.0,-23.0
1093,아와시마 섬,38.468,139.255,JPN,asia,9.54,29241996.0,126497241.0,4.84,1968.0,4.84,1093.0,0.0,-6.0,2.0,-5.0,2.0,12.0,18.0,23.0,33.0,43.0,50.0,54.0,63.0,72.0,83.0,91.0,102.0,109.0,114.0,121.0,120.0,119.0,121.0,119.0,115.0,126.0,127.0,130.0,139.0,136.0,122.0
1094,하카타,33.619,130.408,JPN,asia,9.54,29241996.0,126497241.0,3.9,1966.0,3.9,1094.0,0.0,-1.0,8.0,4.0,15.0,21.0,26.0,28.0,31.0,31.0,30.0,26.0,25.0,36.0,46.0,53.0,64.0,73.0,74.0,76.0,75.0,76.0,78.0,77.0,75.0,88.0,90.0,100.0,112.0,117.0,114.0
1095,사이고,36.201,133.33100000000002,JPN,asia,9.54,29241996.0,126497241.0,3.64,1965.0,3.64,1095.0,0.0,-8.0,0.0,-3.0,5.0,14.0,22.0,22.0,24.0,25.0,21.0,16.0,14.0,22.0,30.0,37.0,47.0,58.0,60.0,66.0,63.0,61.0,60.0,61.0,56.0,66.0,72.0,82.0,97.0,102.0,103.0
1096,니시노오모테,30.735,130.99200000000002,JPN,asia,9.54,29241996.0,126497241.0,3.28,1966.0,3.28,1096.0,0.0,0.0,4.0,6.0,9.0,16.0,29.0,30.0,25.0,24.0,22.0,17.0,18.0,32.0,45.0,59.0,70.0,75.0,78.0,74.0,69.0,65.0,68.0,65.0,66.0,76.0,72.0,82.0,89.0,91.0,89.0
1097,오도마리,31.024,130.689,JPN,asia,9.54,29241996.0,126497241.0,3.84,1966.0,3.84,1097.0,0.0,0.0,6.0,11.0,26.0,25.0,30.0,44.0,48.0,48.0,52.0,44.0,37.0,49.0,50.0,52.0,67.0,79.0,83.0,85.0,85.0,88.0,82.0,76.0,75.0,91.0,96.0,114.0,121.0,129.0,127.0
1098,스모토,34.341,134.907,JPN,asia,9.54,29241996.0,126497241.0,4.37,1965.0,4.37,1098.0,0.0,-7.0,1.0,2.0,23.0,35.0,43.0,56.0,65.0,70.0,80.0,95.0,92.0,105.0,109.0,103.0,91.0,107.0,115.0,119.0,124.0,138.0,130.0,118.0,110.0,120.0,116.0,125.0,125.0,132.0,134.0
1099,오사카,34.658,135.433,JPN,asia,9.54,29241996.0,126497241.0,,,,,0.0,-10.0,-4.0,-4.0,19.0,27.0,35.0,52.0,68.0,75.0,94.0,101.0,103.0,117.0,128.0,124.0,124.0,134.0,138.0,141.0,141.0,152.0,148.0,140.0,130.0,150.0,157.0,174.0,181.0,191.0,188.0
1100,나가사키,32.735,129.866,JPN,asia,9.54,29241996.0,126497241.0,3.7,1965.0,3.7,1100.0,0.0,-7.0,0.0,3.0,14.0,19.0,27.0,31.0,32.0,31.0,29.0,26.0,23.0,34.0,43.0,51.0,61.0,68.0,67.0,65.0,59.0,61.0,63.0,64.0,65.0,81.0,83.0,97.0,105.0,114.0,112.0
1101,후쿠에,32.696,128.849,JPN,asia,9.54,29241996.0,126497241.0,2.97,1965.0,2.97,1101.0,0.0,-7.0,-4.0,-12.0,6.0,10.0,20.0,23.0,32.0,26.0,28.0,24.0,26.0,38.0,47.0,54.0,62.0,68.0,67.0,68.0,57.0,57.0,55.0,51.0,47.0,63.0,64.0,74.0,82.0,85.0,84.0
1102,오우라,32.977,130.221,JPN,asia,9.54,29241996.0,126497241.0,3.66,1965.0,3.66,1102.0,0.0,-4.0,5.0,7.0,21.0,27.0,35.0,39.0,45.0,44.0,46.0,46.0,51.0,64.0,78.0,90.0,102.0,106.0,102.0,98.0,92.0,92.0,90.0,85.0,81.0,95.0,96.0,111.0,121.0,124.0,117.0
1103,와카나이,45.408,141.685,JPN,asia,9.54,29241996.0,126497241.0,3.12,1975.0,3.12,1103.0,0.0,-3.0,7.0,9.0,15.0,23.0,29.0,26.0,33.0,39.0,42.0,35.0,37.0,35.0,42.0,46.0,54.0,64.0,70.0,77.0,79.0,82.0,80.0,80.0,73.0,79.0,85.0,87.0,98.0,100.0,95.0
1104,아바시리,44.019,144.286,JPN,asia,9.54,29241996.0,126497241.0,2.68,1965.0,2.68,1104.0,0.0,-1.0,3.0,-3.0,-15.0,-22.0,-25.0,-28.0,-22.0,-9.0,12.0,20.0,36.0,41.0,44.0,44.0,42.0,39.0,39.0,44.0,46.0,46.0,42.0,41.0,35.0,35.0,41.0,42.0,53.0,59.0,58.0
1105,나카노시마,29.842,129.84799999999998,JPN,asia,9.54,29241996.0,126497241.0,4.07,1984.0,4.07,1105.0,0.0,10.0,19.0,25.0,27.0,41.0,47.0,49.0,46.0,52.0,55.0,58.0,61.0,73.0,84.0,97.0,107.0,111.0,111.0,103.0,103.0,99.0,109.0,118.0,125.0,128.0,127.0,130.0,127.0,125.0,125.0
1146,오와세,34.076,136.207,JPN,asia,9.54,29241996.0,126497241.0,-0.46,1967.0,-0.46,1146.0,0.0,-14.0,-7.0,-7.0,3.0,25.0,33.0,25.0,19.0,17.0,6.0,-8.0,-20.0,-16.0,-14.0,-7.0,9.0,15.0,12.0,21.0,10.0,-9.0,-7.0,-9.0,-25.0,-23.0,-10.0,-6.0,0.0,-5.0,-2.0
1147,사세보 2,33.158,129.724,JPN,asia,9.54,29241996.0,126497241.0,3.8,1967.0,3.8,1147.0,0.0,-6.0,-2.0,-5.0,4.0,9.0,14.0,16.0,19.0,19.0,17.0,14.0,14.0,26.0,36.0,47.0,60.0,68.0,66.0,64.0,59.0,59.0,61.0,60.0,62.0,76.0,77.0,90.0,100.0,105.0,101.0
1148,다지리,35.594,134.316,JPN,asia,9.54,29241996.0,126497241.0,3.92,1966.0,3.92,1148.0,0.0,-7.0,-1.0,-7.0,-2.0,1.0,5.0,9.0,12.0,16.0,17.0,15.0,14.0,22.0,31.0,35.0,43.0,49.0,50.0,50.0,49.0,48.0,49.0,50.0,48.0,61.0,68.0,80.0,96.0,104.0,104.0
1149,미야코 2,39.643,141.975,JPN,asia,9.54,29241996.0,126497241.0,4.29,1967.0,4.29,1149.0,0.0,-6.0,-1.0,-9.0,-10.0,-1.0,9.0,14.0,25.0,39.0,49.0,47.0,56.0,60.0,65.0,67.0,67.0,64.0,65.0,72.0,76.0,83.0,94.0,96.0,99.0,104.0,105.0,102.0,111.0,104.0,96.0
1150,시라하마,33.684,135.375,JPN,asia,9.54,29241996.0,126497241.0,2.54,1967.0,2.54,1150.0,0.0,-11.0,-9.0,-9.0,8.0,12.0,15.0,26.0,30.0,33.0,45.0,47.0,40.0,53.0,56.0,46.0,44.0,52.0,54.0,55.0,51.0,62.0,55.0,44.0,34.0,52.0,53.0,70.0,76.0,87.0,84.0
1151,나하,26.213,127.665,JPN,asia,9.54,29241996.0,126497241.0,2.7,1967.0,2.7,1151.0,0.0,-5.0,-7.0,-3.0,1.0,13.0,29.0,36.0,32.0,27.0,20.0,16.0,22.0,34.0,48.0,55.0,67.0,61.0,51.0,56.0,62.0,60.0,69.0,74.0,77.0,78.0,71.0,78.0,74.0,69.0,68.0
1190,미쿠니,36.255,136.149,JPN,asia,9.54,29241996.0,126497241.0,6.02,1968.0,6.02,1190.0,0.0,-14.0,-6.0,-9.0,0.0,6.0,12.0,20.0,28.0,33.0,38.0,38.0,39.0,41.0,55.0,63.0,79.0,95.0,99.0,113.0,127.0,134.0,141.0,156.0,158.0,157.0,155.0,155.0,149.0,139.0,136.0
1191,가쓰우라,35.129,140.249,JPN,asia,9.54,29241996.0,126497241.0,2.99,1968.0,2.99,1191.0,0.0,-4.0,-2.0,3.0,-1.0,9.0,23.0,33.0,29.0,34.0,38.0,28.0,26.0,29.0,43.0,54.0,73.0,75.0,73.0,69.0,65.0,57.0,61.0,64.0,70.0,74.0,83.0,89.0,92.0,86.0,81.0
1209,구레 4,34.241,132.55,JPN,asia,9.54,29241996.0,126497241.0,4.69,1968.0,4.69,1209.0,0.0,-2.0,7.0,12.0,36.0,51.0,60.0,72.0,76.0,74.0,70.0,59.0,50.0,57.0,62.0,66.0,81.0,99.0,108.0,116.0,123.0,130.0,124.0,115.0,108.0,122.0,125.0,140.0,148.0,154.0,153.0
1210,도큐야마 2,34.041,131.803,JPN,asia,9.54,29241996.0,126497241.0,5.19,1968.0,5.19,1210.0,0.0,-3.0,6.0,9.0,32.0,42.0,45.0,51.0,57.0,60.0,62.0,58.0,53.0,64.0,69.0,72.0,83.0,94.0,97.0,100.0,104.0,115.0,115.0,112.0,106.0,120.0,124.0,139.0,149.0,158.0,161.0
1212,우와지마 2,33.227,132.55100000000002,JPN,asia,9.54,29241996.0,126497241.0,1.46,1969.0,1.46,1212.0,0.0,-4.0,1.0,1.0,16.0,20.0,20.0,28.0,31.0,30.0,33.0,26.0,21.0,29.0,31.0,30.0,39.0,44.0,46.0,44.0,41.0,45.0,39.0,26.0,20.0,32.0,29.0,39.0,46.0,51.0,53.0
1263,오마에지카 2,34.608000000000004,138.222,JPN,asia,9.54,29241996.0,126497241.0,8.81,1971.0,8.81,1263.0,0.0,-2.0,9.0,9.0,19.0,47.0,63.0,69.0,76.0,89.0,89.0,89.0,88.0,102.0,119.0,132.0,150.0,165.0,174.0,187.0,187.0,180.0,185.0,187.0,178.0,191.0,215.0,232.0,248.0,252.0,259.0
1264,오가,39.942,139.70600000000002,JPN,asia,9.54,29241996.0,126497241.0,-0.49,1970.0,-0.49,1264.0,0.0,-18.0,-17.0,-29.0,-28.0,-24.0,-26.0,-28.0,-22.0,-28.0,-25.0,-27.0,-26.0,-27.0,-14.0,-13.0,-10.0,-8.0,-7.0,-5.0,-8.0,-10.0,-12.0,-18.0,-25.0,-21.0,-27.0,-32.0,-26.0,-33.0,-49.0
1265,아쿠네,32.018,130.191,JPN,asia,9.54,29241996.0,126497241.0,2.94,1971.0,2.94,1265.0,0.0,-4.0,3.0,3.0,12.0,15.0,22.0,28.0,31.0,31.0,28.0,25.0,23.0,32.0,39.0,49.0,58.0,65.0,64.0,63.0,57.0,57.0,56.0,54.0,51.0,63.0,63.0,76.0,84.0,92.0,92.0
1266,하치노헤 2,40.532,141.528,JPN,asia,9.54,29241996.0,126497241.0,4.95,1971.0,4.95,1266.0,0.0,-5.0,-4.0,-13.0,-16.0,-8.0,0.0,4.0,13.0,22.0,36.0,38.0,50.0,58.0,72.0,77.0,77.0,75.0,72.0,78.0,75.0,80.0,85.0,85.0,78.0,81.0,78.0,,,,
1293,오이타 2,33.266,131.687,JPN,asia,9.54,29241996.0,126497241.0,3.65,1972.0,3.65,1293.0,0.0,-2.0,2.0,0.0,19.0,24.0,26.0,32.0,37.0,40.0,46.0,42.0,43.0,57.0,62.0,66.0,76.0,83.0,83.0,84.0,83.0,87.0,83.0,75.0,67.0,80.0,83.0,96.0,104.0,112.0,112.0
1318,가리야,33.473,129.849,JPN,asia,9.54,29241996.0,126497241.0,3.24,1972.0,3.24,1318.0,0.0,-2.0,2.0,-7.0,3.0,5.0,6.0,13.0,19.0,21.0,21.0,19.0,17.0,19.0,29.0,39.0,46.0,55.0,57.0,58.0,55.0,59.0,59.0,56.0,53.0,65.0,66.0,77.0,86.0,91.0,87.0
1320,구레 1,33.334,133.243,JPN,asia,9.54,29241996.0,126497241.0,0.33,1973.0,0.33,1320.0,0.0,-8.0,-5.0,-7.0,10.0,14.0,15.0,26.0,32.0,29.0,36.0,34.0,24.0,31.0,32.0,24.0,20.0,31.0,37.0,40.0,32.0,41.0,29.0,15.0,-5.0,12.0,9.0,18.0,14.0,21.0,16.0
1343,이토 2,34.896,139.13299999999998,JPN,asia,9.54,29241996.0,126497241.0,,,,,0.0,-30.0,-50.0,-77.0,-108.0,-127.0,-146.0,-171.0,-199.0,-218.0,-237.0,-267.0,-297.0,-307.0,-318.0,-330.0,-327.0,-329.0,-331.0,-331.0,-339.0,-357.0,-365.0,-373.0,-386.0,-387.0,-377.0,-370.0,-364.0,-368.0,-371.0
1344,오기,37.815,138.281,JPN,asia,9.54,29241996.0,126497241.0,1.28,1974.0,1.28,1344.0,0.0,-12.0,-8.0,-16.0,-9.0,2.0,10.0,13.0,23.0,26.0,29.0,27.0,29.0,31.0,37.0,42.0,48.0,56.0,57.0,64.0,57.0,56.0,65.0,69.0,68.0,77.0,73.0,56.0,47.0,30.0,11.0
1345,소마,37.830999999999996,140.96200000000005,JPN,asia,9.54,29241996.0,126497241.0,5.71,1974.0,5.71,1345.0,0.0,-1.0,5.0,2.0,4.0,15.0,27.0,31.0,40.0,52.0,61.0,58.0,66.0,71.0,79.0,84.0,87.0,89.0,89.0,89.0,91.0,98.0,107.0,116.0,123.0,133.0,135.0,,,,
1346,가마이시 2,39.273,141.889,JPN,asia,9.54,29241996.0,126497241.0,,,,,0.0,-2.0,1.0,3.0,3.0,15.0,32.0,45.0,57.0,83.0,102.0,108.0,121.0,128.0,135.0,139.0,140.0,142.0,144.0,148.0,150.0,156.0,163.0,170.0,177.0,188.0,194.0,195.0,204.0,,
1364,오후나토 2,39.02,141.753,JPN,asia,9.54,29241996.0,126497241.0,5.64,1974.0,5.64,1364.0,0.0,-6.0,-5.0,-12.0,-14.0,-8.0,-1.0,2.0,10.0,22.0,33.0,37.0,48.0,55.0,66.0,70.0,72.0,71.0,72.0,73.0,74.0,78.0,86.0,92.0,97.0,106.0,109.0,108.0,,,
1386,구치노쓰,32.605,130.195,JPN,asia,9.54,29241996.0,126497241.0,3.97,1975.0,3.97,1386.0,0.0,-7.0,-7.0,-6.0,11.0,14.0,16.0,21.0,23.0,20.0,21.0,21.0,23.0,35.0,45.0,57.0,68.0,74.0,73.0,72.0,66.0,67.0,69.0,68.0,66.0,79.0,81.0,93.0,101.0,107.0,107.0
1387,마이즈루 2,35.477,135.387,JPN,asia,9.54,29241996.0,126497241.0,4.82,1975.0,4.82,1387.0,0.0,-5.0,3.0,1.0,6.0,16.0,27.0,35.0,41.0,43.0,45.0,42.0,43.0,53.0,61.0,67.0,78.0,86.0,90.0,96.0,97.0,97.0,98.0,98.0,96.0,107.0,111.0,123.0,139.0,144.0,140.0
1388,오키나와,26.179000000000002,127.824,JPN,asia,9.54,29241996.0,126497241.0,1.83,1976.0,1.83,1388.0,0.0,-2.0,4.0,10.0,14.0,28.0,40.0,44.0,37.0,29.0,17.0,13.0,16.0,13.0,29.0,36.0,52.0,48.0,47.0,52.0,60.0,57.0,64.0,66.0,66.0,65.0,56.0,63.0,59.0,55.0,53.0
1389,도야마,36.762,137.225,JPN,asia,9.54,29241996.0,126497241.0,4.49,1975.0,4.49,1389.0,0.0,-9.0,0.0,-3.0,4.0,10.0,15.0,21.0,28.0,34.0,37.0,36.0,36.0,42.0,50.0,58.0,70.0,82.0,90.0,96.0,98.0,100.0,101.0,98.0,94.0,104.0,105.0,111.0,123.0,125.0,116.0
1390,무로토미사키,33.266,134.164,JPN,asia,9.54,29241996.0,126497241.0,9.44,1976.0,9.44,1390.0,0.0,-1.0,9.0,16.0,43.0,56.0,64.0,81.0,89.0,96.0,113.0,120.0,124.0,146.0,154.0,153.0,160.0,177.0,190.0,202.0,207.0,226.0,224.0,220.0,212.0,237.0,243.0,262.0,267.0,283.0,286.0
1391,지치지마,27.083000000000002,142.183,JPN,asia,9.54,29241996.0,126497241.0,2.96,1976.0,2.96,1391.0,0.0,1.0,17.0,17.0,30.0,63.0,71.0,67.0,79.0,89.0,81.0,80.0,88.0,97.0,94.0,115.0,130.0,130.0,130.0,129.0,120.0,119.0,124.0,108.0,118.0,116.0,127.0,124.0,118.0,109.0,106.0
1437,다고,34.806999999999995,138.764,JPN,asia,9.54,29241996.0,126497241.0,5.66,1981.0,5.66,1437.0,0.0,-4.0,7.0,6.0,10.0,30.0,39.0,38.0,39.0,50.0,48.0,44.0,37.0,38.0,50.0,61.0,81.0,100.0,102.0,116.0,116.0,107.0,111.0,113.0,103.0,112.0,134.0,147.0,158.0,158.0,161.0
1438,야이즈,34.871,138.327,JPN,asia,9.54,29241996.0,126497241.0,5.56,1981.0,5.56,1438.0,0.0,-1.0,12.0,15.0,27.0,54.0,67.0,70.0,75.0,87.0,87.0,87.0,84.0,85.0,102.0,116.0,141.0,163.0,167.0,184.0,184.0,168.0,163.0,152.0,129.0,133.0,150.0,159.0,171.0,172.0,173.0
1440,가미나토 2(하치조섬),33.13,139.805,JPN,asia,9.54,29241996.0,126497241.0,0.47,1981.0,0.47,1440.0,0.0,-17.0,18.0,-6.0,97.0,134.0,88.0,94.0,146.0,181.0,205.0,284.0,275.0,262.0,225.0,171.0,98.0,163.0,213.0,246.0,279.0,348.0,248.0,152.0,33.0,79.0,97.0,141.0,152.0,226.0,137.0
1442,하나사키 2,43.278,145.56799999999996,JPN,asia,9.54,29241996.0,126497241.0,,,,,0.0,-1.0,-3.0,-7.0,-14.0,-15.0,-10.0,-1.0,11.0,32.0,81.0,117.0,155.0,187.0,214.0,218.0,221.0,227.0,234.0,244.0,246.0,245.0,240.0,239.0,234.0,238.0,251.0,258.0,274.0,289.0,302.0
1488,나고야2,35.091,136.881,JPN,asia,9.54,29241996.0,126497241.0,-1.84,1980.0,-1.84,1488.0,0.0,-10.0,-8.0,-18.0,-21.0,-9.0,-8.0,-18.0,-26.0,-29.0,-45.0,-61.0,-75.0,-72.0,-66.0,-58.0,-44.0,-40.0,-42.0,-34.0,-46.0,-64.0,-63.0,-67.0,-86.0,-82.0,-67.0,-64.0,-62.0,-68.0,-69.0
1522,나세 3,28.5,129.5,JPN,asia,9.54,29241996.0,126497241.0,2.21,1981.0,2.21,1522.0,0.0,-6.0,-9.0,-6.0,-6.0,-2.0,8.0,15.0,9.0,7.0,4.0,3.0,14.0,30.0,41.0,47.0,56.0,50.0,42.0,45.0,53.0,57.0,55.0,59.0,64.0,60.0,47.0,57.0,46.0,40.0,44.0
1544,조시-쿄코,35.744,140.858,JPN,asia,9.54,29241996.0,126497241.0,4.04,1982.0,4.04,1544.0,0.0,0.0,1.0,-3.0,-5.0,-4.0,1.0,4.0,5.0,10.0,19.0,14.0,19.0,22.0,33.0,38.0,47.0,46.0,42.0,37.0,35.0,33.0,37.0,43.0,45.0,49.0,64.0,76.0,92.0,104.0,115.0
1545,도쿄 3,35.649,139.77,JPN,asia,9.54,29241996.0,126497241.0,1.99,1983.0,1.99,1545.0,0.0,-7.0,-10.0,-12.0,-11.0,3.0,14.0,12.0,6.0,8.0,4.0,-9.0,-16.0,-15.0,-4.0,2.0,16.0,25.0,32.0,37.0,34.0,25.0,27.0,26.0,18.0,26.0,44.0,47.0,55.0,50.0,39.0
1567,고치 3,33.499,133.569,JPN,asia,9.54,29241996.0,126497241.0,3.1,1984.0,3.1,1567.0,0.0,6.0,10.0,5.0,28.0,35.0,41.0,52.0,57.0,58.0,74.0,73.0,66.0,77.0,79.0,65.0,53.0,54.0,81.0,99.0,96.0,134.0,126.0,105.0,88.0,110.0,106.0,119.0,111.0,110.0,100.0
1585,하마다 2,34.897,132.066,JPN,asia,9.54,29241996.0,126497241.0,5.04,1985.0,5.04,1585.0,0.0,-5.0,-2.0,-6.0,-5.0,4.0,12.0,17.0,23.0,27.0,30.0,31.0,34.0,45.0,55.0,61.0,71.0,78.0,81.0,84.0,83.0,85.0,88.0,88.0,88.0,100.0,104.0,115.0,128.0,132.0,129.0
1586,이즈하라 2,34.198,129.292,JPN,asia,9.54,29241996.0,126497241.0,2.96,1985.0,2.96,1586.0,0.0,-3.0,-1.0,-6.0,-12.0,-5.0,-5.0,-1.0,2.0,7.0,3.0,3.0,3.0,14.0,22.0,32.0,43.0,45.0,44.0,43.0,36.0,35.0,37.0,36.0,37.0,48.0,48.0,58.0,67.0,71.0,74.0
1587,타피,41.243,140.381,JPN,asia,9.54,29241996.0,126497241.0,0.27,1985.0,0.27,1587.0,0.0,4.0,12.0,6.0,4.0,8.0,9.0,7.0,12.0,17.0,22.0,21.0,26.0,29.0,34.0,34.0,37.0,37.0,37.0,41.0,40.0,38.0,38.0,35.0,29.0,34.0,31.0,26.0,31.0,20.0,2.0
136,더니든 2,-45.879,170.513,NZL,oceania,7.69,560959.0,4414509.0,,1958.0,,136.0,0.0,8.0,6.0,8.0,11.0,20.0,16.0,22.0,41.0,66.0,46.5,27.0,-3.0,25.0,42.0,56.0,69.0,92.0,92.0,91.0,86.0,85.0,83.0,87.0,91.0,91.0,91.0,99.0,107.0,113.0,126.0
213,블러프,-46.598,168.345,NZL,oceania,7.69,560959.0,4414509.0,,,,,0.0,-1.0,-6.0,-9.0,-10.0,-7.0,-2.0,3.0,11.0,23.0,23.0,19.0,15.0,11.0,10.0,22.0,26.0,27.0,30.0,34.0,29.0,25.0,18.0,19.0,20.0,20.0,16.0,19.0,20.0,21.0,28.0
221,웰링턴 하버,-41.284,174.78,NZL,oceania,7.69,560959.0,4414509.0,3.57,1945.0,3.57,221.0,0.0,11.0,8.0,19.0,42.0,59.0,56.0,63.0,58.0,47.0,33.0,32.0,30.0,42.0,55.0,67.0,73.0,85.0,91.0,90.0,89.0,88.0,87.0,91.0,91.0,90.0,95.0,101.0,109.0,119.0,134.0
787,넬슨,-41.261,173.273,NZL,oceania,7.69,560959.0,4414509.0,,,,,0.0,0.0,-19.0,-25.0,-33.0,-50.0,-50.0,-44.0,-41.0,-38.0,-35.0,-32.0,-54.0,-45.0,-20.0,-20.0,-18.0,-10.0,-11.0,-28.0,-33.0,-35.0,-35.0,-25.0,-19.0,-15.0,-10.0,-5.0,13.0,33.0,55.0
996,포트 타라나키,-39.056,174.03400000000005,NZL,oceania,7.69,560959.0,4414509.0,,,,,0.0,-8.0,-9.0,14.0,29.0,23.0,25.0,22.0,5.0,-29.0,-47.0,-48.0,-51.0,-28.0,-3.0,17.0,30.0,50.0,53.0,43.0,34.0,12.0,-7.0,-21.0,-26.0,-36.0,-30.0,-20.0,-11.0,-2.0,10.0
1065,황가레이 하버(마스든 포인트),-35.757,174.35,NZL,oceania,7.69,560959.0,4414509.0,3.01,1985.0,3.01,1065.0,0.0,2.0,-8.0,-15.0,-13.0,-15.0,-9.0,32.0,27.0,23.0,13.0,18.0,-16.0,-2.0,14.0,42.0,49.0,58.0,73.0,64.0,50.0,35.0,30.0,22.0,28.0,27.0,33.0,43.0,55.0,68.0,87.0
1590,타우랑가(솔즈베리 워프),-37.641,176.18099999999995,NZL,oceania,7.69,560959.0,4414509.0,3.68,1985.0,3.68,1590.0,0.0,8.0,-4.0,-12.0,3.0,6.0,4.0,14.0,10.0,-15.0,-33.0,-36.0,-43.0,-28.0,-1.0,25.0,32.0,54.0,61.0,54.0,45.0,43.0,40.0,49.0,63.0,70.0,86.0,91.0,95.0,86.0,91.0
1643,포트 찰머스,-45.815,170.62400000000005,NZL,oceania,7.69,560959.0,4414509.0,,,,,0.0,51.0,59.0,59.0,59.0,89.0,77.0,84.0,91.0,98.0,105.0,112.0,110.0,125.0,136.0,151.0,168.0,184.0,190.0,194.0,188.0,188.0,183.0,186.0,189.0,189.0,191.0,197.0,202.0,206.0,217.0
145,마닐라(사우스 하버),14.583,120.96700000000001,PHL,asia,1.06,14121488.0,94852030.0,,,,,0.0,6.0,4.0,17.0,20.0,9.0,14.0,35.0,37.0,48.0,72.0,104.0,117.0,138.0,165.0,203.0,232.0,250.0,230.0,214.0,211.0,219.0,227.0,297.0,337.0,354.0,357.0,396.0,399.0,390.0,390.0
394,세부,10.3,123.917,PHL,asia,1.06,14121488.0,94852030.0,3.98,1948.0,3.98,394.0,0.0,1.0,7.0,31.0,38.0,49.0,45.0,30.0,7.0,-8.0,-16.0,-2.0,-4.0,8.0,27.0,54.0,63.0,85.0,86.0,70.0,52.0,53.0,55.0,62.0,85.0,97.0,100.0,116.0,131.0,92.0,90.0
522,레가스피,13.15,123.75,PHL,asia,1.06,14121488.0,94852030.0,,1949.0,,522.0,0.0,1.0,-6.0,-3.0,13.0,15.0,23.0,48.0,44.0,36.0,38.0,58.0,51.0,62.0,85.0,115.0,127.0,141.0,146.0,135.0,123.0,126.0,132.0,152.0,160.0,166.0,171.0,194.0,198.0,190.0,191.0
537,다바오 만,7.0829999999999975,125.633,PHL,asia,1.06,14121488.0,94852030.0,,1949.0,,537.0,0.0,15.0,25.0,44.0,41.0,32.0,20.0,25.0,8.0,-10.0,-11.0,-3.0,-9.0,-34.83,-60.67,-86.5,-112.33,-138.17,-164.0,-106.0,-84.0,-76.0,-62.0,-15.0,-7.0,-10.0,7.0,19.0,22.0,33.0,53.0
154,트리에스테,45.647,13.758,ITA,europe,5.27,5304525.0,60788694.0,3.47,1875.0,3.47,154.0,0.0,-2.0,5.0,11.0,-1.0,-9.0,-16.0,-29.0,-40.0,-33.0,-24.0,-10.0,1.0,13.0,20.0,27.0,31.0,37.0,34.0,36.0,32.0,27.0,21.0,28.0,37.0,64.0,68.0,72.0,85.0,94.0,73.0
163,발보아,8.967,-79.567,PAN,north-america,2.25,306782.0,3571185.0,2.84,1908.0,2.84,163.0,0.0,-1.0,-28.0,-79.0,-92.0,-86.0,-79.0,-58.0,-13.0,-1.0,4.0,1.0,21.0,19.0,19.0,13.0,2.0,-14.0,2.0,16.0,52.0,73.0,65.0,57.0,41.0,9.0,-6.0,-10.0,-22.0,-19.0,-7.0
174,카오락,11.8,99.81700000000001,THA,asia,4.62,17309591.0,69518555.0,4.64,1940.0,4.64,174.0,0.0,-14.0,-10.0,-5.0,-5.0,-7.0,3.0,-6.0,-17.0,-25.0,-22.0,-24.0,-24.0,-21.0,-18.0,-21.0,-23.0,-20.0,-16.0,-15.0,-8.0,10.0,18.0,44.0,52.0,81.0,104.0,126.0,140.0,149.0,141.0
444,포트 쁘라출라 촘크라오(뽐 뿌라춘),13.55,100.583,THA,asia,4.62,17309591.0,69518555.0,,,,,0.0,25.0,29.0,43.0,49.0,57.0,80.0,91.0,97.0,117.0,154.0,177.0,211.0,234.0,259.0,264.0,276.0,285.0,294.0,295.0,284.0,298.0,297.0,321.0,327.0,358.0,371.0,393.0,398.0,401.0,378.0
446,코 타파오 노이,7.8329999999999975,98.43299999999999,THA,asia,4.62,17309591.0,69518555.0,6.06,1940.0,6.06,446.0,0.0,25.0,32.0,-6.0,-20.0,-29.0,-25.0,-19.0,-24.0,-37.0,-36.0,-14.0,-33.0,-40.0,-24.0,-10.0,-15.0,7.0,28.0,30.0,10.0,-9.0,-5.0,-4.0,13.0,31.0,72.0,99.0,111.0,121.0,155.0
205,첸나이,13.1,80.3,IND,asia,1.73,84941245.0,1241491960.0,,1953.0,,205.0,0.0,-26.0,-11.0,-4.0,-15.0,-22.0,-12.0,-16.0,-21.0,-29.0,-18.0,0.0,3.0,8.0,28.0,38.0,37.0,27.0,23.0,20.0,13.0,-5.0,-3.0,6.0,14.0,27.0,46.0,51.0,53.0,,
369,가든 리치,22.55,88.3,IND,asia,1.73,84941245.0,1241491960.0,,,,,0.0,-11.0,6.0,19.0,-4.0,24.0,24.0,26.0,19.0,22.0,22.0,37.0,53.0,81.0,142.0,96.0,95.0,95.0,81.0,-82.0,33.0,33.0,40.0,113.0,106.0,123.0,109.0,109.0,89.0,,
414,비샤카파트남,17.683,83.28299999999999,IND,asia,1.73,84941245.0,1241491960.0,,1937.0,,414.0,0.0,-34.0,-23.0,-8.0,-18.0,-26.0,-27.0,-37.0,-49.0,-62.0,-55.0,-38.0,-28.0,-28.0,22.0,44.0,55.0,55.0,55.0,35.0,21.0,-7.0,13.0,17.0,7.0,33.0,49.0,29.0,33.0,,
438,코친(윌링던 섬),9.967,76.267,IND,asia,1.73,84941245.0,1241491960.0,,1939.0,,438.0,0.0,-18.0,-21.0,-12.0,-16.0,-16.0,2.0,10.0,5.0,11.0,17.0,15.0,22.0,30.0,32.0,35.0,40.0,30.0,26.0,31.0,35.0,40.0,56.0,66.0,70.0,76.0,68.0,39.0,50.0,,
543,디아먼드 하버,22.2,88.167,IND,asia,1.73,84941245.0,1241491960.0,3.14,1948.0,3.14,543.0,0.0,-23.0,-17.0,-4.0,-14.0,-5.0,12.0,18.0,14.0,9.0,18.0,22.0,30.0,32.0,68.0,74.0,85.0,70.0,55.0,29.0,12.0,-7.0,-11.0,5.0,19.0,38.0,64.0,86.0,98.0,,
1161,파라딥,20.267,86.7,IND,asia,1.73,84941245.0,1241491960.0,,,,,0.0,-13.0,-12.0,1.0,-3.0,8.0,6.0,6.0,-10.0,-31.0,-44.0,-32.0,-20.0,-4.0,15.0,15.0,14.0,35.0,27.0,38.0,37.0,25.0,14.0,37.0,42.0,57.0,80.0,81.0,90.0,,
1270,할디아,22.033,88.1,IND,asia,1.73,84941245.0,1241491960.0,2.28,1971.0,2.28,1270.0,0.0,-6.0,2.0,19.0,14.0,16.0,25.0,38.0,31.0,17.0,21.0,29.0,29.0,29.0,62.0,68.0,70.0,70.0,59.0,46.0,37.0,15.0,17.0,29.0,36.0,50.0,72.0,85.0,92.0,,
1395,오카다,22.467,69.083,IND,asia,1.73,84941245.0,1241491960.0,,1976.0,,1395.0,0.0,-13.0,-18.0,-19.0,-25.0,-15.0,-6.0,2.0,9.0,26.0,30.0,39.0,46.0,42.0,36.0,35.0,31.0,24.0,30.0,37.0,34.0,40.0,51.0,58.0,58.0,69.0,64.0,31.0,21.0,,
1423,망갈로르,12.917,74.8,IND,asia,1.73,84941245.0,1241491960.0,,,,,0.0,-13.0,-15.0,-10.0,1.0,-8.0,-9.0,-1.0,-2.0,-6.0,-8.0,7.0,20.0,31.0,34.0,3.0,-4.0,-42.0,-42.0,-89.0,-45.0,-1.0,43.0,40.0,37.0,38.0,44.0,43.0,47.0,,
215,투압세,44.1,39.067,RUS,europe,11.86,2907303.0,142835555.0,5.48,1917.0,5.48,215.0,0.0,-23.0,-14.0,16.0,28.0,41.0,55.0,49.0,30.0,31.0,49.0,48.0,62.0,84.0,109.0,111.0,116.0,113.0,96.0,97.0,115.0,120.0,109.0,111.0,99.0,111.0,112.0,116.0,147.0,163.0,140.0
569,틱시 만,71.583,128.917,RUS,europe,11.86,2907303.0,142835555.0,2.87,1949.0,2.87,569.0,0.0,-35.0,-29.0,-25.0,-15.0,31.0,75.0,64.0,37.0,20.0,-15.0,-27.0,-15.0,-9.0,-7.0,12.0,32.0,24.0,61.0,49.0,51.0,36.0,61.0,37.0,51.0,47.0,,,,,
599,암데르마,69.75,61.7,RUS,europe,11.86,2907303.0,142835555.0,7.11,1950.0,7.11,599.0,0.0,4.0,5.0,-1.0,27.0,56.0,82.0,89.0,102.0,105.0,106.0,93.0,106.0,99.0,97.0,98.0,115.0,126.0,157.0,168.0,196.0,212.0,229.0,232.0,235.0,200.0,188.0,162.0,162.0,,
600,우스트 카라,69.25,64.517,RUS,europe,11.86,2907303.0,142835555.0,,1950.0,,600.0,0.0,16.0,17.0,26.0,26.0,71.0,57.0,-67.67,-192.33,-317.0,-96.0,-31.0,5.0,21.0,95.0,73.0,51.0,41.0,32.0,23.0,37.0,54.0,70.0,73.0,100.0,80.0,85.0,71.0,108.0,,
601,페토로바(첼류스킨곶),77.717,104.3,RUS,europe,11.86,2907303.0,142835555.0,,1950.0,,601.0,0.0,-11.0,-16.0,-16.0,6.0,53.0,92.0,98.0,113.0,113.0,90.0,52.0,88.0,79.0,86.0,94.0,102.0,75.0,70.0,47.0,43.0,48.0,60.0,75.0,80.0,20.0,-12.0,-50.0,,,
602,산나코바 해협,74.667,138.9,RUS,europe,11.86,2907303.0,142835555.0,2.22,1950.0,2.22,602.0,0.0,-13.0,8.0,9.0,28.0,52.0,80.0,79.0,77.0,77.0,49.0,18.0,33.0,23.0,16.0,2.0,11.0,-30.0,-4.0,1.0,47.0,58.0,94.0,96.0,80.0,71.0,64.0,67.0,72.0,,
604,암바르치크,69.617,162.3,RUS,europe,11.86,2907303.0,142835555.0,,1950.0,,604.0,0.0,12.0,43.0,71.0,106.0,113.0,118.0,120.0,113.0,134.0,125.0,137.0,137.0,162.0,144.0,168.0,179.0,197.0,231.0,219.0,261.0,277.0,317.0,247.0,286.0,252.0,189.0,162.0,168.0,,
605,라우-추아,69.5,166.583,RUS,europe,11.86,2907303.0,142835555.0,,1950.0,,605.0,0.0,20.0,33.0,44.0,78.0,90.0,98.0,128.0,187.0,8.0,-50.0,-46.0,-49.0,-42.0,-43.0,-22.0,-16.0,13.0,165.0,204.0,294.0,326.0,382.0,250.0,246.0,221.0,234.0,202.0,198.0,,
606,페베크,69.7,170.25,RUS,europe,11.86,2907303.0,142835555.0,,1950.0,,606.0,0.0,6.0,23.0,28.0,50.0,63.0,66.0,70.0,76.0,69.0,52.0,38.0,19.0,8.0,-6.0,2.0,28.0,51.0,80.0,107.0,132.0,137.0,142.0,138.0,133.0,146.0,146.0,112.0,67.0,,
612,스띨리그바 곶,75.417,88.9,RUS,europe,11.86,2907303.0,142835555.0,,1950.0,,612.0,0.0,-23.0,-28.0,-16.0,25.0,49.0,71.0,91.0,73.0,36.0,45.0,41.0,23.0,42.0,85.0,114.75,144.5,174.25,204.0,52.0,-32.0,-81.0,-92.0,-128.0,-89.0,-60.0,1.0,59.0,,,
640,두나이 섬,73.933,124.5,RUS,europe,11.86,2907303.0,142835555.0,2.5,1951.0,2.5,640.0,0.0,14.0,-3.0,18.0,39.0,40.0,29.0,52.0,38.0,15.0,0.0,-34.0,-42.0,-26.0,3.0,8.0,59.0,55.0,47.0,32.0,74.0,70.0,91.0,111.0,124.0,84.0,69.0,,,,
641,코텔니 섬,76.0,137.86700000000002,RUS,europe,11.86,2907303.0,142835555.0,6.67,1951.0,6.67,641.0,0.0,-24.0,-21.0,-44.0,-33.0,-25.0,3.0,14.0,-5.0,39.0,14.0,9.0,9.0,18.0,-37.0,-16.0,-31.0,-29.0,-2.0,8.0,43.0,95.0,125.0,151.0,169.0,147.0,147.0,125.0,109.0,,
642,기길라얘,73.333,139.86700000000002,RUS,europe,11.86,2907303.0,142835555.0,0.55,1951.0,0.55,642.0,0.0,-12.0,-11.0,-9.0,12.0,40.0,58.0,75.0,74.0,68.0,42.0,39.0,28.0,19.0,-7.0,-13.0,-19.0,-33.0,-7.0,10.0,36.0,51.0,75.0,58.0,60.0,41.0,26.0,28.0,20.0,,
684,무르만스크,68.967,33.05,RUS,europe,11.86,2907303.0,142835555.0,2.36,1952.0,2.36,684.0,0.0,14.0,-5.0,-28.0,0.0,23.0,37.0,75.0,100.0,82.0,100.0,100.0,105.0,107.0,141.0,148.0,161.0,167.0,188.0,188.0,193.0,203.0,203.0,173.0,144.0,103.0,72.0,38.0,38.0,35.0,55.0
