id,location,latitude,longitude,country,continent,c02_emissions,coastal_population2010_sum,total_population2010_sum,start_year,1985,1986,1987,1988,1989,1990,1991,1992,1993,1994,1995,1996,1997,1998,1999,2000,2001,2002,2003,2004,2005,2006,2007,2008,2009,2010,2011,2012,2013,2014,2015,trend
1,Brest,48.383,-4.495,FRA,europe,4.57,2983590,63125894,1807,0,-1,4,9,15,16,15,8,5,7,13,24,35,38,37,41,45,50,55,56,44,40,34,36,41,58,59,63,65,77,70,2.423
61,Marseille,43.278999999999996,5.354,FRA,europe,4.57,2983590,63125894,1885,0,5,9,8,8,9,13,1,3,6,9,19,33,27,34,40,33,36,48,54,55,56,53,56,70,113,109,119,126,135,100,3.327
453,Le Havre,49.482,0.106,FRA,europe,4.57,2983590,63125894,1959,0,-8,-1,3,15,10,5,-11,-19,-20,-13,-7,2,1,6,11,26,40,47,46,35,30,26,26,27,33,33,33,34,45,49,2.21
467,Cherbourg,49.651,-1.636,FRA,europe,4.57,2983590,63125894,1975,0,6,4,4,5,1,-9,-19,-26,-22,-10,3,15,22,17,16,23,30,31,34,25,22,16,19,23,34,34,36,35,43,40,2.0140000000000002
1247,Port Tudy,47.644,-3.446,FRA,europe,4.57,2983590,63125894,1976,0,-5,-2,-2,-1,-8,-9,-18,-20,-8,2,15,29,31,27,38,43,46,51,53,45,49,47,50,51,63,54,50,49,59,48,2.742
1294,Le Conquet,48.358999999999995,-4.7810000000000015,FRA,europe,4.57,2983590,63125894,1971,0,-14,-14,-12,-9,-12,-11,-20,-20,-24,-12,4,26,33,46,49,46,55,57,56,46,50,34,35,39,54,54,62,67,81,77,3.708
1347,Roscoff,48.718,-3.966,FRA,europe,4.57,2983590,63125894,1975,0,-2,0,-3,-11,-15,-22,-35,-36,-40,-27,-13,0,1,7,9,11,6,14,17,5,6,7,5,11,21,17,21,21,30,27,2.092
1468,Nice,43.69600000000001,7.2860000000000005,FRA,europe,4.57,2983590,63125894,1978,0,0,3,-1,11,24,34,42,57,57,55,57,59,60,44,38,41,44,40,45,46,42,39,51,65,89,98,106,105,109,95,2.576
1801,Boucau,43.527,-1.515,FRA,europe,4.57,2983590,63125894,1969,0,-2,1,8,9,4,-5,-3,-19,-13,-4,23,20,36,56,70,74,70,74,70,54,42,31,21,28,47,49,55,70,85,86,3.1069999999999998
95,North Shields,55.007,-1.44,GBR,europe,6.5,6662984,62417431,1896,0,-4,-9,-11,5,16,10,11,4,2,-5,-1,2,14,17,23,36,47,51,60,66,72,70,69,59,53,48,44,40,46,50,2.4419999999999997
202,Newlyn,50.103,-5.5429999999999975,GBR,europe,6.5,6662984,62417431,1916,0,-2,-2,-2,3,3,2,-9,-17,-20,-14,-2,11,15,14,12,8,23,36,42,40,48,37,39,48,69,62,62,61,67,54,2.9410000000000003
286,Immingham,53.63,-0.187,GBR,europe,6.5,6662984,62417431,1960,0,-5,-14,-20,-4,4,-6,-11,-16,-24,-27,-20,-14,-3,2,0,-8,-17,-28,-37,-38,-23,-5,6,12,20,10,-7,-33,-58,,-0.9640000000000001
314,Stornoway,58.208,-6.388999999999999,GBR,europe,6.5,6662984,62417431,1977,0,-4,-16,19,29,38,36,39,22,7,-8,-2,5,13,19,27,28,38,51,61,57,70,67,72,77,80,68,66,60,61,68,3.0039999999999996
361,Aberdeen I,57.144,-2.077,GBR,europe,6.5,6662984,62417431,1932,0,10,15,21,42,52,47,50,35,28,16,16,17,33,35,40,51,60,65,68,68,79,81,84,84,79,70,62,49,50,46,1.369
754,Lowestoft,52.473,1.75,GBR,europe,6.5,6662984,62417431,1956,0,-3,2,6,20,32,28,27,23,21,22,22,26,32,38,37,58,65,72,76,83,82,90,88,85,88,90,85,87,92,95,3.475
755,Millport,55.75,-4.9060000000000015,GBR,europe,6.5,6662984,62417431,1986,0,-1,-3,5,11,11,6,5,-5,-7,-12,-10,-8,-7,-10,-2,-4,11,20,11,4,13,-4,-3,14,17,23,27,23,27,39,1.379
1109,Wick,58.441,-3.0860000000000003,GBR,europe,6.5,6662984,62417431,1965,0,-11,-30,-34,-18,-3,-2,1,-7,-16,-38,-43,-36,-22,-14,2,14,23,29,30,25,33,26,20,20,7,10,7,3,6,28,1.91
1112,Ullapool,57.895,-5.1579999999999995,GBR,europe,6.5,6662984,62417431,1983,0,-17,-26,-27,-4,20,19,22,30,47,57,69,72,63,36,17,8,9,15,16,13,27,24,24,32,30,34,31,32,37,54,1.34
1215,Portpatrick,54.843,-5.12,GBR,europe,6.5,6662984,62417431,1968,0,-3,-17,-18,-23,-23,-26,-17,-20,-7,-3,-1,6,11,11,21,32,43,46,48,37,53,46,55,65,70,59,,,,,4.459
7,Cuxhaven 2,53.867,8.717,DEU,europe,8.89,4430201,82162512,1843,0,-16,-24,-29,-13,16,23,28,9,17,11,-10,-11,16,20,20,53,63,54,55,50,50,68,79,67,62,66,50,33,35,59,2.682
8,Wismar 2,53.898999999999994,11.458,DEU,europe,8.89,4430201,82162512,1849,0,-11,-1,0,25,34,29,28,18,-2,3,1,1,11,14,0,10,16,10,15,22,17,31,42,42,49,59,53,50,45,45,1.409
11,Warnemunde 2,54.17,12.103,DEU,europe,8.89,4430201,82162512,1856,0,-13,-5,-9,18,28,20,19,9,-13,-14,-17,-14,1,9,5,25,34,28,36,41,36,51,59,55,58,63,51,43,34,35,1.6340000000000001
397,Sassnitz,54.511,13.642999999999999,DEU,europe,8.89,4430201,82162512,1936,0,-14,-16,-37,-32,-33,-40,-53.5,-67,-59,-34,-59,-57,-46,-44,-49,-21,-14,-21,-10,-3,-6,19,36,31,27,34,22,7,-5,-2,2.146
1036,Amrum (Wittduen),54.617,8.383,DEU,europe,8.89,4430201,82162512,1963,0,-15,-37,-29,-8,26,17,25,4,2,-20,-26,-30,-14,-6,1,37,60,62,63,56,59,61,66,54,42,39,22,-6,-10,10,1.213
1037,Borkum (Fischerbalje),53.558,6.7479999999999976,DEU,europe,8.89,4430201,82162512,1963,0,-10,-13,-14,4,20,20,21,5,6,-1,-15,-14,0,1,1,31,41,36,39,42,44,57,67,63,58,60,50,39,42,59,2.656
1448,Koserow,54.06,14.001,DEU,europe,8.89,4430201,82162512,1980,0,-19,-12,-22,4,11,26,41,7,-36,-1,-13,-12,7,9,-5,7,12,0,7,10,5,23,33,24,23,33,27,23,18,28,1.121
9,Maassluis,51.918,4.25,NLD,europe,9.92,11967821,16664746,1848,0,-5,-3,5,12,23,12,9,-5,-2,0,-3,-11,-5,-5,-8,16,31,24,23,20,14,22,31,28,32,34,26,21,27,33,1.3730000000000002
20,Vlissingen,51.442,3.596,NLD,europe,9.92,11967821,16664746,1862,0,-11,-15,-12,-9,-3,-9,-7,-16,-13,-11,-11,-12,0,5,6,28,40,36,40,47,45,56,63,60,56,57,48,41,46,50,3.063
22,Hoek Van Holland,51.978,4.12,NLD,europe,9.92,11967821,16664746,1864,0,-9,-14,-10,-4,7,-1,-2,-13,-12,-11,-13,-13,-1,5,7,31,44,38,37,36,30,36,42,39,40,43,36,31,37,43,2.366
23,Den Helder,52.964,4.745,NLD,europe,9.92,11967821,16664746,1865,0,-7,-12,-9,-4,10,3,8,-6,-2,-8,-14,-21,-8,-6,-4,20,32,25,26,23,20,28,34,27,22,26,18,9,14,27,1.485
24,Delfzijl,53.326,6.933,NLD,europe,9.92,11967821,16664746,1865,0,-18,-29,-32,-23,-7,-8,-1,-13,-10,-14,-23,-26,-11,-4,-2,31,44,35,33,26,17,26,32,25,22,31,21,14,23,45,2.844
25,Harlingen,53.176,5.409,NLD,europe,9.92,11967821,16664746,1865,0,-13,-25,-27,-23,-6,-17,-13,-31,-27,-36,-46,-49,-32,-26,-22,10,23,13,14,10,10,23,35,27,22,28,20,8,17,39,2.847
32,Ijmuiden,52.461999999999996,4.555,NLD,europe,9.92,11967821,16664746,1872,0,-8,-11,-10,-4,9,4,8,-2,1,-1,-5,-6,9,15,20,46,60,55,55,53,49,57,62,54,48,47,36,25,33,45,2.546
236,West-Terschelling,53.363,5.22,NLD,europe,9.92,11967821,16664746,1921,0,-4,-13,-11,-2,15,5,9,-6,-6,-14,-21,-29,-19,-18,-19,3,10,3,4,5,10,27,42,42,39,44,36,25,31,48,2.397
10,San Francisco,37.806999999999995,-122.465,USA,north-america,16.49,24431214,313085381,1855,0,13,1,-40,-50,-46,-55,-43,-23,-21,-5,1,2,7,5,-9,-14,-27,-40,-29,-18,-2,-12,-16,-17,-20,-29,-18,-17,-4,12,1.599
12,New York (The Battery),40.7,-74.013,USA,north-america,16.49,24431214,313085381,1856,0,10,23,7,-6,-6,-3,-3,12,22,30,46,61,71,77,84,75,58,49,50,61,67,70,78,92,101,113,132,132,131,116,4.126
112,Fernandina Beach,30.671999999999997,-81.465,USA,north-america,16.49,24431214,313085381,1898,0,19,27,12,4,2,13,24,38,67,79,47,47,44,39,34,57,55,55,41,50,44,47,48,56,43,42,43,53,68,93,2.425
127,Seattle,47.602,-122.338,USA,north-america,16.49,24431214,313085381,1899,0,2,-6,-36,-48,-38,-42,-34,-22,-12,-2,5,12,23,25,16,8,-8,-14,-12,-3,14,13,2,-4,2,-6,6,2,20,26,2.1919999999999997
135,Philadelphia (Pier 9N),39.933,-75.142,USA,north-america,16.49,24431214,313085381,1901,0,14,28,9,-1,2,3,4,25,39,43,69,78,87,85,91,67,55,53,62,81,100,109,107,117,118,137,152,152,149,137,4.587
148,Baltimore,39.266999999999996,-76.578,USA,north-america,16.49,24431214,313085381,1903,0,11,17,3,-9,-7,-1,3,19,27,30,44,51,62,69,67,55,45,34,37,56,65,69,72,82,84,100,118,123,124,119,4.298
155,Honolulu,21.307,-157.86700000000005,USA,north-america,16.49,24431214,313085381,1905,0,-24,-24,-9,-18,-32,-23,-11,-22,-18,7,20,21,11,13,-4,-15,-23,-3,7,17,30,37,31,15,10,-1,-4,-6,5,11,1.9069999999999998
158,San Diego (Quarantine Station),32.713,-117.17299999999999,USA,north-america,16.49,24431214,313085381,1906,0,3,2,-24,-37,-33,-29,-18,1,10,10,5,11,6,-7,-15,-17,-38,-40,-23,-13,-2,-2,0,2,3,2,14,19,34,60,2.735
161,"Galveston Ii, Pier 21, Tx",29.31,-94.79299999999999,USA,north-america,16.49,24431214,313085381,1909,0,14,17,1,-1,10,25,41,61,73,80,63,63,75,77,67,80,91,88,94,105,95,97,98,105,114,126,132,146,146,162,6.417999999999999
180,Atlantic City,39.355,-74.418,USA,north-america,16.49,24431214,313085381,1912,0,10,25,10,0,12,29,35,57,63,69,73,77,83,97,106,99,99,88,87,103,111,107,113,127,137,148,165,166,163,148,4.444
183,Portland (Maine),43.657,-70.247,USA,north-america,16.49,24431214,313085381,1912,0,-5,3,-9,-20,-26,-20,-21,-17,-14,-6,0,6,15,20,20,10,0,-9,-4,11,22,24,26,36,49,59,78,89,88,61,2.908
188,Key West,24.555,-81.807,USA,north-america,16.49,24431214,313085381,1913,0,11,14,13,8,5,9,14,22,35,47,31,27,24,31,31,38,42,43,34,35,41,46,56,63,64,68,74,81,91,109,3.549
224,Lewes (Breakwater Harbor),38.782,-75.12,USA,north-america,16.49,24431214,313085381,1919,0,10,24,7,-4,-9,-6,-8,7,8,19,32,38,51,67,70,63,56,48,48,66,77,81,83,98,104,114,132,137,135,125,4.977
225,Ketchikan,55.332,-131.625,USA,north-america,16.49,24431214,313085381,1919,0,-9,2,-15,-37,-28,-29,-27,-31,-17,-16,-22,-24,-22,-25,-28,-26,-46,-46,-48,-36,-34,-20,-26,-31,-32,-35,-38,-54,-55,-64,-1.476
234,Charleston I,32.782,-79.925,USA,north-america,16.49,24431214,313085381,1922,0,17,22,8,-1,-4,3,11,26,38,59,47,49,47,61,54,61,59,59,42,45,46,50,54,68,63,67,74,85,100,123,4.352
235,Boston,42.353,-71.053,USA,north-america,16.49,24431214,313085381,1921,0,3,12,0,-11,-19,-13,-13,-3,-5,4,14,24,35,49,52,43,36,29,32,48,61,67,73,85,98,107,119,126,126,107,4.671
245,Los Angeles,33.72,-118.272,USA,north-america,16.49,24431214,313085381,1924,0,2,0,-27,-41,-38,-36,-24,-3,10,15,13,17,13,-1,-8,-7,-25,-29,-13,-5,0,-2,0,2,0,-2,6,6,16,39,2.03
246,Pensacola,30.403000000000002,-87.21,USA,north-america,16.49,24431214,313085381,1924,0,12,14,-1,-11,-15,-14,-9,-1,10,15,11,12,24,31,27,27,29,34,23,38,37,38,33,53,51,57,72,81,81,89,4.47
256,La Jolla (Scripps Pier),32.867,-117.257,USA,north-america,16.49,24431214,313085381,1925,0,3,3,-16,-23,-12,-6,6,19,21,16,10,16,16,8,5,3,-19,-23,-7,2,7,13,13,11,6,11,19,25,46,77,2.395
265,Astoria (Tongue Point),46.207,-123.76799999999999,USA,north-america,16.49,24431214,313085381,1925,0,-2,-24,-65,-87,-74,-78,-72,-59,-50,-37,-21,6,20,28,10,-20,-54,-66,-73,-68,-43,-45,-53,-55,-47,-49,-26,-31,-14,-11,1.359
266,Seward,60.12,-149.42700000000005,USA,north-america,16.49,24431214,313085381,1964,0,-9,12,12,-9,-9,-16,-19,-37,-27,-24,-37,-52,-52,-61,-67,-54,-66,-68,-75,-70,-75,-83,-94,-109,-112,-130,-128,-145,-128,-133,-4.566
299,"Sewells Point, Hampton Roads",36.946999999999996,-76.33,USA,north-america,16.49,24431214,313085381,1928,0,13,24,4,-7,-12,-7,-2,16,18,30,45,55,76,97,104,94,79,69,70,90,102,113,113,126,130,139,156,165,167,159,6.397
300,"Hilo, Hawaii Island",19.73,-155.055,USA,north-america,16.49,24431214,313085381,1927,0,-17,-12,-7,-14,-21,-13,-7,-3,-5,10,23,21,8,11,-5,-11,-14,1,22,45,51,56,51,30,26,20,10,10,22,28,2.702
311,Annapolis (Naval Academy),38.983000000000004,-76.48,USA,north-america,16.49,24431214,313085381,1929,0,12,21,6,-6,-7,-5,-3,10,14,21,39,47,59,69,73,65,53,44,50,72,76,75,75,81,79,94,118,129,136,136,4.833
332,Eastport,44.903,-66.982,USA,north-america,16.49,24431214,313085381,1930,0,0,6,-3,-13,-26,-24,-25,-23,-23,-8,1,10,18,25,25,17,9,5,7,16,25,29,30,42,57,69,81,92,92,74,3.27
351,Newport,41.505,-71.327,USA,north-america,16.49,24431214,313085381,1931,0,7,18,5,-7,-14,-11,-12,-1,3,12,22,30,41,53,56,51,44,33,32,46,54,56,61,72,83,91,107,112,112,94,3.9789999999999996
360,Washington Dc,38.87300000000001,-77.02199999999998,USA,north-america,16.49,24431214,313085381,1931,0,17,26,7,-9,-16,-10,-9,15,25,34,64,74,90,94,94,65,48,38,39,60,69,77,72,84,83,101,117,121,126,121,4.382
366,Sandy Hook,40.467,-74.008,USA,north-america,16.49,24431214,313085381,1933,0,12,25,10,0,-4,-5,-7,9,18,29,47,57,68,73,77,69,63,55,59,78,89,93,97,111,119,131,145,153,153,138,5.417999999999999
367,Woods Hole (Ocean. Inst.),41.523,-70.672,USA,north-america,16.49,24431214,313085381,1933,0,7,21,11,-1,-11,-16,-21,-16,-15,-9,9,20,33,46,53,49,43,32,33,47,55,57,70,82,94,102,117,118,118,101,4.465
377,Santa Monica (Municipal Pier),34.008,-118.5,USA,north-america,16.49,24431214,313085381,1933,0,0,-6,-26,-24,-26,-31,-15,-2,8,22,27,25,27,13,5,2,-19,-23,-4,5,12,12,14,15,11,7,16,16,27,51,2.084
378,Crescent City,41.745,-124.182,USA,north-america,16.49,24431214,313085381,1933,0,4,-10,-50,-59,-55,-59,-40,-19,-13,1,3,-7,-8,-1,-17,-29,-42,-49,-56,-46,-32,-40,-52,-56,-60,-74,-65,-75,-66,-61,-1.115
384,Friday Harbor (Ocean. Labs.),48.547,-123.01,USA,north-america,16.49,24431214,313085381,1934,0,0,-9,-40,-54,-45,-50,-42,-30,-19,-8,-4,2,12,12,-1,-9,-28,-35,-32,-21,-5,-5,-14,-18,-12,-17,-3,-5,10,13,1.814
385,Neah Bay,48.367,-124.61200000000001,USA,north-america,16.49,24431214,313085381,1935,0,-4,-15,-51,-67,-59,-67,-62,-54,-46,-36,-34,-28,-23,-29,-47,-58,-85,-94,-93,-86,-74,-76,-89,-95,-90,-98,-86,-94,-82,-86,-1.625
395,Fort Pulaski,32.033,-80.902,USA,north-america,16.49,24431214,313085381,1935,0,18,23,8,1,-3,1,8,20,30,52,42,48,50,67,55,62,60,57,41,53,52,58,62,76,67,72,76,91,106,129,4.395
396,Wilmington,34.227,-77.953,USA,north-america,16.49,24431214,313085381,1936,0,12,17,0,-9,-11,-2,4,21,24,42,43,44,50,68,63,55,51,47,28,26,33,32,25,39,41,38,51,61,77,96,3.824
405,Juneau,58.298,-134.412,USA,north-america,16.49,24431214,313085381,1936,0,-22,-15,-33,-62,-65,-80,-94,-116,-120,-135,-164,-189,-206,-223,-238,-240,-263,-277,-301,-307,-323,-337,-352,-359,-368,-381,-386,-413,-424,-440,-14.914000000000001
412,Solomon'S Island (Biol. Lab.),38.317,-76.452,USA,north-america,16.49,24431214,313085381,1938,0,17,31,18,11,9,10,14,28,30,35,50,54,66,77,79,70,60,51,55,75,87,96,99,110,113,126,141,149,162,165,5.268
426,Sitka,57.052,-135.342,USA,north-america,16.49,24431214,313085381,1938,0,-8,4,-9,-33,-29,-37,-40,-47,-36,-34,-39,-41,-39,-39,-40,-32,-47,-48,-50,-41,-36,-27,-33,-43,-50,-71,-84,-115,-117,-126,-3.162
428,Cedar Key Ii,29.135,-83.03200000000002,USA,north-america,16.49,24431214,313085381,1939,0,12,10,2,-1,5,13,27,39,49,56,61,59,63,69,52,27,22,30,24,36,46,49,48,57,61,69,92,98,107,121,4.04
429,New London,41.36,-72.09,USA,north-america,16.49,24431214,313085381,1939,0,6,16,3,-9,-11,-6,-4,7,11,19,33,44,58,71,74,66,57,46,45,60,70,76,82,97,106,117,129,130,127,107,4.47
430,Providence (State Pier),41.806999999999995,-71.4,USA,north-america,16.49,24431214,313085381,1939,0,6,11,-1,-17,-22,-19,-12,2,8,15,22,31,42,54,55,52,41,31,29,44,53,56,63,75,85,94,109,110,107,87,3.986
437,Alameda (Naval Air Station),37.772,-122.29799999999999,USA,north-america,16.49,24431214,313085381,1940,0,12,-1,-46,-59,-59,-70,-60,-39,-37,-17,-8,-3,3,0,-18,-28,-46,-61,-47,-37,-21,-30,-36,-39,-43,-50,-40,-40,-30,-16,0.638
445,Yakutat,59.548,-139.733,USA,north-america,16.49,24431214,313085381,1940,0,-15,-1,-17,-50,-57,-77,-98,-113,-105,-107,-117,-125,-138,-151,-166,-167,-195,-207,-225,-231,-246,-261,-282,-309,-328,-358,-372,-405,-407,-421,-14.797
495,Skagway,59.45,-135.327,USA,north-america,16.49,24431214,313085381,1945,0,4,36,34,4,-7,-27,-51,-79,-91,-92,-148,-180,-210,-227,-237,-228,-262,-285,-314,-328,-353,-371,-387,-409,-427,-451,-469,-506,-520,-538,-21.223000000000003
497,Port Isabel,26.06,-97.215,USA,north-america,16.49,24431214,313085381,1945,0,7,7,-6,1,-8,0,15,28,43,57,57,64,78,88,87,92,101,101,104,115,112,115,121,126,127,134,129,128,125,131,6.045
508,Port San Luis,35.177,-120.76,USA,north-america,16.49,24431214,313085381,1946,0,2,-2,-25,-36,-37,-37,-26,-11,-6,0,-6,-4,-8,-18,-24,-21,-39,-43,-30,-22,-17,-21,-22,-22,-29,-32,-23,-23,-11,14,1.162
519,Montauk,41.048,-71.96,USA,north-america,16.49,24431214,313085381,1948,0,7,19,7,-4,-10,-8,-6,5,16,30,45,55,68,75,82,81,71,60,70,85,97,103,111,118,125,128,143,149,147,131,5.164
520,St. Petersburg,27.76,-82.62700000000002,USA,north-america,16.49,24431214,313085381,1947,0,12,20,14,15,14,16,15,19,19,26,18,21,25,32,29,28,29,35,33,40,49,54,52,59,59,63,78,87,93,107,3.659
521,"Kahului Harbor, Maui Island",20.895,-156.477,USA,north-america,16.49,24431214,313085381,1951,0,-10,-4,15,9,-4,5,13,5,7,31,46,45,36,35,18,8,1,20,37,53,64,71,63,43,36,28,21,19,33,43,2.307
525,"Bar Harbor, Frenchman Bay, Me",44.391999999999996,-68.205,USA,north-america,16.49,24431214,313085381,1948,0,-2,7,-3,-13,-21,-18,-17,-10,-3,8,13,19,19,26,29,24,14,13,11,17,23,25,29,40,53,62,74,81,82,65,3.033
526,Grand Isle,29.263,-89.95700000000002,USA,north-america,16.49,24431214,313085381,1947,0,18,23,11,3,8,22,36,55,73,81,73,76,87,93,88,92,102,104,108,122,125,127,130,138,146,160,177,195,202,214,8.411
538,Rockport,28.022,-97.04700000000001,USA,north-america,16.49,24431214,313085381,1948,0,9,13,-5,-15,-13,-3,12,30,48,65,61,74,97,113,112,127,140,141,150,166,163,168,174,174,179,188,185,191,196,205,9.513
566,Cordova,60.558,-145.752,USA,north-america,16.49,24431214,313085381,1965,0,-3,22,28,13,24,26,27,16,37,44,35,33,39,33,33,52,41,44,42,52,52,52,46,36,33,19,22,6,18,18,0.016
567,"Kodiak Island, Womens Bay",57.732,-152.512,USA,north-america,16.49,24431214,313085381,1985,0,-5,0,-6,-45,-59,-80,-98,-117,-116,-116,-127,-132,-134,-145,-158,-154,-176,-183,-188,-189,-197,-208,-228,-249,-257,-280,-287,-307,-299,-302,-9.049
636,Kiptopeke Beach,37.165,-75.988,USA,north-america,16.49,24431214,313085381,1952,0,10,26,8,0,-9,-8,-10,8,13,28,43,53,65,78,78,67,54,44,41,58,68,72,73,85,88,94,108,114,115,110,4.32
756,"Nawiliwili Bay, Kauai Island",21.95300000000001,-159.355,USA,north-america,16.49,24431214,313085381,1955,0,-22,-29,-26,-31,-43,-34,-13,-17,-19,-6,7,6,-8,-5,-16,-33,-39,-19,-12,-3,17,24,25,16,9,-2,-3,-4,10,21,2.591
757,Unalaska,53.88,-166.537,USA,north-america,16.49,24431214,313085381,1956,0,-5,-2,-11,-33,-43,-48,-56,-68,-64,-52,-64,-63,-65,-76,-85,-81,-91,-95,-86,-80,-83,-89,-98,-107,-113,-115,-122,-129,-113,-107,-2.017
786,Reedy Point,39.558,-75.57300000000002,USA,north-america,16.49,24431214,313085381,1985,0,16,22,10,7,5,4,6,20,30,34,52,58,72,70,88,75,65,56,63,68,77,80,80,92,94,106,123,125,120,111,3.783
823,Mokuoloe Island,21.432,-157.79,USA,north-america,16.49,24431214,313085381,1958,0,-39,-46,-33,-40,-51,-40,-26,-33,-28,-8,3,5,-4,-7,-24,-35,-43,-24,-8,5,19,26,21,4,1,-10,-13,-17,-6,-2,2.129
828,"Galveston I, Pleasure Pier, Tx",29.285,-94.788,USA,north-america,16.49,24431214,313085381,1958,0,19,27,20,22,36,51,66,80,90,94,79,76,89,96,90,99,114,112,116,128,124,126,133,133,134,133,,,,,4.49
1068,Bridgeport,41.173,-73.182,USA,north-america,16.49,24431214,313085381,1965,0,10,21,3,-9,-14,-11,-9,5,12,21,31,37,48,56,58,50,42,31,31,45,54,52,52,59,69,76,97,106,109,97,3.602
1070,Seldovia,59.44,-151.72,USA,north-america,16.49,24431214,313085381,1966,0,-19,-6,-15,-47,-56,-70,-89,-116,-113,-112,-136,-147,-149,-162,-177,-167,-185,-193,-198,-197,-204,-218,-236,-257,-272,-291,-292,-309,-293,-292,-9.204
1106,Fort Myers,26.647,-81.87,USA,north-america,16.49,24431214,313085381,1966,0,16,10,-10,-20,-28,-29,-29,-23,-15,14,17,4,15,28,3,-2,18,21,19,32,41,38,36,42,36,38,55,67,74,88,4.3580000000000005
1107,Naples,26.131999999999998,-81.807,USA,north-america,16.49,24431214,313085381,1966,0,12,27,36,32,31,34,34,31,41,56,55,60,61,71,63,63,63,67,61,68,75,79,80,88,86,88,101,109,117,134,3.819
1111,Nantucket Island,41.285,-70.097,USA,north-america,16.49,24431214,313085381,1965,0,6,19,9,-2,-8,-4,-4,4,8,17,24,31,40,49,54,50,43,36,37,48,56,60,67,81,96,106,120,129,129,113,4.629
1153,Cape May,38.968,-74.96,USA,north-america,16.49,24431214,313085381,1966,0,9,22,3,-4,-10,-5,-3,15,20,34,50,59,70,84,87,80,72,64,66,82,94,99,105,121,130,138,155,160,157,144,5.662000000000001
1156,Dauphin Island,30.25,-88.075,USA,north-america,16.49,24431214,313085381,1971,0,5,0,-17,-24,-19,-19,-13,-4,8,14,3,8,13,11,-2,48,45,58,52,52,37,31,20,34,39,47,68,83,80,90,4.715
1193,Apalachicola,29.726999999999997,-84.98200000000001,USA,north-america,16.49,24431214,313085381,1968,0,13,15,-1,-15,-12,-9,-9,2,20,23,14,14,25,21,15,16,17,17,15,31,34,33,22,35,32,36,56,74,72,80,3.6319999999999997
1196,South Beach,44.625,-124.042,USA,north-america,16.49,24431214,313085381,1967,0,1,-5,-40,-51,-41,-49,-40,-20,-9,7,21,32,39,36,23,11,-9,-15,-8,2,18,15,5,1,8,1,21,15,31,38,2.503
1269,Charleston Ii,43.345,-124.322,USA,north-america,16.49,24431214,313085381,1971,0,-1,-9,-46,-61,-59,-56,-40,-17,-4,18,21,20,24,19,4,-8,-25,-30,-21,-12,3,-2,-14,-19,-14,-24,-11,-17,-2,2,1.443
1295,Cambridge Ii,38.573,-76.068,USA,north-america,16.49,24431214,313085381,1971,0,12,22,7,-1,-1,5,7,23,28,36,50,63,77,90,95,88,72,61,59,73,81,88,92,103,109,122,140,146,147,138,4.9
1325,Port Townsend,48.111999999999995,-122.757,USA,north-america,16.49,24431214,313085381,1972,0,0,-7,-38,-51,-42,-46,-37,-23,-11,4,11,19,28,28,15,7,-13,-20,-16,-5,9,7,-2,-6,2,-3,15,13,29,31,2.131
1352,Monterey,36.605,-121.887,USA,north-america,16.49,24431214,313085381,1974,0,7,5,-23,-31,-29,-30,-20,-4,0,6,2,-1,-3,-13,-20,-21,-32,-36,-22,-12,-3,-8,-10,-11,-14,-19,-12,-12,2,21,1.256
1353,Valdez,61.125,-146.362,USA,north-america,16.49,24431214,313085381,1975,0,-8,13,14,-4,0,-4,-12,-28,-21,-19,-37,-45,-49,-58,-68,-59,-79,-87,-98,-99,-110,-121,-139,-156,-166,-185,-190,-210,-205,-210,-8.299
1354,"Toke Point, Willipa Bay, Wa",46.707,-123.96700000000001,USA,north-america,16.49,24431214,313085381,1979,0,1,-10,-40,-54,-36,-42,-32,-16,1,18,29,43,55,51,33,24,-4,-14,-10,-1,10,8,-4,-9,-15,-27,-16,-30,-32,-33,0.051
1394,Point Reyes,37.995,-122.977,USA,north-america,16.49,24431214,313085381,1975,0,9,2,-33,-42,-44,-45,-28,-8,0,13,12,5,5,-3,-12,-15,-24,-29,-13,-1,12,3,-1,-5,-10,-16,-3,-1,16,35,2.022
1444,Springmaid Pier,33.655,-78.918,USA,north-america,16.49,24431214,313085381,1978,0,14,14,8,12,12,44,50,63,47,42,6,1,-6,1,0,10,8,5,-10,-8,-13,-9,-6,9,-4,2,12,26,39,69,1.751
1633,Cherry Point,48.863,-122.757,USA,north-america,16.49,24431214,313085381,1985,0,38,50,43,38,49,46,57,67,73,80,76,78,88,91,80,76,58,51,54,64,77,73,58,49,51,44,58,55,69,71,0.302
1634,"Sand Point, Popof Is., Ak",55.336999999999996,-160.502,USA,north-america,16.49,24431214,313085381,1985,0,43,67,80,61,61,55,46,34,46,65,54,60,69,64,56,73,68,73,90,95,94,90,77,67,74,69,73,66,85,95,2.1519999999999997
1635,Chesapeake Bay Br. Tun.,36.967,-76.113,USA,north-america,16.49,24431214,313085381,1985,0,-3,8,-5,-7,-14,-8,-6,15,21,34,46,56,71,85,90,84,72,63,65,83,94,101,102,115,119,127,146,155,158,151,6.15
1636,Duck Pier Outside,36.183,-75.747,USA,north-america,16.49,24431214,313085381,1985,0,18,35,19,15,12,19,17,36,38,47,49,57,69,85,86,85,78,70,70,90,96,98,98,114,120,126,142,149,147,137,4.891
1637,"Bergen Point, Staten Is.",40.637,-74.142,USA,north-america,16.49,24431214,313085381,1985,0,7,16,8,3,0,-4,-17,-16,-19,28,67,71,83,83,88,77,66,55,54,69,83,95,101,120,127,139,152,157,149,130,4.814
1639,"N. Spit, Humboldt Bay",40.766999999999996,-124.21700000000001,USA,north-america,16.49,24431214,313085381,1985,0,35,45,36,33,40,35,50,76,89,108,120,123,128,123,117,114,105,102,119,131,145,140,132,131,136,133,150,153,174,189,5.04
1640,Port Orford,42.738,-124.49799999999999,USA,north-america,16.49,24431214,313085381,1985,0,36,43,31,25,26,21,36,58,72,96,101,101,104,117,114,130,108,93,70,73,79,77,65,61,63,48,53,50,65,72,1.038
1641,"Panama City, St.Andrews Bay, Fl",30.151999999999997,-85.667,USA,north-america,16.49,24431214,313085381,1985,0,2,-6,-15,-21,-20,-17,-10,-5,7,9,0,1,5,7,4,3,1,12,9,19,23,24,19,32,31,36,48,60,61,71,3.7880000000000003
2127,"Port Angeles, Washington",48.125,-123.44,USA,north-america,16.49,24431214,313085381,1976,0,-1,-9,-41,-53,-42,-47,-38,-22,-11,-3,4,10,15,13,0,-10,-34,-43,-45,-36,-22,-22,-33,-38,-27,-34,-20,-26,-11,-13,0.596
2295,"Beaufort, North Carolina",34.72,-76.67,USA,north-america,16.49,24431214,313085381,1973,0,16,25,12,4,-1,1,9,23,29,41,39,41,45,58,57,56,51,45,33,42,48,51,54,69,67,73,86,94,105,114,4.086
2324,"Lewisetta, Virginia",37.995,-76.465,USA,north-america,16.49,24431214,313085381,,0,11,20,2,-8,-10,-3,1,22,23,30,42,54,69,89,97,92,81,73,74,95,107,116,118,131,135,148,166,173,174,165,6.494
2330,"Port Chicago, California",38.055,-122.04,USA,north-america,16.49,24431214,313085381,,0,15,-7,-68,-84,-85,-103,-94,-69,-65,-35,-22,-13,1,1,-19,-29,-45,-66,-50,-35,-6,-10,-12,-18,-23,-34,-23,-25,-17,-6,2.256
14,Helsinki,60.153999999999996,24.956,FIN,europe,8.66,260454,5384770,1879,0,-20,-33,-57,-24,9,7,28,14,-17,-32,-67,-82,-70,-68,-76,-44,-53,-72,-66,-71,-75,-43,-19,-39,-66,-53,-68,-97,-108,-67,-2.318
57,Vaasa / Vasa,63.082,21.570999999999998,FIN,europe,8.66,260454,5384770,1884,0,-18,-37,-62,-31,-3,-13,1,-15,-51,-73,-101,-121,-117,-123,-155,-137,-147,-174,-161,-149,-154,-128,-113,-138,-173,-164,-184,-216,-228,-188,-6.867999999999999
71,Hanko / Hango,59.823,22.976999999999997,FIN,europe,8.66,260454,5384770,1889,0,-12,-18,-32,7,47,37,53,37,-1,-23,-54,-69,-76,-83,-124,-42,-36.67,-31.33,-26,-37,-56,-27,-21,-41,-65,-54,-69,-98,-109,-72,-3.725
79,Oulu / Uleaborg,65.04,25.41800000000001,FIN,europe,8.66,260454,5384770,1889,0,-14,-42,-69,-33,-2,-1,19,5,-34,-52,-98,-123,-120,-122,-128,-106,-116,-134,-131,-136,-138,-107,-93,-119,-161,-150,-173,-204,-214,-167,-6.171
172,Mantyluoto,61.593999999999994,21.463,FIN,europe,8.66,260454,5384770,1911,0,-20,-38,-59,-39,-11,-16,-1,-20,-44,-65,-101,-119,-110,-111,-116,-91,-98,-122,-122,-132,-137,-111,-91,-114,-144,-134,-152,-183,-195,-157,-5.016
194,Pietarsaari / Jakobstad,63.708999999999996,22.69,FIN,europe,8.66,260454,5384770,1915,0,-16,-39,-65,-38,-9,-21,-9,-23,-59,-80,-114,-134,-131,-134,-139,-117,-126,-148,-147,-156,-160,-132,-118,-145,-184,-175,-195,-225,-236,-192,-6.808
229,Kemi,65.673,24.515,FIN,europe,8.66,260454,5384770,1920,0,-13,-40,-66,-40,-9,-16,-1,-14,-44,-64,-100,-121,-118,-120,-124,-102,-112,-132,-131,-137,-140,-108,-95,-122,-166,-154,-176,-205,-215,-167,-5.7139999999999995
239,Turku / Abo,60.428000000000004,22.101,FIN,europe,8.66,260454,5384770,1922,0,-19,-39,-61,-13,12,7,22,6,-26,-47,-81,-93,-81,-80,-83,-55,-63,-85,-82,-89,-95,-65,-45,-66,-92,-82,-98,-127,-137,-100,-3.74
240,Raahe / Brahestad,64.666,24.406999999999996,FIN,europe,8.66,260454,5384770,1923,0,-13,-44,-67,-37,-10,-15,1,-15,-53,-74,-110,-134,-132,-137,-143,-123,-132,-152,-151,-161,-165,-138,-126,-152,-193,-183,-203,-232,-241,-194,-7.127999999999999
285,Kaskinen / Kasko,62.343999999999994,21.215,FIN,europe,8.66,260454,5384770,1927,0,-21,-45,-61,-32,-2,-9,7,-17,-52,-74,-110,-129,-120,-121,-126,-102,-110,-135,-136,-146,-152,-125,-107,-132,-165,-155,-173,-205,-216,-177,-6.356
315,Hamina,60.563,27.179000000000002,FIN,europe,8.66,260454,5384770,1929,0,-19,-34,-58,-20,15,14,37,21,-12,-32,-70,-84,-68,-65,-60,-27,-35,-54,-47,-54,-56,-21,5,-16,-48,-32,-48,-77,-87,-39,-1.416
376,Rauma / Raumo,61.13399999999999,21.426,FIN,europe,8.66,260454,5384770,1933,0,-20,-37,-56,-26,3,-4,10,-7,-39,-61,-95,-110,-100,-101,-105,-80,-87,-109,-108,-117,-122,-94,-76,-98,-127,-117,-134,-164,-175,-138,-4.9239999999999995
33,Oscarsborg,59.678000000000004,10.605,NOR,europe,9.27,294257,4924848,1954,0,-14,-40,-39,-7,28,25,34,8,-18,-52,-74,-83,-70,-63,-55,-35,-35,-48,-52,-62,-59,-49,-38,-47,-70,-60,-69,-88,-90,-61,-2.378
45,Kabelvag,68.21300000000001,14.482000000000001,NOR,europe,9.27,294257,4924848,1948,0,6,-13,1,31,45,35,42,-1,-34,-47,-61,-69,-63,-56,-62,-52,-49,-49,-51,-43,-37,-30,-29,-34,-58,-52,-64,-67,-70,-38,-1.157
47,Stavanger,58.974,5.73,NOR,europe,9.27,294257,4924848,1919,0,2,-5,-2,12,24,16,17,4,-4,-18,-26,-27,-15,-8,3,17,28,26,25,19,24,21,28,26,20,23,19,7,11,25,0.759
58,Bergen,60.398,5.32,NOR,europe,9.27,294257,4924848,1916,0,-5,-11,-7,14,36,32,35,22,13,-1,-8,-11,-1,4,15,27,35,29,26,18,22,22,31,31,23,29,25,12,14,29,0.5379999999999999
62,Oslo,59.909,10.735,NOR,europe,9.27,294257,4924848,1886,0,-17,-42,-57,-28,-9,11,25,13,-7,-26,-72,-82,-74,-67,-58,-39,-40,-47,-52,-62,-59,-46,-36,-45,-69,-60,-71,-92,-94,-64,-1.6119999999999999
302,Tregde,58.006,7.555,NOR,europe,9.27,294257,4924848,1928,0,-7,-21,-27,-18,-2,-3,0,-9,-11,-18,-24,-22,-13,-10,-3,10,17,14,15,9,13,17,25,22,17,16,8,-4,-4,4,0.943
312,Narvik,68.428,17.426,NOR,europe,9.27,294257,4924848,1932,0,2,-26,-47,8,37,40,65,59,11,-3,-18,-28,-26,-22,-31,-25,-26,-24,-30,-22,-18,-11,-15,-22,-48,-47,-66,-70,-79,-51,-2.073
313,Heimsjo,63.425,9.102,NOR,europe,9.27,294257,4924848,1928,0,1,-13,-19,8,24,20,29,15,-3,-17,-31,-35,-26,-23,-24,-11,-7,-12,-12,-8,-5,-4,2,-1,-17,-10,-19,-27,-29,-4,-0.402
425,Andenes,69.32600000000001,16.135,NOR,europe,9.27,294257,4924848,1982,0,-22,-33,-75,-100,-110,33,-40,-83,-96,-102,-149,-154,-148,-141,-143,-132,-128,-124,-126,-119,-113,-106,-107,-113,-132,-127,-137,-135,-137,-106,-0.35600000000000004
486,Maloy,61.934,5.113,NOR,europe,9.27,294257,4924848,1944,0,4,-10,-9,17,36,26,34,24,11,-7,-14,-17,-7,1,8,22,31,28,26,25,32,32,42,43,34,41,36,26,27,48,1.2770000000000001
509,Alesund,62.468999999999994,6.152,NOR,europe,9.27,294257,4924848,1945,0,13,-5,-11,15,36,27,38,25,10,-8,-20,-25,-14,-8,-1,14,22,19,17,14,20,21,28,27,15,18,8,-5,-8,11,0.025
524,Vardo,70.375,31.104,NOR,europe,9.27,294257,4924848,1984,0,0,4,24,40,71,81,94,81,75,58,51,46,37,37,34,39,40,66,70,75,75,82,73,67,51,48,33,27,26,49,-0.122
562,Bodo,67.288,14.390999999999998,NOR,europe,9.27,294257,4924848,1950,0,6,-30,-61,-19,22,24,60,45,25,6,-10,-18,-14,-9,-15,-4,-5,-8,-13,-8,-5,-1,-1,-8,-32,-26,-38,-40,-45,-10,-0.7929999999999999
680,Tromso,69.64699999999999,18.961,NOR,europe,9.27,294257,4924848,1953,0,0,-10,-4,32,73,74,85,62,32,19,8,2,5,11,7,15,17,22,19,24,28,36,31,27,15,18,4,6,-1,18,-0.489
681,Harstad,68.801,16.548,NOR,europe,9.27,294257,4924848,1953,0,-1,-20,-19,15,65,69,88,68,42,2,-9,-16,-12,-6,-10,0,3,6,4,10,14,21,19,14,-6,-3,-15,-16,-20,8,-0.33899999999999997
682,Kristiansund,63.114,7.734,NOR,europe,9.27,294257,4924848,1953,0,-16,-28,-30,3,23,29,34,15,-11,-31,-45,-49,-38,-31,-28,-15,-9,-12,-13,-12,-6,-6,0,-3,-15,-8,-14,-22,-22,2,0.133
758,Hammerfest,70.665,23.683000000000003,NOR,europe,9.27,294257,4924848,1957,0,12,-4,-13,12,28,35,59,52,36,29,17,7,4,5,1,10,17,36,36,43,48,53,41,37,19,21,10,14,11,38,0.8290000000000001
1113,Helgeroa,58.995,9.856,NOR,europe,9.27,294257,4924848,1984,0,0,-18,-23,-3,15,4,8,-4,-18,-35,-50,-55,-47,-42,-34,-17,-14,-21,-23,-31,-29,-19,-11,-22,-39,-33,-41,-55,-50,-28,-1.111
1241,Rorvik,64.859,11.23,NOR,europe,9.27,294257,4924848,1970,0,0,-16,-16,11,31,28,36,15,-8,-23,-38,-44,-37,-31,-35,-20,-20,-25,-28,-24,-23,-20,-18,-24,-44,-37,-45,-50,-54,-25,-1.47
41,Poti,42.167,41.683,GEO,asia,2.41,176485,4329026,1874,0,-2,7,39,70,88,103,97,97,120,147,157,193,219,241,252,259,259,254,246,255,267,246,229,218,236,245,255,288,303,286,7.197
69,Olands Norra Udde,57.36600000000001,17.097,SWE,europe,4.48,678429,9440747,1887,0,-18,-23,-39,-12,14,8,19,6,-19,-33,-49,-57,-43,-41,-45,-25,-26,-41,-36,-39,-45,-20,-2,-20,-34,-28,-41,-65,-73,-49,-1.545
70,Kungsholmsfort,56.105,15.589,SWE,europe,4.48,678429,9440747,1887,0,-16,-17,-28,-1,22,19,29,15,-6,-16,-35,-43,-30,-29,-35,-10,-7,-21,-14,-16,-21,4,21,10,3,12,0,-17,-24,-6,-0.15
78,Stockholm,59.324,18.082,SWE,europe,4.48,678429,9440747,1889,0,-19,-28,-47,-20,7,-1,9,-8,-39,-59,-89,-101,-87,-87,-91,-65,-71,-91,-86,-93,-98,-69,-50,-70,-89,-81,-94,-123,-133,-104,-3.477
88,Ratan,63.986000000000004,20.895,SWE,europe,4.48,678429,9440747,1892,0,-18,-42,-68,-35,-3,-14,-1,-17,-61,-92,-133,-156,-152,-154,-154,-129,-140,-167,-168,-182,-187,-160,-146,-172,-209,-200,-219,-251,-263,-223,-8.097000000000001
179,Smogen,58.354,11.218,SWE,europe,4.48,678429,9440747,1911,0,-6,-17,-13,11,18,-17,-14,-27,-35,-32,-20,-26,-21,-27,-26,-6,-1,-4,-1,-7,-5,4,11,4,-11,-5,-15,-31,-33,-16,-0.317
203,Furuogrund,64.916,21.230999999999998,SWE,europe,4.48,678429,9440747,1916,0,-17,-42,-70,-40,-8,-19,-11,-24,-67,-88,-126,-145,-141,-142,-150,-126,-132,-154,-150,-159,-162,-135,-121,-150,-189,-178,-197,-226,-235,-192,-6.671
330,Klagshamn,55.522,12.894,SWE,europe,4.48,678429,9440747,1930,0,-14,-17,-21,5,11,20,21,4,-21,-15,-32,-27,-12,-8,-14,8,13,5,13,16,14,34,39,22,10,9,-8,-20,-25,-14,-0.040999999999999995
1211,Spikarna,62.363,17.531,SWE,europe,4.48,678429,9440747,1969,0,-21,-40,-63,-41,-18,-31,-24,-47,-79,-99,-134,-153,-141,-145,-152,-127,-130,-151,-150,-158,-162,-136,-123,-146,-177,-172,-194,-227,-240,-207,-6.6370000000000005
1236,Goteborg - Torshamnen,57.685,11.790999999999999,SWE,europe,4.48,678429,9440747,1969,0,-10,-25,-36,-15,5,1,6,-6,-21,-36,-48,-48,-38,-34,-30,-12,-11,-15,-13,-17,-15,-5,5,-5,-20,-10,-15,-29,-29,-4,0.254
2101,Kalix,65.697,23.096,SWE,europe,4.48,678429,9440747,1975,0,-17,-48,-73,-39,-11,-17,3,-12,-51,-69,-115,-139,-137,-141,-141,-111,-121,-145,-143,-151,-152,-120,-105,-132,-175,-165,-187,-216,-225,-178,-6.28
2103,Forsmark,60.409,18.211,SWE,europe,4.48,678429,9440747,1976,0,-20,-33,-54,-29,-2,-11,1,-18,-52,-76,-111,-133,-121,-119,-122,-93,-93,-114,-113,-122,-129,-105,-89,-110,-132,-124,-141,-172,-185,-158,-5.167000000000001
2104,Marviken,58.553999999999995,16.837,SWE,europe,4.48,678429,9440747,1965,0,-19,-27,-38,-14,13,9,23,6,-16,-33,-61,-74,-65,-67,-73,-48,-53,-71,-67,-73,-78,-52,-33,-51,-66,-59,-73,-99,-106,-79,-2.9139999999999997
2105,Visby,57.638999999999996,18.284000000000002,SWE,europe,4.48,678429,9440747,1916,0,-15,-21,-38,-7,18,15,27,11,-16,-30,-57,-67,-54,-52,-57,-28,-30,-42,-39,-43,-48,-24,-11,-26,-43,-37,-48,-67,-73,-43,-1.5759999999999998
2106,Oskarshamn,57.275,16.477999999999998,SWE,europe,4.48,678429,9440747,1961,0,-16,-18,-32,-5,19,14,23,9,-16,-32,-58,-68,-55,-55,-63,-35,-31,-43,-33,-31,-35,-10,8,-6,-15,-6,-19,-41,-51,-29,-0.7
2107,Simrishamn,55.558,14.357999999999999,SWE,europe,4.48,678429,9440747,1983,0,1,8,5,31,51,45,50,35,14,7,-8,-12,2,4,0,24,28,17,25,24,19,41,56,46,44,50,40,25,19,29,0.321
2110,Viken,56.141999999999996,12.579,SWE,europe,4.48,678429,9440747,1977,0,-13,-18,-25,2,21,21,30,21,-2,-14,-30,-33,-22,-13,-14,8,10,4,9,9,8,25,35,25,18,28,18,6,2,16,0.703
2111,Ringhals,57.25,12.113,SWE,europe,4.48,678429,9440747,1968,0,-10,-23,-30,-7,15,14,22,10,-2,-17,-35,-39,-31,-31,-31,-13,-14,-22,-22,-25,-24,-8,5,-3,-15,-6,-16,-33,-35,-15,-0.541
2112,Stenungsund,58.093,11.833,SWE,europe,4.48,678429,9440747,1966,0,-8,-23,-31,-10,10,3,5,-19,-38,-55,-74,-79,-60,-52,-46,-25,-23,-30,-39,-51,-52,-43,-37,-44,-59,-49,-57,-72,-70,-44,-1.484
2113,Kungsvik,58.997,11.127,SWE,europe,4.48,678429,9440747,1974,0,-8,-25,-34,-13,5,-1,3,-14,-36,-57,-78,-85,-76,-70,-61,-41,-39,-45,-47,-53,-50,-39,-29,-37,-57,-49,-60,-78,-80,-56,-1.5659999999999998
76,Aarhus,56.147,10.224,DNK,europe,5.94,1492575,5572594,1889,0,1,-5,-8,17,43,34,40,29,9,1,-3,-2,7,17,17,35,44,44,48,54,55,65,74,70,66,67,58,,,,2.1590000000000003
80,Esbjerg,55.46100000000001,8.441,DNK,europe,5.94,1492575,5572594,1889,0,-12,-31,-30,-8,27,32,43,22,24,-4,-29,-33,-16,-14,-3,29,33,22,23,13,21,38,58,47,34,45,38,,,,2.512
81,Fredericia,55.56100000000001,9.754,DNK,europe,5.94,1492575,5572594,1890,0,-10,-13,-14,7,14,10,15,8,-6,-4,-7,-7,2,6,1,16,29,27,31,35,31,38,46,45,47,51,40,,,,2.077
82,Kobenhavn,55.705,12.6,DNK,europe,5.94,1492575,5572594,1889,0,-13,-21,-30,-7,6,-13,8,0,-17,-21,-16,-24,-8,-3,-2,28,34,24,40,41,26,35,44,21,-12,14,-2,,,,1.6569999999999998
89,Hirtshals,57.596000000000004,9.964,DNK,europe,5.94,1492575,5572594,1892,0,-16,-5,5,9,29,21,23,5,-8,-24,-37,-38,-28,-25,-22,-2,0,-1,0,-5,1,11,16,8,-5,0,-9,,,,-0.35700000000000004
91,Frederikshavn,57.43600000000001,10.549000000000001,DNK,europe,5.94,1492575,5572594,1894,0,-9,-17,-19,1,9,1,0,-15,-31,-39,-45,-42,-21,-13,-13,0,0,-17,-21,-25,-22,-8,3,-8,-17,-21,-43,,,,-0.826
98,Slipshavn,55.288000000000004,10.828,DNK,europe,5.94,1492575,5572594,1896,0,-9,-11,-12,9,21,21,19,5,-13,-13,-27,-22,1,8,1,24,32,22,28,31,28,38,47,44,42,50,39,,,,2.05
113,Korsor,55.332,11.142000000000001,DNK,europe,5.94,1492575,5572594,1897,0,-17,-55,-55,-32,-14,-10,-3,-7,-16,-17,-20,-15,-1,5,2,17,19,8,5,1,-8,4,13,12,15,25,14,,,,1.6280000000000001
119,Hornbaek,56.091,12.458,DNK,europe,5.94,1492575,5572594,1891,0,-14,-20,-27,-1,2,-1,4,-10,-28,-36,-49,-50,-35,-30,-31,-1,9,13,27,35,33,43,47,27,20,32,28,,,,2.911
120,Gedser,54.573,11.925999999999998,DNK,europe,5.94,1492575,5572594,1892,0,-10,-2,-7,13,22,12,15,8,-9,-6,-7,-8,7,12,0,15,16,4,12,17,0,22,42,42,51,68,64,,,,2.367
703,Hanstholm,57.119,8.596,DNK,europe,5.94,1492575,5572594,1953,0,-2,-11,-13,14,47,27,27,8,0,-25,-22,-18,1,9,13,39,43,41,42,43,47,62,75,72,60,66,57,,,,2.481
762,Rodbyhavn,54.65600000000001,11.349,DNK,europe,5.94,1492575,5572594,1955,0,-14,-3,-30,-58,-63,-87,-108,-113,-126,-117,-107,-101,-85,-77,-90,-72,-57,-64,-59,-47,-67,-74,-75,-81,-81,-67,-57,,,,1.784
1197,Fynshav,54.995,9.987,DNK,europe,5.94,1492575,5572594,1968,0,-6,2,4,26,41,34,34,26,11,13,14,16,23,22,6,12,17,15,24,36,39,49,53,52,71,75,71,,,,1.618
126,Trois-Rivieres,46.333,-72.55,CAN,north-america,15.11,1300770,34349561,1925,0,2,12,-64,-146,-156,-220,-232,-152,-99,-159,-107,-33,-66,-150,-149,-308,-424,-512,-450,-433,-302,-307,-199,-174,-224,-231,-253,-309,-309,-283,-6.5360000000000005
144,Batiscan,46.5,-72.25,CAN,north-america,15.11,1300770,34349561,1961,0,9,12,-56,-38,-35,-32,-32,36,81,42,27,79,52,4,-3,-129,-218,-284,-255,-236,-127,-133,-49,-21,-51,-47,-55,-95,-95,-83,-3.3310000000000004
165,Tofino,49.15,-125.917,CAN,north-america,15.11,1300770,34349561,1910,0,-6,-3,-36,-69,-62,-72,-81,-78,-76,-65,-56,-49,-38,-33,-47,-60,-84,-92,-91,-83,-69,-68,-81,-84,-77,-84,-73,-80,-70,-72,0.24600000000000002
166,Victoria,48.417,-123.367,CAN,north-america,15.11,1300770,34349561,1910,0,-14,-32,-65,-74,-60,-66,-56,-45,-42,-36,-29,-23,-19,-18,-30,-40,-60,-61,-60,-50,-36,-37,-47,-46,-39,-44,-30,-34,-25,-23,1.24
167,Prince Rupert,54.317,-130.333,CAN,north-america,15.11,1300770,34349561,1909,0,-12,-7,-30,-50,-38,-35,-26,-19,-8,-3,-6,-7,-4,0,-3,1,-16,-16,-15,-1,4,17,10,7,10,12,13,-2,7,3,1.2770000000000001
173,Quebec (Lauzon),46.833,-71.167,CAN,north-america,15.11,1300770,34349561,1911,0,-12,-10,-33,-67,-60,-63,-60,-44,-17,-15,8,26,29,18,9,-23,-48,-79,-75,-68,-45,-47,-26,-17,-9,-4,4,,,,1.094
192,Neuville,46.7,-71.567,CAN,north-america,15.11,1300770,34349561,1961,0,-11,-13,-46,-94,-100,-110,-102,-84,-59,-62,-41,-19,-14,-29,-35,-90,-126,-163,-149,-142,-98,-102,-72,-61,-59,-50,-41,-48,-43,-54,1.062
193,Point Atkinson,49.333,-123.25,CAN,north-america,15.11,1300770,34349561,1915,0,-8,-23,-60,-74,-63,-62,-49,-37,-26,-17,-12,-17,-9,-7,-19,-29,-37,-41,-41,-31,-17,-14,-24,-29,-23,-27,-16,-19,-4,-1,1.912
201,Deschaillons,46.567,-72.1,CAN,north-america,15.11,1300770,34349561,1960,0,-5,3,-53,-114,-113,-158,-159,-106,-62,-89,-39,13,3,-45,-48,-155,-229,-293,-254,-243,-154,-161,-91,-72,-93,-96,-102,-134,-132,-129,-1.5119999999999998
392,Port Aux Basques,47.567,-59.133,CAN,north-america,15.11,1300770,34349561,1959,0,-3,-1,-5,-5,-10,-9,-5,-7,-7,-4,2,7,11,13,16,18,17,23,24,28,31,31,35,50,67,79,90,98,99,87,4.01
393,"St. John'S, Nfld.",47.567,-52.717,CAN,north-america,15.11,1300770,34349561,1957,0,7,23,24,10,-3,5,-2,-4,9,22,25,36,44,39,33,27,22,40,53,51,35,66,48,49,71,93,64,76,68,53,2.291
427,Charlottetown,46.233000000000004,-63.117,CAN,north-america,15.11,1300770,34349561,1938,0,-8,-10,-14,-18,-21,-10,-9,-8,0,5,13,30,41,48,58,56,51,48,41,36,32,32,36,55,82,99,106,113,109,93,4.4830000000000005
447,Churchill,58.766999999999996,-94.18299999999999,CAN,north-america,15.11,1300770,34349561,1940,0,-2,-31,-41,-79,-108,-92,-89,-107,-117,-124,-156,-150,-146,-148,-149,-156,-166,-171,-185,-192,-186,-193,-203,-195,-186,-201,-202,-204,-214,-260,-6.205
829,Queen Charlotte City,53.25,-132.067,CAN,north-america,15.11,1300770,34349561,1966,0,-8,-6,-32,-49,-39,-43,-35,-25,-15,-14,-13,-15,-10,-14,-17,-16,-29,-30,-24,-11,-2,2,-11,-20,-19,-28,-24,-28,-9,-1,1.4240000000000002
984,Bella Bella,52.167,-128.13299999999998,CAN,north-america,15.11,1300770,34349561,1962,0,-5,-5,-32,-49,-39,-51,-50,-48,-41,-34,-27,-18,-8,-7,-17,-21,-46,-50,-50,-36,-28,-20,-29,-34,-29,-29,-24,-34,-21,-25,0.41100000000000003
999,St-Francois,47,-70.817,CAN,north-america,15.11,1300770,34349561,1963,0,-17,-17,-36,-66,-67,-67,-67,-61,-49,-43,-26,-9,3,11,10,-9,-30,-55,-57,-54,-41,-40,-21,5,18,25,33,26,8,-14,2.174
1071,Port Hardy,50.717,-127.48299999999999,CAN,north-america,15.11,1300770,34349561,1965,0,-7,-4,-30,-46,-38,-44,-39,-31,-24,-15,-4,2,6,2,-11,-28,-52,-55,-53,-38,-28,-22,-31,-36,-31,-35,-29,-40,-27,-31,-0.07
1152,Patricia Bay,48.65,-123.45,CAN,north-america,15.11,1300770,34349561,1977,0,-12,-28,-60,-72,-58,-60,-51,-40,-29,-21,-19,-17,-7,-9,-22,-31,-47,-53,-51,-40,-24,-24,-35,-41,-36,-41,-29,-33,-17,-13,1.26
1158,Yarmouth,43.833,-66.133,CAN,north-america,15.11,1300770,34349561,1967,0,10,24,14,11,6,7,-2,2,3,12,23,34,44,53,56,51,46,44,51,51,50,55,62,71,96,114,124,130,130,116,4.5169999999999995
1213,Riviere-Au-Renard,49,-64.383,CAN,north-america,15.11,1300770,34349561,1969,0,-12,-6,-8,-7,-10,-5,-4,-5,3,11,22,33,39,38,45,48,42,42,52,51,49,50,53,54,70,77,85,90,88,66,2.806
1242,Bamfield,48.85,-125.133,CAN,north-america,15.11,1300770,34349561,1971,0,-4,-16,-50,-62,-52,-59,-52,-44,-38,-28,-23,-18,-9,-9,-25,-35,-54,-61,-59,-48,-33,-34,-49,-59,-58,-68,-57,-65,-49,-48,-0.24
1244,St-Joseph-De-La-Rive,47.45,-70.367,CAN,north-america,15.11,1300770,34349561,1980,0,-17,-33,-51,-78,-79,-79,-79,-101,-118,-122,-126,-136,-114,-83,-71,-68,-56,-65,-64,-62,-54,-52,-31,-23,-12,-9,-7,-18,-34,-65,1.555
1245,New Westminster,49.2,-122.917,CAN,north-america,15.11,1300770,34349561,1970,0,-8,-28,-62,-81,-54,-53,-68,-71,-64,-71,-87,-25,-12,17,9,6,-25,-22,-41,-24,-5,4,4,-3,-8,8,19,13,37,46,3.115
1299,North Sydney,46.217,-60.25,CAN,north-america,15.11,1300770,34349561,1970,0,-4,8,10,8,-1,6,9,8,12,23,29,42,50,58,57,58,53,54,55,67,69,76,79,91,107,123,125,140,137,121,4.779
1321,Argentia,47.3,-53.983000000000004,CAN,north-america,15.11,1300770,34349561,1972,0,7,25,36,38,26,30,30,20,21,25,30,38,42,45,48,51,48,61,67,68,62,70,60,68,88,102,101,115,110,99,3.12
1322,Sept-Iles,50.2,-66.4,CAN,north-america,15.11,1300770,34349561,1981,0,0,7,-2,-12,-31,-42,-55,-49,-29,3,19,49,52,45,27,24,6,5,-1,0,3,6,2,6,21,21,17,21,15,-11,0.6
1323,Campbell River,50.016999999999996,-125.23299999999999,CAN,north-america,15.11,1300770,34349561,1967,0,-2,-16,-51,-68,-59,-67,-62,-59,-55,-55,-50,-40,-27,-28,-44,-59,-87,-97,-97,-87,-73,-66,-70,-72,-61,-61,-56,-70,-67,-79,-0.932
1349,Lower Escuminac,47.083,-64.883,CAN,north-america,15.11,1300770,34349561,1973,0,-17,-14,-16,-24,-30,-19,-18,-16,-7,6,12,30,40,42,46,43,29,21,25,28,36,44,52,61,82,90,95,104,106,87,4.449
1597,Rimouski,48.483000000000004,-68.517,CAN,north-america,15.11,1300770,34349561,1985,0,-7,0,7,1,-5,-5,-11,-19,-20,4,24,27,31,37,16,0,-8,-15,-15,-11,-5,-2,3,5,17,24,30,32,36,16,0.9890000000000001
111,Fremantle,-32.056,115.73899999999999,AUS,oceania,15.4,2662710,22605732,1897,0,-6,-9,0,3,-5,-3,6,-20,-39,-30,-6,-5,14,52,73,65,67,67,40,22,16,29,52,65,72,107,131,138,141,139,4.829
189,Port Hedland,-20.317999999999998,118.574,AUS,oceania,15.4,2662710,22605732,1966,0,-12,-20,-2,10,9,6,5,-20,-44,-41,-17,-9,15,53,83,91,98,90,69,47,41,59,85,98,116,136,162,171,167,145,4.676
196,"Sydney, Fort Denison 2",-33.855,151.226,AUS,oceania,15.4,2662710,22605732,1915,0,-1,2,14,17,24,25,32,22,12,0,-3,-14,-5,0,9,23,35,34,33,31,18,20,22,27,30,41,43,56,63,66,2.206
216,Port Pirie,-33.178000000000004,138.012,AUS,oceania,15.4,2662710,22605732,1941,0,-9,-16,-4,-1,2,2,10,-12,-25,-35,-30,-46,-36,-17,12,26,59,67,62,56,46,54,68,84,79,91,94,104,99,98,4.455
230,Port Lincoln,-34.716,135.87,AUS,oceania,15.4,2662710,22605732,1966,0,-10,-12,-1,-12,-20,-14,-2,-15,-10,1,10,2,9,31,44,45,57,59,42,35,22,27,43,54,48,62,66,70,64,57,2.734
448,Port Adelaide (Outer Harbor),-34.78,138.481,AUS,oceania,15.4,2662710,22605732,1941,0,-10,-14,-3,-5,-2,-2,5,-14,-22,-29,-17,-26,-19,-8,15,17,34,39,44,38,22,31,46,55,54,73,83,90,86,79,3.8339999999999996
564,Mackay,-21.1,149.233,AUS,oceania,15.4,2662710,22605732,1966,0,10,-8,-5,-1,1,5,19,20,19,13,3,5,10,21,39,47,51,52,40,34,29,30,30,35,55,77,86,102,111,100,3.426
637,Townsville I,-19.25,146.833,AUS,oceania,15.4,2662710,22605732,1959,0,-8,-6,4,15,23,31,31,17,10,10,5,8,24,31,40,44,46,36,23,13,13,21,24,41,67,85,94,110,117,107,3.359
822,Brisbane (West Inner Bar),-27.366999999999997,153.167,AUS,oceania,15.4,2662710,22605732,1966,0,-16,-12,-11,-19,-11,5,8,-2,-10,-17,-22,-30,-23,-10,-2,10,21,25,19,21,14,18,22,29,38,57,65,78,81,82,4.195
825,Gladstone,-23.854,151.314,AUS,oceania,15.4,2662710,22605732,1978,0,-7,-12,-1,13,34,55,67,58,53,50,35,31,45,56,56,64,64,61,50,54,49,48,51,58,77,97,112,126,136,129,3.279
834,Bunbury,-33.323,115.66,AUS,oceania,15.4,2662710,22605732,1958,0,-8,5,19,25,16,22,11,-19,-38,-30,-13,-16,2,34,53,48,53,53,28,7,-5,6,24,33,37,74,94,102,106,103,3.1639999999999997
835,Karumba,-17.5,140.833,AUS,oceania,15.4,2662710,22605732,1985,0,21,-8,0,18,9,-24,-10,-5,-48,-37,-6,-34,-38,5,27,40,65,88,73,50,34,39,36,66,88,119,133,128,103,70,3.343
837,Newcastle V,-32.924,151.789,AUS,oceania,15.4,2662710,22605732,1966,0,-3,-3,12,30,39,38,50,37,24,13,17,7,22,33,45,61,72,67,61,55,42,44,51,56,58,67,70,83,90,96,2.1719999999999997
1069,Victor Harbour,-35.562,138.635,AUS,oceania,15.4,2662710,22605732,1966,0,-15,-19,5,22,40,44,56,39,24,14,28,18,23,31,48,41,60,61,55,46,30,32,44,58,57,82,91,103,99,88,1.777
1115,Carnarvon,-24.899,113.65100000000001,AUS,oceania,15.4,2662710,22605732,1967,0,4,18,18,-10,-22,-52,-62,-74,-82,-78,-52,-47,-23,15,41,45,48,39,8,-20,-32,-21,8,25,43,79,103,105,103,91,4.573
1116,Wyndham,-15.453,128.101,AUS,oceania,15.4,2662710,22605732,1985,0,-2,-19,-14,-10,-24,-31,-32,-49,-71,-54,-37,-27,-4,38,76,99,99,94,81,53,32,49,76,85,99,133,145,148,144,117,5.3660000000000005
1154,"Bundaberg, Burnett Heads",-24.767,152.38299999999995,AUS,oceania,15.4,2662710,22605732,1966,0,-8,-10,-3,7,12,25,38,30,20,18,14,6,17,25,29,32,33,30,22,20,12,16,14,19,39,58,65,84,107,109,3.7560000000000002
1157,Weipa,-12.667,141.86700000000005,AUS,oceania,15.4,2662710,22605732,1966,0,13,-6,4,32,42,1,8,-20,-58,-77,-33,-42,-19,17,46,52,64,59,37,13,2,12,37,59,83,106,121,122,114,87,3.6489999999999996
1246,Hay Point,-21.283,149.3,AUS,oceania,15.4,2662710,22605732,1985,0,15,-4,1,-19,-27,-13,0,-1,23,37,22,18,24,30,29,28,30,28,14,8,2,2,8,24,53,82,96,111,119,108,3.582
1420,Wallaroo Ii,-33.926,137.615,AUS,oceania,15.4,2662710,22605732,1983,0,-10,-25,-34,-40,-37,-40,-32,-47,-49,-49,-37,-53,-58,-58,-46,-47,-33,-29,-28,-36,-57,-50,-32,-21,-17,1,15,24,15,4,1.7380000000000002
1549,King Bay,-20.624000000000002,116.749,AUS,oceania,15.4,2662710,22605732,1983,0,1,11,27,32,27,20,18,-7,-27,-24,2,10,35,71,101,109,116,104,80,54,43,56,61,74,90,92,93,124,120,102,4.141
1629,Mourilyan Harbour,-17.583,146.083,AUS,oceania,15.4,2662710,22605732,1985,0,11,17,38,43,63,78,86,78,81,81,83,87,106,116,126,124,119,106,94,81,82,87,88,100,124,143,157,175,182,170,3.8160000000000003
1630,Lucinda,-18.517,146.38299999999995,AUS,oceania,15.4,2662710,22605732,1986,0,45,56,75,83,110,122,119,112,110,106,97,108,129,141,151,161,161,146,137,131,128,134,139,154,175,184,193,204,206,196,3.7430000000000003
1631,Onslow,-21.65,115.132,AUS,oceania,15.4,2662710,22605732,1986,0,36,27,52,72,85,77,78,55,37,41,67,77,100,132,160,167,172,161,135,109,99,113,144,160,182,209,228,236,236,218,4.986000000000001
2316,Port Stephens (Tomaree),-32.715,152.18200000000004,AUS,oceania,15.4,2662710,22605732,1986,0,-4,-5,-3,3,9,11,13,-1,-16,-31,-33,-44,-16,0,17,36,51,40,34,29,15,15,19,26,29,43,51,68,67,,2.6689999999999996
118,Klaipeda,55.7,21.133000000000006,LTU,europe,4.38,164111,3307481,1898,0,-14,-15,-32,10,38,39,52,50,20,10,-20,-13,16,30,29,65,55,46,65,60,54,88,93,63,58,76,,,,,3.122
130,Aburatsubo,35.16,139.615,JPN,asia,9.54,29241996,126497241,1930,0,-5,3,6,11,27,41,46,47,54,57,51,49,54,65,74,85,96,107,115,115,115,118,122,121,131,147,156,163,159,153,5.08
131,Ayukawa,38.297,141.505,JPN,asia,9.54,29241996,126497241,1959,0,-2,3,-4,-7,-3,3,6,13,24,32,33,42,48,56,62,66,68,69,71,75,88,104,118,131,146,151,150,,,,7.002999999999999
132,Wajima,37.406,136.9,JPN,asia,9.54,29241996,126497241,1930,0,-8,-3,-6,0,5,9,13,18,22,26,26,26,29,39,40,51,63,58,62,60,57,56,55,51,62,63,68,79,76,65,2.633
133,Hosojima,32.429,131.66899999999998,JPN,asia,9.54,29241996,126497241,1930,0,11,14,13,25,24,23,29,33,34,39,35,34,39,42,43,52,59,63,63,60,63,59,53,51,64,65,78,82,85,84,2.467
134,Kushimoto,33.476,135.773,JPN,asia,9.54,29241996,126497241,1958,0,-2,6,15,40,47,54,70,78,80,97,99,95,108,114,109,113,129,137,142,146,164,165,161,162,183,187,202,209,218,217,6.749
407,Uchiura,35.016999999999996,138.89,JPN,asia,9.54,29241996,126497241,1944,0,-11,-6,-12,-10,8,16,12,9,16,10,2,-5,0,8,15,28,38,44,53,50,40,39,38,25,33,54,67,80,79,77,2.912
518,Kushiro,42.976000000000006,144.371,JPN,asia,9.54,29241996,126497241,1947,0,2,11,13,15,18,24,31,51,74,103,122,146,153,163,171,177,183,190,197,202,206,204,204,202,200,200,201,211,218,219,7.442
701,Kainan,34.144,135.191,JPN,asia,9.54,29241996,126497241,1953,0,-9,-10,-14,3,3,1,9,12,7,14,11,2,11,14,6,3,10,12,13,9,17,7,-8,-23,-10,-11,3,5,13,7,-0.085
721,Asamushi,40.898,140.859,JPN,asia,9.54,29241996,126497241,1955,0,-10,-6,-15,-16,-11,-12,-9,-4,1,6,8,7,9,16,19,20,21,21,25,25,31,31,31,25,28,19,14,15,4,-17,0.026000000000000002
722,Yokosuka,35.28800000000001,139.651,JPN,asia,9.54,29241996,126497241,1957,0,-1,6,6,10,28,43,50,52,61,62,54,52,59,72,83,102,112,120,128,125,118,123,126,123,134,152,161,169,166,160,5.242000000000001
753,Kashiwazaki,37.357,138.50799999999998,JPN,asia,9.54,29241996,126497241,1956,0,-11,-3,-13,-11,-1,2,2,8,14,11,9,10,17,26,35,47,55,59,63,62,60,63,68,69,84,89,92,96,86,65,2.989
808,Shimizu-Minato,35.012,138.518,JPN,asia,9.54,29241996,126497241,1958,0,-4,6,2,8,31,44,42,46,56,57,53,51,63,79,91,110,126,136,151,151,143,146,146,135,147,172,190,205,207,210,7.231
809,Komatsushima,34.009,134.588,JPN,asia,9.54,29241996,126497241,1958,0,-4,2,4,26,35,40,54,61,62,70,68,64,77,83,80,83,93,97,102,101,111,102,88,71,86,88,104,112,125,125,3.217
810,Misumi,32.623000000000005,130.451,JPN,asia,9.54,29241996,126497241,1957,0,-4,5,6,20,29,40,47,56,59,60,61,61,69,77,86,95,103,103,103,100,102,104,104,102,115,116,129,,,,4.936
811,Sakai,35.548,133.243,JPN,asia,9.54,29241996,126497241,1958,0,-9,-6,-16,-6,2,8,14,21,27,29,29,33,45,55,63,76,84,87,92,87,88,89,87,85,100,106,119,135,139,136,5.5360000000000005
812,Uno,34.489000000000004,133.94899999999998,JPN,asia,9.54,29241996,126497241,1958,0,-3,4,9,35,50,63,82,90,95,100,90,82,93,95,94,100,108,111,116,116,127,122,111,99,115,120,141,155,169,173,4.744
813,Hakodate I,41.782,140.725,JPN,asia,9.54,29241996,126497241,1961,0,-7,-6,-13,-15,-12,-10,-11,-7,-5,-4,-10,-10,-19,-23,-30,-36,-41,-41,-36,-33,-31,-30,-31,-36,-34,-37,-42,-43,-56,-76,-2.641
814,Aburatsu,31.576999999999998,131.409,JPN,asia,9.54,29241996,126497241,1960,0,-4,0,1,16,26,32,45,51,55,59,58,56,67,72,77,88,99,102,102,99,99,92,87,85,98,101,117,122,129,130,4.101
815,Tosa Shimizu,32.779,132.959,JPN,asia,9.54,29241996,126497241,1958,0,-4,1,0,12,14,16,26,33,36,49,51,50,63,71,72,80,93,101,105,101,108,103,98,92,109,108,119,118,125,127,4.672
816,Wakayama,34.222,135.14600000000002,JPN,asia,9.54,29241996,126497241,1958,0,-8,-6,-8,11,16,19,31,38,36,44,38,27,32,31,20,18,25,28,29,26,34,23,9,-6,10,10,27,32,42,39,0.446
817,Tan-Nowa,34.339,135.178,JPN,asia,9.54,29241996,126497241,1958,0,-6,0,4,17,23,27,37,44,47,57,55,49,61,67,63,66,77,81,85,87,98,91,78,66,81,84,102,111,122,121,3.5180000000000002
1027,Oshoro Ii,43.208999999999996,140.858,JPN,asia,9.54,29241996,126497241,1963,0,-7,0,-4,-2,4,5,1,4,7,8,3,2,-3,-1,-1,-1,3,5,12,14,17,15,15,8,12,15,16,27,25,18,0.643
1028,Hirosima,34.353,132.465,JPN,asia,9.54,29241996,126497241,1964,0,-4,11,13,33,37,42,44,52,57,70,69,75,90,101,107,121,130,134,134,136,143,137,129,126,141,145,162,172,181,181,5.907
1062,Matsuyama Ii,33.859,132.71200000000002,JPN,asia,9.54,29241996,126497241,1964,0,-12,-9,-9,3,9,11,16,18,18,15,3,-7,-3,-3,0,15,30,44,51,52,55,48,32,23,32,33,43,47,51,47,1.8
1090,Uragami,33.558,135.89600000000002,JPN,asia,9.54,29241996,126497241,1965,0,-3,7,8,13,24,26,24,19,19,14,8,-2,6,15,27,47,57,60,72,68,54,63,68,61,68,85,95,105,104,111,4.13
1091,Okada,34.789,139.391,JPN,asia,9.54,29241996,126497241,1965,0,-5,4,4,5,23,24,10,-9,-14,-25,-38,-50,-48,-44,-41,-29,-23,-18,-15,-21,-37,-34,-38,-47,-46,-29,-19,-11,-17,-23,-1.052
1093,Awa Sima,38.468,139.255,JPN,asia,9.54,29241996,126497241,1968,0,-6,2,-5,2,12,18,23,33,43,50,54,63,72,83,91,102,109,114,121,120,119,121,119,115,126,127,130,139,136,122,4.641
1094,Hakata,33.619,130.408,JPN,asia,9.54,29241996,126497241,1966,0,-1,8,4,15,21,26,28,31,31,30,26,25,36,46,53,64,73,74,76,75,76,78,77,75,88,90,100,112,117,114,4.2219999999999995
1095,Saigo,36.201,133.33100000000002,JPN,asia,9.54,29241996,126497241,1965,0,-8,0,-3,5,14,22,22,24,25,21,16,14,22,30,37,47,58,60,66,63,61,60,61,56,66,72,82,97,102,103,3.988
1096,Nisinoomote,30.735,130.99200000000002,JPN,asia,9.54,29241996,126497241,1966,0,0,4,6,9,16,29,30,25,24,22,17,18,32,45,59,70,75,78,74,69,65,68,65,66,76,72,82,89,91,89,3.2319999999999998
1097,Odomari,31.024,130.689,JPN,asia,9.54,29241996,126497241,1966,0,0,6,11,26,25,30,44,48,48,52,44,37,49,50,52,67,79,83,85,85,88,82,76,75,91,96,114,121,129,127,3.955
1098,Sumoto,34.341,134.907,JPN,asia,9.54,29241996,126497241,1965,0,-7,1,2,23,35,43,56,65,70,80,95,92,105,109,103,91,107,115,119,124,138,130,118,110,120,116,125,125,132,134,4.093
1100,Nagasaki,32.735,129.866,JPN,asia,9.54,29241996,126497241,1965,0,-7,0,3,14,19,27,31,32,31,29,26,23,34,43,51,61,68,67,65,59,61,63,64,65,81,83,97,105,114,112,3.9760000000000004
1101,Fukue,32.696,128.849,JPN,asia,9.54,29241996,126497241,1965,0,-7,-4,-12,6,10,20,23,32,26,28,24,26,38,47,54,62,68,67,68,57,57,55,51,47,63,64,74,82,85,84,3.2119999999999997
1102,Oura,32.977,130.221,JPN,asia,9.54,29241996,126497241,1965,0,-4,5,7,21,27,35,39,45,44,46,46,51,64,78,90,102,106,102,98,92,92,90,85,81,95,96,111,121,124,117,3.6489999999999996
1103,Wakkanai,45.408,141.685,JPN,asia,9.54,29241996,126497241,1975,0,-3,7,9,15,23,29,26,33,39,42,35,37,35,42,46,54,64,70,77,79,82,80,80,73,79,85,87,98,100,95,3.0039999999999996
1104,Abashiri,44.019,144.286,JPN,asia,9.54,29241996,126497241,1965,0,-1,3,-3,-15,-22,-25,-28,-22,-9,12,20,36,41,44,44,42,39,39,44,46,46,42,41,35,35,41,42,53,59,58,2.7289999999999996
1105,Nakano Sima,29.842,129.84799999999998,JPN,asia,9.54,29241996,126497241,1984,0,10,19,25,27,41,47,49,46,52,55,58,61,73,84,97,107,111,111,103,103,99,109,118,125,128,127,130,127,125,125,3.742
1146,Owase,34.076,136.207,JPN,asia,9.54,29241996,126497241,1967,0,-14,-7,-7,3,25,33,25,19,17,6,-8,-20,-16,-14,-7,9,15,12,21,10,-9,-7,-9,-25,-23,-10,-6,0,-5,-2,-0.623
1147,Sasebo Ii,33.158,129.724,JPN,asia,9.54,29241996,126497241,1967,0,-6,-2,-5,4,9,14,16,19,19,17,14,14,26,36,47,60,68,66,64,59,59,61,60,62,76,77,90,100,105,101,3.985
1148,Tajiri,35.594,134.316,JPN,asia,9.54,29241996,126497241,1966,0,-7,-1,-7,-2,1,5,9,12,16,17,15,14,22,31,35,43,49,50,50,49,48,49,50,48,61,68,80,96,104,104,4.24
1149,Miyako Ii,39.643,141.975,JPN,asia,9.54,29241996,126497241,1967,0,-6,-1,-9,-10,-1,9,14,25,39,49,47,56,60,65,67,67,64,65,72,76,83,94,96,99,104,105,102,111,104,96,3.675
1150,Shirahama,33.684,135.375,JPN,asia,9.54,29241996,126497241,1967,0,-11,-9,-9,8,12,15,26,30,33,45,47,40,53,56,46,44,52,54,55,51,62,55,44,34,52,53,70,76,87,84,2.31
1151,Naha,26.213,127.665,JPN,asia,9.54,29241996,126497241,1967,0,-5,-7,-3,1,13,29,36,32,27,20,16,22,34,48,55,67,61,51,56,62,60,69,74,77,78,71,78,74,69,68,2.721
1190,Mikuni,36.255,136.149,JPN,asia,9.54,29241996,126497241,1968,0,-14,-6,-9,0,6,12,20,28,33,38,38,39,41,55,63,79,95,99,113,127,134,141,156,158,157,155,155,149,139,136,5.942
1191,Katsuura,35.129,140.249,JPN,asia,9.54,29241996,126497241,1968,0,-4,-2,3,-1,9,23,33,29,34,38,28,26,29,43,54,73,75,73,69,65,57,61,64,70,74,83,89,92,86,81,2.737
1209,Kure Iv,34.241,132.55,JPN,asia,9.54,29241996,126497241,1968,0,-2,7,12,36,51,60,72,76,74,70,59,50,57,62,66,81,99,108,116,123,130,124,115,108,122,125,140,148,154,153,4.546
1210,Tokuyama Ii,34.041,131.803,JPN,asia,9.54,29241996,126497241,1968,0,-3,6,9,32,42,45,51,57,60,62,58,53,64,69,72,83,94,97,100,104,115,115,112,106,120,124,139,149,158,161,5.152
1212,Uwajima Ii,33.227,132.55100000000002,JPN,asia,9.54,29241996,126497241,1969,0,-4,1,1,16,20,20,28,31,30,33,26,21,29,31,30,39,44,46,44,41,45,39,26,20,32,29,39,46,51,53,1.446
1263,Omaezaki Ii,34.608000000000004,138.222,JPN,asia,9.54,29241996,126497241,1971,0,-2,9,9,19,47,63,69,76,89,89,89,88,102,119,132,150,165,174,187,187,180,185,187,178,191,215,232,248,252,259,8.469
1264,Oga,39.942,139.70600000000002,JPN,asia,9.54,29241996,126497241,1970,0,-18,-17,-29,-28,-24,-26,-28,-22,-28,-25,-27,-26,-27,-14,-13,-10,-8,-7,-5,-8,-10,-12,-18,-25,-21,-27,-32,-26,-33,-49,-0.672
1265,Akune,32.018,130.191,JPN,asia,9.54,29241996,126497241,1971,0,-4,3,3,12,15,22,28,31,31,28,25,23,32,39,49,58,65,64,63,57,57,56,54,51,63,63,76,84,92,92,3.207
1266,Hachinohe Ii,40.532,141.528,JPN,asia,9.54,29241996,126497241,1971,0,-5,-4,-13,-16,-8,0,4,13,22,36,38,50,58,72,77,77,75,72,78,75,80,85,85,78,81,78,,,,,4.502
1293,Oita Ii,33.266,131.687,JPN,asia,9.54,29241996,126497241,1972,0,-2,2,0,19,24,26,32,37,40,46,42,43,57,62,66,76,83,83,84,83,87,83,75,67,80,83,96,104,112,112,3.516
1318,Kariya,33.473,129.849,JPN,asia,9.54,29241996,126497241,1972,0,-2,2,-7,3,5,6,13,19,21,21,19,17,19,29,39,46,55,57,58,55,59,59,56,53,65,66,77,86,91,87,3.645
1320,Kure I,33.334,133.243,JPN,asia,9.54,29241996,126497241,1973,0,-8,-5,-7,10,14,15,26,32,29,36,34,24,31,32,24,20,31,37,40,32,41,29,15,-5,12,9,18,14,21,16,0.016
1344,Ogi,37.815,138.281,JPN,asia,9.54,29241996,126497241,1974,0,-12,-8,-16,-9,2,10,13,23,26,29,27,29,31,37,42,48,56,57,64,57,56,65,69,68,77,73,56,47,30,11,0.968
1345,Soma,37.830999999999996,140.96200000000005,JPN,asia,9.54,29241996,126497241,1974,0,-1,5,2,4,15,27,31,40,52,61,58,66,71,79,84,87,89,89,89,91,98,107,116,123,133,135,,,,,5.49
1364,Ofunato Ii,39.02,141.753,JPN,asia,9.54,29241996,126497241,1974,0,-6,-5,-12,-14,-8,-1,2,10,22,33,37,48,55,66,70,72,71,72,73,74,78,86,92,97,106,109,108,,,,5.497999999999999
1386,Kuchinotsu,32.605,130.195,JPN,asia,9.54,29241996,126497241,1975,0,-7,-7,-6,11,14,16,21,23,20,21,21,23,35,45,57,68,74,73,72,66,67,69,68,66,79,81,93,101,107,107,4.159
1387,Maizuru Ii,35.477,135.387,JPN,asia,9.54,29241996,126497241,1975,0,-5,3,1,6,16,27,35,41,43,45,42,43,53,61,67,78,86,90,96,97,97,98,98,96,107,111,123,139,144,140,4.9510000000000005
1388,Okinawa,26.179000000000002,127.824,JPN,asia,9.54,29241996,126497241,1976,0,-2,4,10,14,28,40,44,37,29,17,13,16,13,29,36,52,48,47,52,60,57,64,66,66,65,56,63,59,55,53,1.892
1389,Toyama,36.762,137.225,JPN,asia,9.54,29241996,126497241,1975,0,-9,0,-3,4,10,15,21,28,34,37,36,36,42,50,58,70,82,90,96,98,100,101,98,94,104,105,111,123,125,116,4.484
1390,Murotomisaki,33.266,134.164,JPN,asia,9.54,29241996,126497241,1976,0,-1,9,16,43,56,64,81,89,96,113,120,124,146,154,153,160,177,190,202,207,226,224,220,212,237,243,262,267,283,286,9.243
1391,Chichijima,27.083000000000002,142.183,JPN,asia,9.54,29241996,126497241,1976,0,1,17,17,30,63,71,67,79,89,81,80,88,97,94,115,130,130,130,129,120,119,124,108,118,116,127,124,118,109,106,2.246
1437,Tago,34.806999999999995,138.764,JPN,asia,9.54,29241996,126497241,1981,0,-4,7,6,10,30,39,38,39,50,48,44,37,38,50,61,81,100,102,116,116,107,111,113,103,112,134,147,158,158,161,5.3629999999999995
1438,Yaizu,34.871,138.327,JPN,asia,9.54,29241996,126497241,1981,0,-1,12,15,27,54,67,70,75,87,87,87,84,85,102,116,141,163,167,184,184,168,163,152,129,133,150,159,171,172,173,4.939
1440,Kaminato Ii (Hatizyo Sima),33.13,139.805,JPN,asia,9.54,29241996,126497241,1981,0,-17,18,-6,97,134,88,94,146,181,205,284,275,262,225,171,98,163,213,246,279,348,248,152,33,79,97,141,152,226,137,-2.025
1488,Nagoya Ii,35.091,136.881,JPN,asia,9.54,29241996,126497241,1980,0,-10,-8,-18,-21,-9,-8,-18,-26,-29,-45,-61,-75,-72,-66,-58,-44,-40,-42,-34,-46,-64,-63,-67,-86,-82,-67,-64,-62,-68,-69,-1.8419999999999999
1522,Nase Iii,28.5,129.5,JPN,asia,9.54,29241996,126497241,1981,0,-6,-9,-6,-6,-2,8,15,9,7,4,3,14,30,41,47,56,50,42,45,53,57,55,59,64,60,47,57,46,40,44,2.199
1544,Choshi-Gyoko,35.744,140.858,JPN,asia,9.54,29241996,126497241,1982,0,0,1,-3,-5,-4,1,4,5,10,19,14,19,22,33,38,47,46,42,37,35,33,37,43,45,49,64,76,92,104,115,4.2410000000000005
1545,Tokyo Iii,35.649,139.77,JPN,asia,9.54,29241996,126497241,1983,0,-7,-10,-12,-11,3,14,12,6,8,4,-9,-16,-15,-4,2,16,25,32,37,34,25,27,26,18,26,44,47,55,50,39,1.525
1567,Kochi Iii,33.499,133.569,JPN,asia,9.54,29241996,126497241,1984,0,6,10,5,28,35,41,52,57,58,74,73,66,77,79,65,53,54,81,99,96,134,126,105,88,110,106,119,111,110,100,2.5810000000000004
1585,Hamada Ii,34.897,132.066,JPN,asia,9.54,29241996,126497241,1985,0,-5,-2,-6,-5,4,12,17,23,27,30,31,34,45,55,61,71,78,81,84,83,85,88,88,88,100,104,115,128,132,129,5.167999999999999
1586,Izuhara Ii,34.198,129.292,JPN,asia,9.54,29241996,126497241,1985,0,-3,-1,-6,-12,-5,-5,-1,2,7,3,3,3,14,22,32,43,45,44,43,36,35,37,36,37,48,48,58,67,71,74,3.167
1587,Tappi,41.243,140.381,JPN,asia,9.54,29241996,126497241,1985,0,4,12,6,4,8,9,7,12,17,22,21,26,29,34,34,37,37,37,41,40,38,38,35,29,34,31,26,31,20,2,-0.075
221,Wellington Harbour,-41.284,174.78,NZL,oceania,7.69,560959,4414509,1945,0,11,8,19,42,59,56,63,58,47,33,32,30,42,55,67,73,85,91,90,89,88,87,91,91,90,95,101,109,119,134,3.571
1065,Whangarei Harbour (Marsden Point),-35.757,174.35,NZL,oceania,7.69,560959,4414509,1985,0,2,-8,-15,-13,-15,-9,32,27,23,13,18,-16,-2,14,42,49,58,73,64,50,35,30,22,28,27,33,43,55,68,87,3.366
1590,Tauranga (Salisbury Wharf),-37.641,176.18099999999995,NZL,oceania,7.69,560959,4414509,1985,0,8,-4,-12,3,6,4,14,10,-15,-33,-36,-43,-28,-1,25,32,54,61,54,45,43,40,49,63,70,86,91,95,86,91,3.8680000000000003
394,Cebu,10.3,123.917,PHL,asia,1.06,14121488,94852030,1948,0,1,7,31,38,49,45,30,7,-8,-16,-2,-4,8,27,54,63,85,86,70,52,53,55,62,85,97,100,116,131,92,90,3.8139999999999996
154,Trieste,45.647,13.758,ITA,europe,5.27,5304525,60788694,1875,0,-2,5,11,-1,-9,-16,-29,-40,-33,-24,-10,1,13,20,27,31,37,34,36,32,27,21,28,37,64,68,72,85,94,73,3.46
163,Balboa,8.967,-79.567,PAN,north-america,2.25,306782,3571185,1908,0,-1,-28,-79,-92,-86,-79,-58,-13,-1,4,1,21,19,19,13,2,-14,2,16,52,73,65,57,41,9,-6,-10,-22,-19,-7,1.946
174,Ko Lak,11.8,99.81700000000001,THA,asia,4.62,17309591,69518555,1940,0,-14,-10,-5,-5,-7,3,-6,-17,-25,-22,-24,-24,-21,-18,-21,-23,-20,-16,-15,-8,10,18,44,52,81,104,126,140,149,141,4.473
446,Ko Taphao Noi,7.8329999999999975,98.43299999999999,THA,asia,4.62,17309591,69518555,1940,0,25,32,-6,-20,-29,-25,-19,-24,-37,-36,-14,-33,-40,-24,-10,-15,7,28,30,10,-9,-5,-4,13,31,72,99,111,121,155,7.724
543,Diamond Harbour,22.2,88.167,IND,asia,1.73,84941245,1241491960,1948,0,-23,-17,-4,-14,-5,12,18,14,9,18,22,30,32,68,74,85,70,55,29,12,-7,-11,5,19,38,64,86,98,,,3.753
1270,Haldia,22.033,88.1,IND,asia,1.73,84941245,1241491960,1971,0,-6,2,19,14,16,25,38,31,17,21,29,29,29,62,68,70,70,59,46,37,15,17,29,36,50,72,85,92,,,2.763
215,Tuapse,44.1,39.067,RUS,europe,11.86,2907303,142835555,1917,0,-23,-14,16,28,41,55,49,30,31,49,48,62,84,109,111,116,113,96,97,115,120,109,111,99,111,112,116,147,163,140,3.715
569,Tiksi (Tiksi Bukhta),71.583,128.917,RUS,europe,11.86,2907303,142835555,1949,0,-35,-29,-25,-15,31,75,64,37,20,-15,-27,-15,-9,-7,12,32,24,61,49,51,36,61,37,51,47,,,,,,2.149
599,Amderma,69.75,61.7,RUS,europe,11.86,2907303,142835555,1950,0,4,5,-1,27,56,82,89,102,105,106,93,106,99,97,98,115,126,157,168,196,212,229,232,235,200,188,162,162,,,6.531000000000001
602,Sannikova (Sannikova Proliv),74.667,138.9,RUS,europe,11.86,2907303,142835555,1950,0,-13,8,9,28,52,80,79,77,77,49,18,33,23,16,2,11,-30,-4,1,47,58,94,96,80,71,64,67,72,,,1.929
640,Dunai (Dunai Ostrov),73.933,124.5,RUS,europe,11.86,2907303,142835555,1951,0,14,-3,18,39,40,29,52,38,15,0,-34,-42,-26,3,8,59,55,47,32,74,70,91,111,124,84,69,,,,,2.782
641,Kotelnyi (Kotelnyi Ostrov),76,137.86700000000002,RUS,europe,11.86,2907303,142835555,1951,0,-24,-21,-44,-33,-25,3,14,-5,39,14,9,9,18,-37,-16,-31,-29,-2,8,43,95,125,151,169,147,147,125,109,,,7.184
642,Kigiliah,73.333,139.86700000000002,RUS,europe,11.86,2907303,142835555,1951,0,-12,-11,-9,12,40,58,75,74,68,42,39,28,19,-7,-13,-19,-33,-7,10,36,51,75,58,60,41,26,28,20,,,-0.046
684,Murmansk,68.967,33.05,RUS,europe,11.86,2907303,142835555,1952,0,14,-5,-28,0,23,37,75,100,82,100,100,105,107,141,148,161,167,188,188,193,203,203,173,144,103,72,38,38,35,55,1.754
728,Izvestia Tsik (Izvestia Tsik Ostrova),75.95,82.95,RUS,europe,11.86,2907303,142835555,1954,0,-10,-15,-9,30,52,59,73,67,29,12,-2,-15,-31,-25,-16,-7,-12,6,8,8,5,17,11,6,-3,-4,-21,-29,,,-1.9669999999999999
824,Petropavlovsk-Kamchatsky,52.983000000000004,158.65,RUS,europe,11.86,2907303,142835555,1958,0,1,10,-4,-29,-39,-38,-43,-38,-21,-1,9,29,36,43,48,44,33,38,43,46,46,50,46,46,47,60,64,78,98,111,5.539
1589,Tanjung Gelang,3.975,103.43,MYS,asia,8.03,6215003,28859154,1984,0,-3,-8,-3,-4,-3,-2,0,-6,-11,-3,0,1,7,20,24,30,35,39,32,29,25,27,35,43,56,72,83,91,86,78,3.237
1591,Pelabuhan Kelang,3.05,101.35799999999999,MYS,asia,8.03,6215003,28859154,1984,0,-19,-36,-31,-38,-46,-51,-44,-50,-61,-52,-35,-50,-44,-23,-7,-1,13,11,-1,-18,-35,-30,-26,-11,7,19,37,54,45,32,3.36
1592,Cendering,5.265,103.18700000000001,MYS,asia,8.03,6215003,28859154,1985,0,-36,-57,-61,-100,-101,-98,-98,-100,-105,-97,-94,-92,-91,-79,-75,-68,-63,-57,-61,-70,-73,-72,-67,-63,-42,-27,-25,-27,-18,-22,3.29
1593,Tanjung Keling,2.215,102.15299999999999,MYS,asia,8.03,6215003,28859154,1985,0,-17,-32,-29,-39,-45,-53,-45,-51,-62,-54,-40,-58,-53,-35,-29,-23,-10,-11,-22,-37,-51,-46,-36,-27,-6,10,26,35,36,23,3.0260000000000002
1594,Lumut,4.24,100.613,MYS,asia,8.03,6215003,28859154,1985,0,-19,-35,-31,-38,-48,-51,-43,-49,-61,-52,-39,-52,-47,-26,-20,-16,-6,-8,-20,-28,-44,-39,-28,-20,-9,4,22,32,36,28,3.3960000000000004
1595,Pulau Pinang,5.4220000000000015,100.34700000000001,MYS,asia,8.03,6215003,28859154,1986,0,-8,-18,-10,-11,-15,-17,-8,-7,-19,-12,0,-18,-16,5,17,25,42,38,31,21,1,7,19,25,42,61,79,88,91,79,4.236000000000001
249,Foglo / Degerby,60.032,20.385,ALA,europe,,,,1924,0,-18,-25,-46,-16,8,1,14,-3,-35,-54,-86,-99,-87,-87,-92,-65,-72,-91,-90,-98,-103,-76,-58,-78,-102,-93,-109,-139,-149,-116,-4.136
352,Split - Gradska Luka,43.507,16.442,HRV,europe,3.97,115291,4395560,1955,0,1,3,7,-7,-14,-23,-34,-41,-32,-24,-10,1,14,24,31,32,38,44,47,48,44,37,38,44,64,68,74,82,87,,3.88
353,Bakar,45.3,14.533,HRV,europe,3.97,115291,4395560,1930,0,-4,-1,1,-19,-32,-44,-58,-66,-54,-40,-21,-6,11,20,32,34,45,44,42,32,25,13,12,19,45,47,49,61,,,3.477
685,Split Rt Marjana,43.508,16.392,HRV,europe,3.97,115291,4395560,1953,0,-1,-1,3,-9,-14,-24,-37,-43,-33,-27,-9,5,18,28,35,35,41,40,42,42,39,33,13,-17,-25,-65,,,,,-2.239
760,Dubrovnik,42.658,18.063,HRV,europe,3.97,115291,4395560,1956,0,0,3,5,-8,-16,-26,-33,-40,-31,-22,-8,0,14,25,31,33,43,42,43,46,45,37,37,40,62,71,79,96,101,,4.18
761,Rovinj,45.083,13.628,HRV,europe,3.97,115291,4395560,1956,0,1,8,10,-5,-14,-23,-36,-42,-30,-21,-7,6,18,24,34,39,44,39,37,29,18,9,10,17,36,37,37,53,55,,2.467
373,Thessaloniki,40.633,22.935,GRC,europe,6.18,927234,11390031,1969,0,-17,-17,-16,-47,-35,-27,-29,-31,7,13,25,36,57,72,79,78,85,85,77,82,86,83,82,91,109,107,116,131,135,116,5.209
410,Preveza,38.959,20.756999999999998,GRC,europe,6.18,927234,11390031,1969,0,-2,0,-3,-8,-35,-41,-48,-54,-39,-23,-27,-30,-27,-41,-40,-41,-39,-5,4,24,22,16,3,12,32,37,45,61,65,53,2.574
1232,Soudhas,35.48699999999999,24.081999999999997,GRC,europe,6.18,927234,11390031,1969,0,-5,6,8,6,-1,-15,-37,-47,-45,-51,-43,-31,-23,-16,1,5,13,21,25,29,34,31,30,32,48,54,,,,,2.6860000000000004
1233,Leros,37.13,26.84800000000001,GRC,europe,6.18,927234,11390031,1977,0,-1,11,21,6,7,10,17,5,28,34,34,24,43,38,28,20,14,7,0,4,2,-2,-10,-6,14,22,38,59,65,56,0.905
1234,Siros,37.44,24.945999999999998,GRC,europe,6.18,927234,11390031,1969,0,-11,-8,-4,-28,-28,-43,-61,-93,-95,-110,-111,-116,-99,-78,-68,-59,-46,-43,-57,-62,-67,-73,-75,-72,-54,-56,-52,-44,-44,-61,-0.586
1237,Khalkis North,38.472,23.593000000000004,GRC,europe,6.18,927234,11390031,1969,0,-7,-5,-16,-31,-31,-36,-56,-54,-42,-49,-49,-42,-33,-32,-30,-19,-8,5,9,23,27,28,21,41,59,56,61,77,67,47,3.109
1238,Alexandroupolis,40.844,25.878,GRC,europe,6.18,927234,11390031,1969,0,-16,-12,-4,-10,1,0,-3,-2,-5,5,11,12,15,28,32,34,43,55,63,75,78,75,60,57,75,72,79,96,95,65,2.7119999999999997
1239,Levkas,38.835,20.712,GRC,europe,6.18,927234,11390031,1970,0,-3,15,26,0,3,6,2,4,47,53,52,56,60,64,60,77,92,85,100,123,132,138,164,174,195,201,211,222,222,207,7.194
1240,Katakolon,37.645,21.32,GRC,europe,6.18,927234,11390031,1969,0,-11,-12,-8,-8,-18,-16,-35,-55,-48,-33,-19,3,22,30,33,39,41,50,57,69,67,64,56,58,69,73,84,103,112,102,4.77
413,Oostende,51.233000000000004,2.917,BEL,europe,8.33,2264375,10754056,1937,0,-12,-14,-10,-5,1,-1,-2,-12,-13,-10,-8,-4,9,16,18,39,49,48,50,48,42,49,54,49,51,49,36,26,28,31,2.479
470,Zeebrugge,51.35,3.2,BEL,europe,8.33,2264375,10754056,1962,0,-18,-26,-27,-21,-9,-10,-7,-13,-10,-7,-3,-3,7,13,16,38,48,47,49,48,43,53,63,68,66,63,50,39,26,32,3.07
489,Nieuwpoort,51.15,2.733,BEL,europe,8.33,2264375,10754056,1967,0,-11,-12,-7,-1,9,11,13,4,5,7,8,9,21,26,29,49,59,55,55,52,47,54,58,54,54,48,37,26,27,29,1.9669999999999999
431,Montevideo (Punta Lobos),-34.9,-56.25,URY,south-america,1.97,329223,3380008,1938,0,-32,-39,-75,-107,-117,-116,-128,-93,-85,-74,-79,-69,-52,-48,-53,-35,-24,-60,-86,-72,-83,-93,-87,-50,-54,-66,-78,-99,-94,-94,1.453
483,Vigo,42.238,-8.731,ESP,europe,5.03,3556459,46454895,1944,0,8,20,8,9,-1,2,-12,-8,-3,19,47,80,87,85,84,72,59,62,68,62,63,54,40,35,48,40,39,43,51,39,1.34
484,La Coruna I,43.369,-8.398,ESP,europe,5.03,3556459,46454895,1944,0,-5,4,17,23,25,25,7,-8,-14,-4,24,54,61,69,63,49,42,42,31,25,26,23,26,53,77,83,88,97,107,97,3.301
485,Santander I,43.46100000000001,-3.7910000000000004,ESP,europe,5.03,3556459,46454895,1944,0,-5,4,9,23,22,19,-7,-13,-24,-23,-5,21,32,36,42,44,45,47,51,51,49,45,45,51,68,69,76,83,93,86,3.137
488,Tarifa,36.009,-5.603,ESP,europe,5.03,3556459,46454895,1944,0,-26,-25,-32,-34,-35,-12,-10,-6,10,11,12,21,30,39,38,40,40,49,59,72,76,78,76,77,91,98,99,103,103,93,4.894
496,Malaga,36.713,-4.415,ESP,europe,5.03,3556459,46454895,1944,0,0,6,12,30,28,25,14,5,-10,-8,3,23,35,47,56,66,75,92,108,110,109,103,95,93,108,117,118,109,,,4.18
498,Ceuta,35.891999999999996,-5.316,ESP,europe,5.03,3556459,46454895,1945,0,3,10,9,10,22,30,22,21,18,3,2,6,4,2,-1,-8,-9,-2,4,7,9,7,5,7,24,30,33,36,36,24,0.755
985,Cadiz Iii,36.54,-6.2860000000000005,ESP,europe,5.03,3556459,46454895,1961,0,17,44,52,74,91,90,63,58,62,71,97,127,138,117,103,87,78,75,96,101,122,125,111,114,130,124,118,136,139,125,2.124
510,Antofagasta 2,-23.653000000000002,-70.404,CHL,south-america,4.69,214863,17269525,1946,0,-1,-25,-56,-65,-68,-74,-61,-43,-37,-44,-52,-58,-72,-79,-80,-65,-72,-49,-37,-36,-43,-49,-72,-82,-78,-72,-62,-60,-63,-65,-0.996
1272,Easter Island-E,-27.155,-109.473,CHL,south-america,4.69,214863,17269525,1981,0,-13,-2,-1,-18,-16,-34,-66,-80,-72,-73,-55,-33,-32,-30,-25,-19,-11,18,31,49,55,50,9,0,-36,-49,-49,-30,-43,-31,0.08800000000000001
2261,Iquique Ii,-20.204,-70.148,CHL,south-america,4.69,214863,17269525,1986,0,-3,5,3,8,24,39,42,59,52,51,44,65,42,45,29,28,2,13,14,10,1,-7,-4,-3,0,14,21,6,0,16,-0.7979999999999999
513,Kwajalein,8.732000000000001,167.735,MHL,oceania,1.94,44211,54816,1947,0,-8,3,16,13,17,7,10,0,-5,-2,24,15,23,37,49,50,62,68,67,65,68,103,122,128,149,167,174,176,178,142,5.345
595,Wake Island,19.29,166.61700000000005,MHL,oceania,1.94,44211,54816,1951,0,-31,-23,-11,-46,-54,-44,-57,-61,-39,-33,-23,-2,2,9,27,23,22,18,19,4,-2,-2,8,-3,-3,8,17,23,29,36,3.1189999999999998
523,Midway Island,28.212,-177.36,UMI,north-america,,,,1947,0,15,24,28,21,26,28,29,28,32,38,35,20,37,41,49,60,88,91,98,85,81,74,78,83,100,94,114,116,118,113,3.5989999999999998
539,Pago Pago,-14.28,-170.69,ASM,oceania,,5370,69543,1949,0,9,-8,16,17,9,10,16,30,52,55,64,75,32,25,31,29,35,83,89,89,95,100,102,98,108,131,155,177,201,228,7.65
540,"Apra Harbour, Guam",13.437999999999999,144.653,GUM,oceania,,10089,182111,1948,0,-14,-17,11,-5,-28,-39,-40,-44,-39,-21,15,15,14,44,77,82,114,102,82,73,80,95,127,144,149,146,158,153,144,118,5.765
541,Barentsburg,78.067,14.25,SJM,europe,,316,2338,1949,0,-9,-31,-47,-43,-27,-18,7,9,1,-24,-63,-105,-118,-145,-167,-130,-107,-96,-77,-51,-61,-63,-73,-75,-79,-75,-82,-81,-92,-88,-2.025
1421,Ny-Alesund,78.929,11.937999999999999,SJM,europe,,316,2338,1977,0,-4,-24,-38,-53,-66,-88,-15,-16,-12,-18,-27,-33,-47,-60,-72,-81,-92,-86,-83,-79,-75,-76,-94,-112,-130,-134,-146,-156,-174,-170,-4.878
563,Gibara,21.108,-76.125,CUB,north-america,3.05,1014837,11253665,1976,0,10,19,7,2,-1,-2,7,8,15,17,8,6,18,11,-3,5,10,19,19,34,39,31,13,18,21,19,31,46,57,78,2.867
638,Reykjavik,64.15100000000001,-21.94,ISL,europe,6.06,36207,324366,1957,0,22,21,16,18,39,35,16,2,-13,-46,-56,-45,-36,-34,-21,-18,-13,-1,9,7,18,21,15,13,15,21,11,11,21,33,0.892
723,Dalian,38.867,121.68299999999999,CHN,asia,7.54,163381088,1347565324,1954,0,6,18,22,25,30,36,38,35,42,39,35,29,41,37,46,57,70,75,84,87,90,91,88,88,90,85,92,101,112,117,3.766
933,Zhapo,21.583000000000002,111.81700000000001,CHN,asia,7.54,163381088,1347565324,1959,0,-1,0,9,18,19,15,23,19,20,23,30,36,42,52,65,80,79,86,72,60,49,44,47,56,60,62,87,91,93,95,2.9930000000000003
934,Kanmen,28.083000000000002,121.28299999999999,CHN,asia,7.54,163381088,1347565324,1959,0,-4,-3,-5,6,13,25,30,30,25,14,5,1,7,8,19,31,35,32,35,35,31,34,36,38,48,53,72,81,101,106,3.8289999999999997
724,Sembawang,1.4669999999999999,103.833,SGP,asia,10.31,1558272,5187933,1954,0,-5,4,16,30,44,49,42,31,11,-1,-3,-4,0,21,31,41,50,56,51,42,38,38,46,51,68,84,97,104,108,98,1.844
1248,Sultan Shoal,1.2329999999999999,103.65,SGP,asia,10.31,1558272,5187933,1972,0,-2,-8,1,8,13,9,23,20,9,20,32,21,25,42,46,58,68,69,60,50,31,35,32,57,80,104,123,127,118,106,3.583
759,Magueyes Island,17.97,-67.045,PRI,north-america,,555617,3745526,1955,0,4,-10,-17,-21,-30,-30,-26,-22,-8,-6,-12,-12,-5,-16,-16,-4,-3,-2,3,10,8,18,18,16,22,23,27,29,47,57,3.057
1001,San Juan,18.458,-66.115,PRI,north-america,,555617,3745526,1963,0,6,1,-20,-27,-35,-31,-26,-9,8,12,6,4,13,1,0,12,12,14,20,28,26,34,32,30,36,35,44,44,61,74,3.313
819,Mar Del Plata (Naval Base),-38.033,-57.516999999999996,ARG,south-america,4.75,4139178,40764561,1958,0,-13,-25,-31,-39,-48,-44,-45,-42,-31,-37,-44,-38,-46,-58,-52,-42,-29,-6,-5,9,9,1,-12,-2,-20,-24,-16,1,16,34,4.176
832,Palermo,-34.567,-58.4,ARG,south-america,4.75,4139178,40764561,1960,0,16,12,-23,-29,-33,-44,-45,-21,-26,-27,-35,-34,-25,-14,-19,-17,-24,-51,-68,-61,-44,-31,-27,-18,-17,-24,-29,-23,-22,-13,1.252
841,Hondau,20.666999999999998,106.8,VNM,asia,1.84,50286178,88791996,1957,0,-5,-8,-14,-43,-71,-68,-62,-51,-46,-37,-31,-23,-20,-18,-14,-7,-7,2,-3,-10,-17,-23,-27,-17,-10,-10,10,22,,,3.053
1003,Honngu,18.8,105.76700000000001,VNM,asia,1.84,50286178,88791996,1962,0,-22,-23,-54,-22,-14,-11,26,57,39,39,10,-36,-73,-100,-142,-165,-190,-200,-220,-225,-221,-207,-215,-204,-192,-196,-196,-186,,,-10.445
1449,Quinhon,13.767000000000001,109.25,VNM,asia,1.84,50286178,88791996,1977,0,-6,-10,-4,15,33,47,54,34,10,-14,-31,-42,-42,-25,-10,-2,3,9,-4,-17,-24,-25,-19,-6,8,19,35,45,,,0.6679999999999999
1475,Danang,16.1,108.21700000000001,VNM,asia,1.84,50286178,88791996,1978,0,-7,3,12,17,25,24,25,17,17,17,26,31,36,48,57,67,76,87,79,72,66,61,67,82,89,93,103,113,,,3.94
1495,Vungtau,10.333,107.06700000000001,VNM,asia,1.84,50286178,88791996,1979,0,-13,-21,-18,-17,-15,-8,11,32,53,75,99,89,76,69,69,69,85,92,81,59,46,39,47,60,83,96,106,111,,,4.061
913,Argentine Islands,-65.24600000000001,-64.257,ATA,antarctica,,,,1960,0,10,22,31,43,54,52,47,46,44,37,51,53,59,66,65,61,57,52,41,43,38,41,36,35,30,29,42,48,53,,-0.024
954,Mokpo,34.78,126.376,KOR,asia,11.57,3970153,48391343,1960,0,10,23,17,22,27,29,46,55,62,54,51,40,37,31,37,39,57,79,99,116,137,136,124,117,127,128,139,154,160,156,5.545
955,Busan,35.096,129.036,KOR,asia,11.57,3970153,48391343,1961,0,9,18,24,33,37,46,53,54,52,52,43,41,50,58,65,72,77,75,72,70,72,72,71,77,88,93,101,100,102,101,2.937
956,Incheon,37.452,126.59200000000001,KOR,asia,11.57,3970153,48391343,1960,0,1,-14,-7,5,13,27,48,48,59,61,55,75,99,96,90,98,88,77,82,78,81,87,84,86,96,96,100,110,113,116,3.978
997,Ulsan,35.50199999999999,129.387,KOR,asia,11.57,3970153,48391343,1963,0,0,4,3,6,4,5,6,-1,-18,-18,-25,-32,-25,-10,-16,-11,-4,0,0,7,26,42,40,45,52,35,26,25,28,34,2.481
1066,Jeju,33.528,126.54299999999999,KOR,asia,11.57,3970153,48391343,1964,0,-4,2,-2,6,11,19,24,27,32,33,33,37,50,55,67,82,95,103,120,119,128,133,139,140,154,151,156,154,150,150,6.207999999999999
1108,Mukho,37.55,129.116,KOR,asia,11.57,3970153,48391343,1965,0,5,12,13,18,25,24,29,32,32,32,31,28,32,35,40,42,45,44,49,52,59,64,67,65,68,66,68,72,76,76,2.89
1155,Yeosu,34.747,127.766,KOR,asia,11.57,3970153,48391343,1966,0,7,22,22,33,39,47,55,60,60,57,51,47,57,65,74,82,83,78,65,54,51,53,50,57,67,41,45,46,50,53,1.831
1324,Pohang,36.047,129.384,KOR,asia,11.57,3970153,48391343,1972,0,2,3,4,10,14,17,24,28,24,21,17,14,18,26,34,41,54,62,79,101,123,131,145,157,165,164,180,176,173,178,8.265
1365,Sokcho,38.207,128.594,KOR,asia,11.57,3970153,48391343,1974,0,1,6,3,7,11,12,18,21,22,24,23,22,27,31,38,42,47,44,44,42,42,43,47,50,56,61,68,75,80,84,2.925
1445,Gadeokdo,35.025,128.811,KOR,asia,11.57,3970153,48391343,1977,0,2,5,0,5,3,5,8,9,7,2,-3,-4,5,12,16,21,14,12,7,14,29,48,52,57,59,52,58,60,78,96,4.123
1446,Tongyeong,34.828,128.435,KOR,asia,11.57,3970153,48391343,1977,0,3,7,7,15,18,23,28,29,26,22,17,12,20,24,29,34,40,38,38,38,41,42,40,41,43,41,47,50,55,64,2.168
1489,Heuksando,34.684,125.436,KOR,asia,11.57,3970153,48391343,1979,0,1,7,9,14,18,23,26,29,35,39,41,44,38,29,20,16,10,18,20,17,21,20,12,7,13,5,12,16,23,23,0.12
1490,Ulleung,37.491,130.914,KOR,asia,11.57,3970153,48391343,1979,0,1,-1,0,10,5,19,18,-5,-31,-35,-48,-55,-35,2,18,30,42,55,55,36,47,53,39,30,33,28,47,75,86,118,5.489
1527,Gunsan (Outer Port),35.976,126.56299999999999,KOR,asia,11.57,3970153,48391343,1981,0,-1,7,6,8,12,32,40,32,31,20,-2,-14,-1,9,22,33,42,42,39,31,33,49,56,70,94,110,100,97,99,90,3.9760000000000004
1546,Geomundo,34.028,127.309,KOR,asia,11.57,3970153,48391343,1982,0,4,10,13,22,27,33,42,45,45,43,39,39,50,60,76,94,108,118,123,121,119,118,115,118,124,117,115,112,110,118,4.837
1568,Wando,34.315,126.76,KOR,asia,11.57,3970153,48391343,1983,0,-1,0,0,5,6,12,18,16,15,11,5,1,15,23,30,36,44,42,40,31,31,25,16,13,25,24,33,38,47,53,1.985
1588,Chujado,33.961999999999996,126.3,KOR,asia,11.57,3970153,48391343,1984,0,-3,-2,-2,8,6,13,18,17,15,9,1,0,11,14,22,25,28,26,30,32,34,40,29,12,16,21,23,34,57,63,2.6660000000000004
1627,Seogwipo,33.24,126.56200000000001,KOR,asia,11.57,3970153,48391343,1985,0,1,12,14,21,31,43,53,61,68,70,70,72,83,86,97,108,115,117,123,119,123,124,125,127,135,125,108,105,105,109,4.409
1032,Ilha Fiscal,-22.897,-43.167,BRA,south-america,2.59,13525900,196655014,1965,0,0,-14,-47,-47,-51,-66,-70,-47,-29,-9,0,0,-22,-52,-81,-96,-92,-84,-89,-90,-86,-90,-95,-69,-48,-32,-20,4,-5,-4,1.079
1252,Malakal-B,7.3329999999999975,134.467,PLW,oceania,12.34,2500,20609,1971,0,-13,-17,-18,-18,-33,-44,-31,-55,-93,-98,-72,-92,-57,-9,25,46,67,43,-3,-25,-34,-22,19,52,72,89,121,122,108,,6.4270000000000005
1253,Rikitea,-23.122,-134.967,PYF,oceania,2.92,34466,273777,1970,0,14,19,24,41,47,44,41,41,39,40,48,57,63,72,70,61,62,65,55,66,71,68,70,81,74,79,88,85,81,,1.5830000000000002
1397,"Papeete-B, Fare Ute Point, Soc.Is.",-17.533,-149.57299999999995,PYF,oceania,2.92,34466,273777,1970,0,7,1,17,14,9,6,11,16,17,20,26,23,11,29,29,27,35,52,45,42,50,51,44,38,35,31,31,33,45,,1.7830000000000001
1327,Suva-A,-18.136,178.423,FJI,oceania,1.32,107090,868406,1973,0,-1,-7,6,33,47,75,98,116,110,109,114,122,107,108,123,124,125,138,148,139,141,150,179,203,213,232,248,246,241,248,7.119
1371,Christmas Island Ii,1.983,-157.483,KIR,oceania,0.56,65881,101093,1974,0,9,-9,-18,-8,-2,-1,-3,30,44,32,19,42,9,-17,-17,-14,-25,5,34,41,44,15,-3,-2,-13,-23,-7,15,24,,0.9209999999999999
1370,Pohnpei-B,6.983,158.233,FSM,oceania,1.45,21442,111542,1976,0,-4,2,17,25,17,-9,-5,-29,-49,-42,-1,-12,6,35,59,60,69,57,36,11,-6,26,43,50,67,91,97,103,98,,2.9989999999999997
1393,Charlotte Amalie,18.335,-64.92,VIR,north-america,,13958,108846,1976,0,11,-4,-14,-21,-27,-26,-19,-4,10,11,-3,-5,-6,-16,-16,-2,0,1,6,14,20,27,27,23,29,23,29,29,49,59,3.154
1447,"Lime Tree Bay, St Croix",17.692999999999994,-64.753,VIR,north-america,,13958,108846,1984,0,2,11,-6,-17,-28,-37,-32,-19,-2,6,12,16,19,10,9,19,15,17,25,37,38,45,42,33,40,41,48,50,69,73,3.552
1450,Penrhyn,-9.017000000000001,-158.067,COK,oceania,,3353,20414,1978,0,-2,3,40,47,52,62,59,62,84,90,80,82,68,51,32,37,44,71,87,111,107,102,81,74,69,62,52,72,93,,1.452
1600,Zanzibar,-6.15,39.183,TZA,africa,0.22,777316,46218486,1985,0,-8,-7,-3,-15,-13,-6,-15,-24,-22,-26,-38,-40,-32,-30,-42,-49,-49,-57,-55,-46,-33,-17,-10,-4,10,23,20,23,31,,1.8159999999999998
1645,Baltra-B,-0.433,-90.28299999999999,ECU,south-america,2.76,1955846,14666055,1986,0,27,59,39,33,43,56,58,88,101,102,88,112,112,101,99,99,61,44,62,70,83,84,83,83,79,72,77,75,88,,1.16
